[{"category": "drugs", "location_type": "BTP", "location": {"latitude": "53.475776", "street": {"id": 2348024, "name": "Manchester Piccadilly (station)"}, "longitude": "-2.231700"}, "context": "", "outcome_status": {"category": "Status update unavailable", "date": "2025-01"}, "persistent_id": "", "id": 126077978, "location_subtype": "STATION", "month": "2024-09"}, {"category": "other-theft", "location_type": "BTP", "location": {"latitude": "53.474173", "street": {"id": 2347847, "name": "Deansgate (station)"}, "longitude": "-2.253570"}, "context": "", "outcome_status": {"category": "Status update unavailable", "date": "2025-01"}, "persistent_id": "", "id": 126076858, "location_subtype": "STATION", "month": "2024-09"}, {"category": "other-theft", "location_type": "BTP", "location": {"latitude": "53.475776", "street": {"id": 2348024, "name": "Manchester Piccadilly (station)"}, "longitude": "-2.231700"}, "context": "", "outcome_status": {"category": "Status update unavailable", "date": "2025-01"}, "persistent_id": "", "id": 126077979, "location_subtype": "STATION", "month": "2024-09"}, {"category": "other-theft", "location_type": "BTP", "location": {"latitude": "53.475776", "street": {"id": 2348024, "name": "Manchester Piccadilly (station)"}, "longitude": "-2.231700"}, "context": "", "outcome_status": {"category": "Status update unavailable", "date": "2025-01"}, "persistent_id": "", "id": 126077980, "location_subtype": "STATION", "month": "2024-09"}, {"category": "public-order", "location_type": "BTP", "location": {"latitude": "53.475776", "street": {"id": 2348024, "name": "Manchester Piccadilly (station)"}, "longitude": "-2.231700"}, "context": "", "outcome_status": {"category": "Status update unavailable", "date": "2025-01"}, "persistent_id": "", "id": 126077981, "location_subtype": "STATION", "month": "2024-09"}, {"category": "public-order", "location_type": "BTP", "location": {"latitude": "53.475776", "street": {"id": 2348024, "name": "Manchester Piccadilly (station)"}, "longitude": "-2.231700"}, "context": "", "outcome_status": {"category": "Status update unavailable", "date": "2025-01"}, "persistent_id": "", "id": 126077982, "location_subtype": "STATION", "month": "2024-09"}, {"category": "robbery", "location_type": "BTP", "location": {"latitude": "53.475776", "street": {"id": 2348024, "name": "Manchester Piccadilly (station)"}, "longitude": "-2.231700"}, "context": "", "outcome_status": {"category": "Status update unavailable", "date": "2025-01"}, "persistent_id": "", "id": 126077983, "location_subtype": "STATION", "month": "2024-09"}, {"category": "shoplifting", "location_type": "BTP", "location": {"latitude": "53.475776", "street": {"id": 2348024, "name": "Manchester Piccadilly (station)"}, "longitude": "-2.231700"}, "context": "", "outcome_status": {"category": "Status update unavailable", "date": "2025-01"}, "persistent_id": "", "id": 126077984, "location_subtype": "STATION", "month": "2024-09"}, {"category": "theft-from-the-person", "location_type": "Force", "location": {"latitude": "53.484279", "street": {"id": 1910197, "name": "On or near Edge Street"}, "longitude": "-2.236282"}, "context": "", "outcome_status": {"category": "Status update unavailable", "date": "2025-01"}, "persistent_id": "2f3432e7ce6e4d4509b3f8b3d22afcc65f07d213ebe9b7436965f731f98ee68f", "id": 122905685, "location_subtype": "", "month": "2024-09"}, {"category": "theft-from-the-person", "location_type": "BTP", "location": {"latitude": "53.475776", "street": {"id": 2348024, "name": "Manchester Piccadilly (station)"}, "longitude": "-2.231700"}, "context": "", "outcome_status": {"category": "Status update unavailable", "date": "2025-01"}, "persistent_id": "", "id": 126077985, "location_subtype": "STATION", "month": "2024-09"}, {"category": "theft-from-the-person", "location_type": "BTP", "location": {"latitude": "53.475776", "street": {"id": 2348024, "name": "Manchester Piccadilly (station)"}, "longitude": "-2.231700"}, "context": "", "outcome_status": {"category": "Status update unavailable", "date": "2025-01"}, "persistent_id": "", "id": 126077986, "location_subtype": "STATION", "month": "2024-09"}, {"category": "violent-crime", "location_type": "Force", "location": {"latitude": "53.477798", "street": {"id": 1909254, "name": "On or near Mount Street"}, "longitude": "-2.245528"}, "context": "", "outcome_status": {"category": "Status update unavailable", "date": "2025-01"}, "persistent_id": "f57afe11c571eaa770c8daa7a61547b7f9008b91428ddebed63a3a55286e46fa", "id": 122979420, "location_subtype": "", "month": "2024-09"}, {"category": "violent-crime", "location_type": "Force", "location": {"latitude": "53.480841", "street": {"id": 1909077, "name": "On or near Nightclub"}, "longitude": "-2.247383"}, "context": "", "outcome_status": {"category": "Unable to prosecute suspect", "date": "2024-09"}, "persistent_id": "a884dfd959ff2fe7c14295322c2dd92f592dbc21e6c869e5ae10412a4ca6186c", "id": 122826182, "location_subtype": "", "month": "2024-09"}, {"category": "violent-crime", "location_type": "BTP", "location": {"latitude": "53.475776", "street": {"id": 2348024, "name": "Manchester Piccadilly (station)"}, "longitude": "-2.231700"}, "context": "", "outcome_status": {"category": "Status update unavailable", "date": "2025-01"}, "persistent_id": "", "id": 126077987, "location_subtype": "STATION", "month": "2024-09"}, {"category": "violent-crime", "location_type": "BTP", "location": {"latitude": "53.475776", "street": {"id": 2348024, "name": "Manchester Piccadilly (station)"}, "longitude": "-2.231700"}, "context": "", "outcome_status": {"category": "Status update unavailable", "date": "2025-01"}, "persistent_id": "", "id": 126077988, "location_subtype": "STATION", "month": "2024-09"}]