[{"category": "criminal-damage-arson", "location_type": "BTP", "location": {"latitude": "53.482776", "street": {"id": 2344886, "name": "Salford Central (station)"}, "longitude": "-2.255517"}, "context": "", "outcome_status": {"category": "Status update unavailable", "date": "2024-11"}, "persistent_id": "", "id": 126092113, "location_subtype": "STATION", "month": "2024-07"}, {"category": "criminal-damage-arson", "location_type": "BTP", "location": {"latitude": "53.475776", "street": {"id": 2348024, "name": "Manchester Piccadilly (station)"}, "longitude": "-2.231700"}, "context": "", "outcome_status": {"category": "Status update unavailable", "date": "2024-11"}, "persistent_id": "", "id": 126091523, "location_subtype": "STATION", "month": "2024-07"}, {"category": "drugs", "location_type": "BTP", "location": {"latitude": "53.475776", "street": {"id": 2348024, "name": "Manchester Piccadilly (station)"}, "longitude": "-2.231700"}, "context": "", "outcome_status": {"category": "Status update unavailable", "date": "2024-11"}, "persistent_id": "", "id": 126091524, "location_subtype": "STATION", "month": "2024-07"}, {"category": "other-theft", "location_type": "BTP", "location": {"latitude": "53.475776", "street": {"id": 2348024, "name": "Manchester Piccadilly (station)"}, "longitude": "-2.231700"}, "context": "", "outcome_status": {"category": "Status update unavailable", "date": "2024-11"}, "persistent_id": "", "id": 126091525, "location_subtype": "STATION", "month": "2024-07"}, {"category": "other-theft", "location_type": "BTP", "location": {"latitude": "53.475776", "street": {"id": 2348024, "name": "Manchester Piccadilly (station)"}, "longitude": "-2.231700"}, "context": "", "outcome_status": {"category": "Status update unavailable", "date": "2024-11"}, "persistent_id": "", "id": 126091526, "location_subtype": "STATION", "month": "2024-07"}, {"category": "possession-of-weapons", "location_type": "BTP", "location": {"latitude": "53.475776", "street": {"id": 2348024, "name": "Manchester Piccadilly (station)"}, "longitude": "-2.231700"}, "context": "", "outcome_status": {"category": "Status update unavailable", "date": "2024-11"}, "persistent_id": "", "id": 126091527, "location_subtype": "STATION", "month": "2024-07"}, {"category": "public-order", "location_type": "BTP", "location": {"latitude": "53.475776", "street": {"id": 2348024, "name": "Manchester Piccadilly (station)"}, "longitude": "-2.231700"}, "context": "", "outcome_status": {"category": "Status update unavailable", "date": "2024-11"}, "persistent_id": "", "id": 126091528, "location_subtype": "STATION", "month": "2024-07"}, {"category": "public-order", "location_type": "BTP", "location": {"latitude": "53.475776", "street": {"id": 2348024, "name": "Manchester Piccadilly (station)"}, "longitude": "-2.231700"}, "context": "", "outcome_status": {"category": "Status update unavailable", "date": "2024-11"}, "persistent_id": "", "id": 126091529, "location_subtype": "STATION", "month": "2024-07"}, {"category": "shoplifting", "location_type": "BTP", "location": {"latitude": "53.475776", "street": {"id": 2348024, "name": "Manchester Piccadilly (station)"}, "longitude": "-2.231700"}, "context": "", "outcome_status": {"category": "Status update unavailable", "date": "2024-11"}, "persistent_id": "", "id": 126091530, "location_subtype": "STATION", "month": "2024-07"}, {"category": "theft-from-the-person", "location_type": "BTP", "location": {"latitude": "53.475776", "street": {"id": 2348024, "name": "Manchester Piccadilly (station)"}, "longitude": "-2.231700"}, "context": "", "outcome_status": {"category": "Status update unavailable", "date": "2024-11"}, "persistent_id": "", "id": 126091531, "location_subtype": "STATION", "month": "2024-07"}, {"category": "theft-from-the-person", "location_type": "Force", "location": {"latitude": "53.485953", "street": {"id": 1908753, "name": "On or near Garden Lane"}, "longitude": "-2.253110"}, "context": "", "outcome_status": {"category": "Investigation complete; no suspect identified", "date": "2024-07"}, "persistent_id": "88840776e5499b6ebaa1a0fba582823d11b671f40b3380a98580d1a51469e1ee", "id": 122887329, "location_subtype": "", "month": "2024-07"}, {"category": "violent-crime", "location_type": "Force", "location": {"latitude": "53.487773", "street": {"id": 1909433, "name": "On or near Manchester Victoria"}, "longitude": "-2.241998"}, "context": "", "outcome_status": {"category": "Action to be taken by another organisation", "date": "2024-08"}, "persistent_id": "ca3a9c101949ad494791787148c070957d079bc1d83e4bd27c5fbf3adddeb1b7", "id": 120195061, "location_subtype": "", "month": "2024-07"}, {"category": "violent-crime", "location_type": "Force", "location": {"latitude": "53.483593", "street": {"id": 1908917, "name": "On or near Parking Area"}, "longitude": "-2.250896"}, "context": "", "outcome_status": {"category": "Status update unavailable", "date": "2024-11"}, "persistent_id": "795b35878936473308c85c44a840eca62ae08ab85e576cbe9f7305b272070a7b", "id": 120189409, "location_subtype": "", "month": "2024-07"}, {"category": "violent-crime", "location_type": "Force", "location": {"latitude": "53.475996", "street": {"id": 1909186, "name": "On or near Parking Area"}, "longitude": "-2.247551"}, "context": "", "outcome_status": {"category": "Status update unavailable", "date": "2024-11"}, "persistent_id": "a4883a09d274e5d987f9ec89d0307f1e36c2bff8e805055979dd0aa2457c594d", "id": 120142547, "location_subtype": "", "month": "2024-07"}, {"category": "violent-crime", "location_type": "Force", "location": {"latitude": "53.482401", "street": {"id": 1910173, "name": "On or near Short Street"}, "longitude": "-2.236377"}, "context": "", "outcome_status": {"category": "Status update unavailable", "date": "2024-11"}, "persistent_id": "7907a074913e92b40072b6ee2e6a6b2e12fca0599861ae5e2d263756316c50ce", "id": 120141649, "location_subtype": "", "month": "2024-07"}, {"category": "violent-crime", "location_type": "BTP", "location": {"latitude": "53.482776", "street": {"id": 2344886, "name": "Salford Central (station)"}, "longitude": "-2.255517"}, "context": "", "outcome_status": {"category": "Status update unavailable", "date": "2024-11"}, "persistent_id": "", "id": 126092114, "location_subtype": "STATION", "month": "2024-07"}, {"category": "violent-crime", "location_type": "BTP", "location": {"latitude": "53.475776", "street": {"id": 2348024, "name": "Manchester Piccadilly (station)"}, "longitude": "-2.231700"}, "context": "", "outcome_status": {"category": "Status update unavailable", "date": "2024-11"}, "persistent_id": "", "id": 126091532, "location_subtype": "STATION", "month": "2024-07"}, {"category": "violent-crime", "location_type": "BTP", "location": {"latitude": "53.475776", "street": {"id": 2348024, "name": "Manchester Piccadilly (station)"}, "longitude": "-2.231700"}, "context": "", "outcome_status": {"category": "Status update unavailable", "date": "2024-11"}, "persistent_id": "", "id": 126091533, "location_subtype": "STATION", "month": "2024-07"}]