[{"category": "anti-social-behaviour", "location_type": "Force", "location": {"latitude": "51.522216", "street": {"id": 1677558, "name": "On or near Torrington Place"}, "longitude": "-0.133257"}, "context": "", "outcome_status": null, "persistent_id": "", "id": 122701950, "location_subtype": "", "month": "2024-07"}, {"category": "anti-social-behaviour", "location_type": "Force", "location": {"latitude": "51.509396", "street": {"id": 1678091, "name": "On or near Orange Street"}, "longitude": "-0.130626"}, "context": "", "outcome_status": null, "persistent_id": "", "id": 122719073, "location_subtype": "", "month": "2024-07"}, {"category": "anti-social-behaviour", "location_type": "Force", "location": {"latitude": "51.497540", "street": {"id": 1677294, "name": "On or near Victoria Street"}, "longitude": "-0.135490"}, "context": "", "outcome_status": null, "persistent_id": "", "id": 122719775, "location_subtype": "", "month": "2024-07"}, {"category": "anti-social-behaviour", "location_type": "Force", "location": {"latitude": "51.521928", "street": {"id": 1679934, "name": "On or near Rugby Street"}, "longitude": "-0.118062"}, "context": "", "outcome_status": null, "persistent_id": "", "id": 122720941, "location_subtype": "", "month": "2024-07"}, {"category": "anti-social-behaviour", "location_type": "Force", "location": {"latitude": "51.511312", "street": {"id": 1677127, "name": "On or near Lower James Street"}, "longitude": "-0.136326"}, "context": "", "outcome_status": null, "persistent_id": "", "id": 122717664, "location_subtype": "", "month": "2024-07"}, {"category": "anti-social-behaviour", "location_type": "Force", "location": {"latitude": "51.516058", "street": {"id": 1676584, "name": "On or near Market Place"}, "longitude": "-0.140154"}, "context": "", "outcome_status": null, "persistent_id": "", "id": 122717708, "location_subtype": "", "month": "2024-07"}, {"category": "anti-social-behaviour", "location_type": "Force", "location": {"latitude": "51.509404", "street": {"id": 1677825, "name": "On or near Theatre/concert Hall"}, "longitude": "-0.131706"}, "context": "", "outcome_status": null, "persistent_id": "", "id": 122718451, "location_subtype": "", "month": "2024-07"}, {"category": "anti-social-behaviour", "location_type": "Force", "location": {"latitude": "51.518405", "street": {"id": 1679695, "name": "On or near Procter Street"}, "longitude": "-0.119302"}, "context": "", "outcome_status": null, "persistent_id": "", "id": 122719536, "location_subtype": "", "month": "2024-07"}, {"category": "anti-social-behaviour", "location_type": "Force", "location": {"latitude": "51.515004", "street": {"id": 1678816, "name": "On or near B401"}, "longitude": "-0.125352"}, "context": "", "outcome_status": null, "persistent_id": "", "id": 122719540, "location_subtype": "", "month": "2024-07"}, {"category": "anti-social-behaviour", "location_type": "Force", "location": {"latitude": "51.515753", "street": {"id": 1676083, "name": "On or near John Prince's Street"}, "longitude": "-0.143092"}, "context": "", "outcome_status": null, "persistent_id": "", "id": 122719551, "location_subtype": "", "month": "2024-07"}, {"category": "anti-social-behaviour", "location_type": "Force", "location": {"latitude": "51.517742", "street": {"id": 1678770, "name": "On or near Little Russell Street"}, "longitude": "-0.125614"}, "context": "", "outcome_status": null, "persistent_id": "", "id": 122719563, "location_subtype": "", "month": "2024-07"}, {"category": "anti-social-behaviour", "location_type": "Force", "location": {"latitude": "51.514582", "street": {"id": 1678863, "name": "On or near Shorts Gardens"}, "longitude": "-0.125441"}, "context": "", "outcome_status": null, "persistent_id": "", "id": 122720159, "location_subtype": "", "month": "2024-07"}, {"category": "anti-social-behaviour", "location_type": "Force", "location": {"latitude": "51.515070", "street": {"id": 1676927, "name": "On or near Shopping Area"}, "longitude": "-0.138003"}, "context": "", "outcome_status": null, "persistent_id": "", "id": 122720702, "location_subtype": "", "month": "2024-07"}, {"category": "anti-social-behaviour", "location_type": "Force", "location": {"latitude": "51.519378", "street": {"id": 1677300, "name": "On or near Goodge Street"}, "longitude": "-0.135737"}, "context": "", "outcome_status": null, "persistent_id": "", "id": 122721127, "location_subtype": "", "month": "2024-07"}, {"category": "anti-social-behaviour", "location_type": "Force", "location": {"latitude": "51.510973", "street": {"id": 1676429, "name": "On or near Clifford Street"}, "longitude": "-0.141629"}, "context": "", "outcome_status": null, "persistent_id": "", "id": 122721970, "location_subtype": "", "month": "2024-07"}, {"category": "anti-social-behaviour", "location_type": "Force", "location": {"latitude": "51.522284", "street": {"id": 1678831, "name": "On or near Russell Square"}, "longitude": "-0.125153"}, "context": "", "outcome_status": null, "persistent_id": "", "id": 122721979, "location_subtype": "", "month": "2024-07"}, {"category": "anti-social-behaviour", "location_type": "Force", "location": {"latitude": "51.500978", "street": {"id": 1678704, "name": "On or near Bridge Street"}, "longitude": "-0.125524"}, "context": "", "outcome_status": null, "persistent_id": "", "id": 122721989, "location_subtype": "", "month": "2024-07"}, {"category": "anti-social-behaviour", "location_type": "Force", "location": {"latitude": "51.514408", "street": {"id": 1678779, "name": "On or near Neal Street"}, "longitude": "-0.125780"}, "context": "", "outcome_status": null, "persistent_id": "", "id": 122722443, "location_subtype": "", "month": "2024-07"}, {"category": "anti-social-behaviour", "location_type": "Force", "location": {"latitude": "51.512863", "street": {"id": 1679427, "name": "On or near Russell Street"}, "longitude": "-0.120842"}, "context": "", "outcome_status": null, "persistent_id": "", "id": 122722926, "location_subtype": "", "month": "2024-07"}, {"category": "anti-social-behaviour", "location_type": "Force", "location": {"latitude": "51.500179", "street": {"id": 1680309, "name": "On or near Westminster Bridge Road"}, "longitude": "-0.114967"}, "context": "", "outcome_status": null, "persistent_id": "", "id": 122723040, "location_subtype": "", "month": "2024-07"}, {"category": "anti-social-behaviour", "location_type": "Force", "location": {"latitude": "51.516341", "street": {"id": 1679597, "name": "On or near Nightclub"}, "longitude": "-0.120151"}, "context": "", "outcome_status": null, "persistent_id": "", "id": 122723200, "location_subtype": "", "month": "2024-07"}, {"category": "anti-social-behaviour", "location_type": "Force", "location": {"latitude": "51.513161", "street": {"id": 1678473, "name": "On or near Tower Street"}, "longitude": "-0.127675"}, "context": "", "outcome_status": null, "persistent_id": "", "id": 122723219, "location_subtype": "", "month": "2024-07"}, {"category": "anti-social-behaviour", "location_type": "Force", "location": {"latitude": "51.498619", "street": {"id": 1680262, "name": "On or near Royal Street"}, "longitude": "-0.115780"}, "context": "", "outcome_status": null, "persistent_id": "", "id": 122723302, "location_subtype": "", "month": "2024-07"}, {"category": "anti-social-behaviour", "location_type": "Force", "location": {"latitude": "51.495415", "street": {"id": 1678026, "name": "On or near Monck Street"}, "longitude": "-0.130794"}, "context": "", "outcome_status": null, "persistent_id": "", "id": 122736479, "location_subtype": "", "month": "2024-07"}, {"category": "anti-social-behaviour", "location_type": "Force", "location": {"latitude": "51.515598", "street": {"id": 1678536, "name": "On or near St Giles High Street"}, "longitude": "-0.127633"}, "context": "", "outcome_status": null, "persistent_id": "", "id": 122736983, "location_subtype": "", "month": "2024-07"}, {"category": "anti-social-behaviour", "location_type": "Force", "location": {"latitude": "51.499488", "street": {"id": 1679222, "name": "On or near Hospital"}, "longitude": "-0.118410"}, "context": "", "outcome_status": null, "persistent_id": "", "id": 122737447, "location_subtype": "", "month": "2024-07"}, {"category": "anti-social-behaviour", "location_type": "Force", "location": {"latitude": "51.496313", "street": {"id": 1677735, "name": "On or near Chadwick Street"}, "longitude": "-0.132429"}, "context": "", "outcome_status": null, "persistent_id": "", "id": 122738213, "location_subtype": "", "month": "2024-07"}, {"category": "anti-social-behaviour", "location_type": "Force", "location": {"latitude": "51.503196", "street": {"id": 1678183, "name": "On or near Downing Street"}, "longitude": "-0.127032"}, "context": "", "outcome_status": null, "persistent_id": "", "id": 122738232, "location_subtype": "", "month": "2024-07"}, {"category": "anti-social-behaviour", "location_type": "Force", "location": {"latitude": "51.518456", "street": {"id": 1677599, "name": "On or near Percy Street"}, "longitude": "-0.133209"}, "context": "", "outcome_status": null, "persistent_id": "", "id": 122738266, "location_subtype": "", "month": "2024-07"}, {"category": "anti-social-behaviour", "location_type": "Force", "location": {"latitude": "51.513052", "street": {"id": 1677758, "name": "On or near Bourchier Street"}, "longitude": "-0.132681"}, "context": "", "outcome_status": null, "persistent_id": "", "id": 122739014, "location_subtype": "", "month": "2024-07"}, {"category": "anti-social-behaviour", "location_type": "Force", "location": {"latitude": "51.514064", "street": {"id": 1679774, "name": "On or near Kean Street"}, "longitude": "-0.118890"}, "context": "", "outcome_status": null, "persistent_id": "", "id": 122739903, "location_subtype": "", "month": "2024-07"}, {"category": "anti-social-behaviour", "location_type": "Force", "location": {"latitude": "51.506673", "street": {"id": 1681427, "name": "On or near Duchy Street"}, "longitude": "-0.108877"}, "context": "", "outcome_status": null, "persistent_id": "", "id": 122740434, "location_subtype": "", "month": "2024-07"}, {"category": "anti-social-behaviour", "location_type": "Force", "location": {"latitude": "51.517727", "street": {"id": 1678383, "name": "On or near Further/higher Educational Building"}, "longitude": "-0.128612"}, "context": "", "outcome_status": null, "persistent_id": "", "id": 122740574, "location_subtype": "", "month": "2024-07"}, {"category": "anti-social-behaviour", "location_type": "Force", "location": {"latitude": "51.498284", "street": {"id": 1681059, "name": "On or near A302"}, "longitude": "-0.110074"}, "context": "", "outcome_status": null, "persistent_id": "", "id": 122740828, "location_subtype": "", "month": "2024-07"}, {"category": "anti-social-behaviour", "location_type": "Force", "location": {"latitude": "51.517845", "street": {"id": 1679284, "name": "On or near Further/higher Educational Building"}, "longitude": "-0.121977"}, "context": "", "outcome_status": null, "persistent_id": "", "id": 122741021, "location_subtype": "", "month": "2024-07"}, {"category": "anti-social-behaviour", "location_type": "Force", "location": {"latitude": "51.517596", "street": {"id": 1677320, "name": "On or near Newman Street"}, "longitude": "-0.135680"}, "context": "", "outcome_status": null, "persistent_id": "", "id": 122741432, "location_subtype": "", "month": "2024-07"}, {"category": "anti-social-behaviour", "location_type": "Force", "location": {"latitude": "51.511783", "street": {"id": 1678199, "name": "On or near Nightclub"}, "longitude": "-0.129778"}, "context": "", "outcome_status": null, "persistent_id": "", "id": 122741436, "location_subtype": "", "month": "2024-07"}, {"category": "anti-social-behaviour", "location_type": "Force", "location": {"latitude": "51.507097", "street": {"id": 1677926, "name": "On or near Parking Area"}, "longitude": "-0.130864"}, "context": "", "outcome_status": null, "persistent_id": "", "id": 122741842, "location_subtype": "", "month": "2024-07"}, {"category": "anti-social-behaviour", "location_type": "Force", "location": {"latitude": "51.514195", "street": {"id": 1675879, "name": "On or near Dering Street"}, "longitude": "-0.145735"}, "context": "", "outcome_status": null, "persistent_id": "", "id": 122741951, "location_subtype": "", "month": "2024-07"}, {"category": "anti-social-behaviour", "location_type": "Force", "location": {"latitude": "51.502888", "street": {"id": 1679979, "name": "On or near Chicheley Street"}, "longitude": "-0.117319"}, "context": "", "outcome_status": null, "persistent_id": "", "id": 122741990, "location_subtype": "", "month": "2024-07"}, {"category": "anti-social-behaviour", "location_type": "Force", "location": {"latitude": "51.518281", "street": {"id": 1680923, "name": "On or near Chancery Lane"}, "longitude": "-0.111596"}, "context": "", "outcome_status": null, "persistent_id": "", "id": 122742194, "location_subtype": "", "month": "2024-07"}, {"category": "anti-social-behaviour", "location_type": "Force", "location": {"latitude": "51.503196", "street": {"id": 1678183, "name": "On or near Downing Street"}, "longitude": "-0.127032"}, "context": "", "outcome_status": null, "persistent_id": "", "id": 122742512, "location_subtype": "", "month": "2024-07"}, {"category": "anti-social-behaviour", "location_type": "Force", "location": {"latitude": "51.521441", "street": {"id": 1679726, "name": "On or near Orde Hall Street"}, "longitude": "-0.119062"}, "context": "", "outcome_status": null, "persistent_id": "", "id": 122742577, "location_subtype": "", "month": "2024-07"}, {"category": "anti-social-behaviour", "location_type": "Force", "location": {"latitude": "51.513956", "street": {"id": 1678687, "name": "On or near Theatre/concert Hall"}, "longitude": "-0.126349"}, "context": "", "outcome_status": null, "persistent_id": "", "id": 122742749, "location_subtype": "", "month": "2024-07"}, {"category": "anti-social-behaviour", "location_type": "Force", "location": {"latitude": "51.516037", "street": {"id": 1678369, "name": "On or near Earnshaw Street"}, "longitude": "-0.128682"}, "context": "", "outcome_status": null, "persistent_id": "", "id": 122742768, "location_subtype": "", "month": "2024-07"}, {"category": "anti-social-behaviour", "location_type": "Force", "location": {"latitude": "51.517742", "street": {"id": 1678770, "name": "On or near Little Russell Street"}, "longitude": "-0.125614"}, "context": "", "outcome_status": null, "persistent_id": "", "id": 122743509, "location_subtype": "", "month": "2024-07"}, {"category": "anti-social-behaviour", "location_type": "Force", "location": {"latitude": "51.510900", "street": {"id": 1678414, "name": "On or near Theatre/concert Hall"}, "longitude": "-0.127984"}, "context": "", "outcome_status": null, "persistent_id": "", "id": 122743514, "location_subtype": "", "month": "2024-07"}, {"category": "anti-social-behaviour", "location_type": "Force", "location": {"latitude": "51.503895", "street": {"id": 1681317, "name": "On or near Theatre/concert Hall"}, "longitude": "-0.109482"}, "context": "", "outcome_status": null, "persistent_id": "", "id": 122744142, "location_subtype": "", "month": "2024-07"}, {"category": "anti-social-behaviour", "location_type": "Force", "location": {"latitude": "51.505035", "street": {"id": 1680614, "name": "On or near Further/higher Educational Building"}, "longitude": "-0.112677"}, "context": "", "outcome_status": null, "persistent_id": "", "id": 122744607, "location_subtype": "", "month": "2024-07"}, {"category": "anti-social-behaviour", "location_type": "Force", "location": {"latitude": "51.519162", "street": {"id": 1677191, "name": "On or near Goodge Street"}, "longitude": "-0.136308"}, "context": "", "outcome_status": null, "persistent_id": "", "id": 122744869, "location_subtype": "", "month": "2024-07"}, {"category": "anti-social-behaviour", "location_type": "Force", "location": {"latitude": "51.516623", "street": {"id": 1677604, "name": "On or near Nightclub"}, "longitude": "-0.132976"}, "context": "", "outcome_status": null, "persistent_id": "", "id": 122744912, "location_subtype": "", "month": "2024-07"}, {"category": "anti-social-behaviour", "location_type": "Force", "location": {"latitude": "51.514286", "street": {"id": 1677663, "name": "On or near Chapone Place"}, "longitude": "-0.132818"}, "context": "", "outcome_status": null, "persistent_id": "", "id": 122744929, "location_subtype": "", "month": "2024-07"}, {"category": "anti-social-behaviour", "location_type": "Force", "location": {"latitude": "51.509396", "street": {"id": 1678091, "name": "On or near Orange Street"}, "longitude": "-0.130626"}, "context": "", "outcome_status": null, "persistent_id": "", "id": 122745573, "location_subtype": "", "month": "2024-07"}, {"category": "anti-social-behaviour", "location_type": "Force", "location": {"latitude": "51.515598", "street": {"id": 1678536, "name": "On or near St Giles High Street"}, "longitude": "-0.127633"}, "context": "", "outcome_status": null, "persistent_id": "", "id": 122745594, "location_subtype": "", "month": "2024-07"}, {"category": "anti-social-behaviour", "location_type": "Force", "location": {"latitude": "51.508556", "street": {"id": 1677396, "name": "On or near Babmaes Street"}, "longitude": "-0.134925"}, "context": "", "outcome_status": null, "persistent_id": "", "id": 122745857, "location_subtype": "", "month": "2024-07"}, {"category": "anti-social-behaviour", "location_type": "Force", "location": {"latitude": "51.513848", "street": {"id": 1678270, "name": "On or near Old Compton Street"}, "longitude": "-0.129593"}, "context": "", "outcome_status": null, "persistent_id": "", "id": 122745873, "location_subtype": "", "month": "2024-07"}, {"category": "anti-social-behaviour", "location_type": "Force", "location": {"latitude": "51.514195", "street": {"id": 1675879, "name": "On or near Dering Street"}, "longitude": "-0.145735"}, "context": "", "outcome_status": null, "persistent_id": "", "id": 122746131, "location_subtype": "", "month": "2024-07"}, {"category": "anti-social-behaviour", "location_type": "Force", "location": {"latitude": "51.516341", "street": {"id": 1679597, "name": "On or near Nightclub"}, "longitude": "-0.120151"}, "context": "", "outcome_status": null, "persistent_id": "", "id": 122746191, "location_subtype": "", "month": "2024-07"}, {"category": "anti-social-behaviour", "location_type": "Force", "location": {"latitude": "51.519782", "street": {"id": 1677920, "name": "On or near Store Street"}, "longitude": "-0.131728"}, "context": "", "outcome_status": null, "persistent_id": "", "id": 122746250, "location_subtype": "", "month": "2024-07"}, {"category": "anti-social-behaviour", "location_type": "Force", "location": {"latitude": "51.499042", "street": {"id": 1680867, "name": "On or near Lambeth North"}, "longitude": "-0.111930"}, "context": "", "outcome_status": null, "persistent_id": "", "id": 122746576, "location_subtype": "", "month": "2024-07"}, {"category": "anti-social-behaviour", "location_type": "Force", "location": {"latitude": "51.512994", "street": {"id": 1678281, "name": "On or near Charing Cross Road"}, "longitude": "-0.129023"}, "context": "", "outcome_status": null, "persistent_id": "", "id": 122746626, "location_subtype": "", "month": "2024-07"}, {"category": "anti-social-behaviour", "location_type": "Force", "location": {"latitude": "51.511693", "street": {"id": 1680666, "name": "On or near Water Street"}, "longitude": "-0.113511"}, "context": "", "outcome_status": null, "persistent_id": "", "id": 122747085, "location_subtype": "", "month": "2024-07"}, {"category": "anti-social-behaviour", "location_type": "Force", "location": {"latitude": "51.498553", "street": {"id": 1677378, "name": "On or near Caxton Street"}, "longitude": "-0.135291"}, "context": "", "outcome_status": null, "persistent_id": "", "id": 122747512, "location_subtype": "", "month": "2024-07"}, {"category": "anti-social-behaviour", "location_type": "Force", "location": {"latitude": "51.511022", "street": {"id": 1679585, "name": "On or near Strand"}, "longitude": "-0.119880"}, "context": "", "outcome_status": null, "persistent_id": "", "id": 122748185, "location_subtype": "", "month": "2024-07"}, {"category": "anti-social-behaviour", "location_type": "Force", "location": {"latitude": "51.513052", "street": {"id": 1677758, "name": "On or near Bourchier Street"}, "longitude": "-0.132681"}, "context": "", "outcome_status": null, "persistent_id": "", "id": 122748129, "location_subtype": "", "month": "2024-07"}, {"category": "anti-social-behaviour", "location_type": "Force", "location": {"latitude": "51.513161", "street": {"id": 1678473, "name": "On or near Tower Street"}, "longitude": "-0.127675"}, "context": "", "outcome_status": null, "persistent_id": "", "id": 122750587, "location_subtype": "", "month": "2024-07"}, {"category": "anti-social-behaviour", "location_type": "Force", "location": {"latitude": "51.515447", "street": {"id": 1680382, "name": "On or near Serle Street"}, "longitude": "-0.114293"}, "context": "", "outcome_status": null, "persistent_id": "", "id": 122680054, "location_subtype": "", "month": "2024-07"}, {"category": "anti-social-behaviour", "location_type": "Force", "location": {"latitude": "51.503196", "street": {"id": 1678183, "name": "On or near Downing Street"}, "longitude": "-0.127032"}, "context": "", "outcome_status": null, "persistent_id": "", "id": 122749043, "location_subtype": "", "month": "2024-07"}, {"category": "anti-social-behaviour", "location_type": "Force", "location": {"latitude": "51.507832", "street": {"id": 1679120, "name": "On or near Villiers Street"}, "longitude": "-0.123383"}, "context": "", "outcome_status": null, "persistent_id": "", "id": 122749076, "location_subtype": "", "month": "2024-07"}, {"category": "anti-social-behaviour", "location_type": "Force", "location": {"latitude": "51.495415", "street": {"id": 1678026, "name": "On or near Monck Street"}, "longitude": "-0.130794"}, "context": "", "outcome_status": null, "persistent_id": "", "id": 122675840, "location_subtype": "", "month": "2024-07"}, {"category": "anti-social-behaviour", "location_type": "Force", "location": {"latitude": "51.516275", "street": {"id": 1678661, "name": "On or near Theatre/concert Hall"}, "longitude": "-0.126121"}, "context": "", "outcome_status": null, "persistent_id": "", "id": 122672198, "location_subtype": "", "month": "2024-07"}, {"category": "anti-social-behaviour", "location_type": "Force", "location": {"latitude": "51.516351", "street": {"id": 1679201, "name": "On or near Stukeley Street"}, "longitude": "-0.122976"}, "context": "", "outcome_status": null, "persistent_id": "", "id": 122706985, "location_subtype": "", "month": "2024-07"}, {"category": "anti-social-behaviour", "location_type": "Force", "location": {"latitude": "51.515939", "street": {"id": 1677739, "name": "On or near Soho Street"}, "longitude": "-0.132693"}, "context": "", "outcome_status": null, "persistent_id": "", "id": 122751918, "location_subtype": "", "month": "2024-07"}, {"category": "anti-social-behaviour", "location_type": "Force", "location": {"latitude": "51.515460", "street": {"id": 1679674, "name": "On or near Wild Court"}, "longitude": "-0.119611"}, "context": "", "outcome_status": null, "persistent_id": "", "id": 122752129, "location_subtype": "", "month": "2024-07"}, {"category": "anti-social-behaviour", "location_type": "Force", "location": {"latitude": "51.509496", "street": {"id": 1675494, "name": "On or near Farm Street"}, "longitude": "-0.148318"}, "context": "", "outcome_status": null, "persistent_id": "", "id": 122753065, "location_subtype": "", "month": "2024-07"}, {"category": "anti-social-behaviour", "location_type": "Force", "location": {"latitude": "51.513941", "street": {"id": 1490761, "name": "On or near Bride Lane"}, "longitude": "-0.105131"}, "context": "", "outcome_status": null, "persistent_id": "", "id": 120520904, "location_subtype": "", "month": "2024-07"}, {"category": "anti-social-behaviour", "location_type": "Force", "location": {"latitude": "51.513724", "street": {"id": 1490731, "name": "On or near Fleet Street"}, "longitude": "-0.111756"}, "context": "", "outcome_status": null, "persistent_id": "", "id": 120520901, "location_subtype": "", "month": "2024-07"}, {"category": "anti-social-behaviour", "location_type": "Force", "location": {"latitude": "51.495745", "street": {"id": 1677734, "name": "On or near Parking Area"}, "longitude": "-0.132308"}, "context": "", "outcome_status": null, "persistent_id": "", "id": 122753157, "location_subtype": "", "month": "2024-07"}, {"category": "anti-social-behaviour", "location_type": "Force", "location": {"latitude": "51.519378", "street": {"id": 1677300, "name": "On or near Goodge Street"}, "longitude": "-0.135737"}, "context": "", "outcome_status": null, "persistent_id": "", "id": 122671490, "location_subtype": "", "month": "2024-07"}, {"category": "anti-social-behaviour", "location_type": "Force", "location": {"latitude": "51.518687", "street": {"id": 1679965, "name": "On or near Eagle Street"}, "longitude": "-0.117820"}, "context": "", "outcome_status": null, "persistent_id": "", "id": 122704906, "location_subtype": "", "month": "2024-07"}, {"category": "anti-social-behaviour", "location_type": "Force", "location": {"latitude": "51.511012", "street": {"id": 1675865, "name": "On or near Bourdon Street"}, "longitude": "-0.145792"}, "context": "", "outcome_status": null, "persistent_id": "", "id": 122704402, "location_subtype": "", "month": "2024-07"}, {"category": "anti-social-behaviour", "location_type": "Force", "location": {"latitude": "51.516875", "street": {"id": 1676380, "name": "On or near Nightclub"}, "longitude": "-0.141807"}, "context": "", "outcome_status": null, "persistent_id": "", "id": 122704130, "location_subtype": "", "month": "2024-07"}, {"category": "anti-social-behaviour", "location_type": "Force", "location": {"latitude": "51.518281", "street": {"id": 1680923, "name": "On or near Chancery Lane"}, "longitude": "-0.111596"}, "context": "", "outcome_status": null, "persistent_id": "", "id": 122703746, "location_subtype": "", "month": "2024-07"}, {"category": "anti-social-behaviour", "location_type": "Force", "location": {"latitude": "51.513310", "street": {"id": 1679459, "name": "On or near Theatre/concert Hall"}, "longitude": "-0.120741"}, "context": "", "outcome_status": null, "persistent_id": "", "id": 122703064, "location_subtype": "", "month": "2024-07"}, {"category": "anti-social-behaviour", "location_type": "Force", "location": {"latitude": "51.515088", "street": {"id": 1676649, "name": "On or near Hills Place"}, "longitude": "-0.140222"}, "context": "", "outcome_status": null, "persistent_id": "", "id": 122701977, "location_subtype": "", "month": "2024-07"}, {"category": "anti-social-behaviour", "location_type": "Force", "location": {"latitude": "51.514684", "street": {"id": 1676465, "name": "On or near Argyll Street"}, "longitude": "-0.140844"}, "context": "", "outcome_status": null, "persistent_id": "", "id": 122701969, "location_subtype": "", "month": "2024-07"}, {"category": "anti-social-behaviour", "location_type": "Force", "location": {"latitude": "51.515939", "street": {"id": 1677739, "name": "On or near Soho Street"}, "longitude": "-0.132693"}, "context": "", "outcome_status": null, "persistent_id": "", "id": 122701589, "location_subtype": "", "month": "2024-07"}, {"category": "anti-social-behaviour", "location_type": "Force", "location": {"latitude": "51.512300", "street": {"id": 1678389, "name": "On or near Theatre/concert Hall"}, "longitude": "-0.128388"}, "context": "", "outcome_status": null, "persistent_id": "", "id": 122701384, "location_subtype": "", "month": "2024-07"}, {"category": "anti-social-behaviour", "location_type": "Force", "location": {"latitude": "51.502349", "street": {"id": 1675393, "name": "On or near Constitution Hill"}, "longitude": "-0.146144"}, "context": "", "outcome_status": null, "persistent_id": "", "id": 122700551, "location_subtype": "", "month": "2024-07"}, {"category": "anti-social-behaviour", "location_type": "Force", "location": {"latitude": "51.507766", "street": {"id": 1676493, "name": "On or near Nightclub"}, "longitude": "-0.141284"}, "context": "", "outcome_status": null, "persistent_id": "", "id": 122700114, "location_subtype": "", "month": "2024-07"}, {"category": "anti-social-behaviour", "location_type": "Force", "location": {"latitude": "51.501269", "street": {"id": 1681675, "name": "On or near Gray Street"}, "longitude": "-0.107228"}, "context": "", "outcome_status": null, "persistent_id": "", "id": 122699747, "location_subtype": "", "month": "2024-07"}, {"category": "anti-social-behaviour", "location_type": "Force", "location": {"latitude": "51.495415", "street": {"id": 1678026, "name": "On or near Monck Street"}, "longitude": "-0.130794"}, "context": "", "outcome_status": null, "persistent_id": "", "id": 122699737, "location_subtype": "", "month": "2024-07"}, {"category": "anti-social-behaviour", "location_type": "Force", "location": {"latitude": "51.516785", "street": {"id": 1678562, "name": "On or near Theatre/concert Hall"}, "longitude": "-0.126532"}, "context": "", "outcome_status": null, "persistent_id": "", "id": 122699660, "location_subtype": "", "month": "2024-07"}, {"category": "anti-social-behaviour", "location_type": "Force", "location": {"latitude": "51.511096", "street": {"id": 1679247, "name": "On or near Southampton Street"}, "longitude": "-0.122226"}, "context": "", "outcome_status": null, "persistent_id": "", "id": 122699507, "location_subtype": "", "month": "2024-07"}, {"category": "anti-social-behaviour", "location_type": "Force", "location": {"latitude": "51.514684", "street": {"id": 1676465, "name": "On or near Argyll Street"}, "longitude": "-0.140844"}, "context": "", "outcome_status": null, "persistent_id": "", "id": 122699407, "location_subtype": "", "month": "2024-07"}, {"category": "anti-social-behaviour", "location_type": "Force", "location": {"latitude": "51.509251", "street": {"id": 1677545, "name": "On or near St James's Market"}, "longitude": "-0.133398"}, "context": "", "outcome_status": null, "persistent_id": "", "id": 122698995, "location_subtype": "", "month": "2024-07"}, {"category": "anti-social-behaviour", "location_type": "Force", "location": {"latitude": "51.495745", "street": {"id": 1677734, "name": "On or near Parking Area"}, "longitude": "-0.132308"}, "context": "", "outcome_status": null, "persistent_id": "", "id": 122698987, "location_subtype": "", "month": "2024-07"}, {"category": "anti-social-behaviour", "location_type": "Force", "location": {"latitude": "51.511703", "street": {"id": 1678351, "name": "On or near Little Newport Street"}, "longitude": "-0.128701"}, "context": "", "outcome_status": null, "persistent_id": "", "id": 122694400, "location_subtype": "", "month": "2024-07"}, {"category": "anti-social-behaviour", "location_type": "Force", "location": {"latitude": "51.511312", "street": {"id": 1677127, "name": "On or near Lower James Street"}, "longitude": "-0.136326"}, "context": "", "outcome_status": null, "persistent_id": "", "id": 122693973, "location_subtype": "", "month": "2024-07"}, {"category": "anti-social-behaviour", "location_type": "Force", "location": {"latitude": "51.499488", "street": {"id": 1679222, "name": "On or near Hospital"}, "longitude": "-0.118410"}, "context": "", "outcome_status": null, "persistent_id": "", "id": 122693205, "location_subtype": "", "month": "2024-07"}, {"category": "anti-social-behaviour", "location_type": "Force", "location": {"latitude": "51.497269", "street": {"id": 1680296, "name": "On or near Hercules Road"}, "longitude": "-0.114064"}, "context": "", "outcome_status": null, "persistent_id": "", "id": 122692544, "location_subtype": "", "month": "2024-07"}, {"category": "anti-social-behaviour", "location_type": "Force", "location": {"latitude": "51.507576", "street": {"id": 1676403, "name": "On or near Nightclub"}, "longitude": "-0.141776"}, "context": "", "outcome_status": null, "persistent_id": "", "id": 122692487, "location_subtype": "", "month": "2024-07"}, {"category": "anti-social-behaviour", "location_type": "Force", "location": {"latitude": "51.518405", "street": {"id": 1679695, "name": "On or near Procter Street"}, "longitude": "-0.119302"}, "context": "", "outcome_status": null, "persistent_id": "", "id": 122691995, "location_subtype": "", "month": "2024-07"}, {"category": "anti-social-behaviour", "location_type": "Force", "location": {"latitude": "51.516674", "street": {"id": 1677780, "name": "On or near Hanway Place"}, "longitude": "-0.132547"}, "context": "", "outcome_status": null, "persistent_id": "", "id": 122691989, "location_subtype": "", "month": "2024-07"}, {"category": "anti-social-behaviour", "location_type": "Force", "location": {"latitude": "51.507097", "street": {"id": 1677926, "name": "On or near Parking Area"}, "longitude": "-0.130864"}, "context": "", "outcome_status": null, "persistent_id": "", "id": 122691895, "location_subtype": "", "month": "2024-07"}, {"category": "anti-social-behaviour", "location_type": "Force", "location": {"latitude": "51.499692", "street": {"id": 1680405, "name": "On or near Westminster Bridge Road"}, "longitude": "-0.114266"}, "context": "", "outcome_status": null, "persistent_id": "", "id": 122691724, "location_subtype": "", "month": "2024-07"}, {"category": "anti-social-behaviour", "location_type": "Force", "location": {"latitude": "51.496941", "street": {"id": 1677903, "name": "On or near Conference/exhibition Centre"}, "longitude": "-0.130617"}, "context": "", "outcome_status": null, "persistent_id": "", "id": 122691657, "location_subtype": "", "month": "2024-07"}, {"category": "anti-social-behaviour", "location_type": "Force", "location": {"latitude": "51.514010", "street": {"id": 1678889, "name": "On or near Parking Area"}, "longitude": "-0.124528"}, "context": "", "outcome_status": null, "persistent_id": "", "id": 122697498, "location_subtype": "", "month": "2024-07"}, {"category": "anti-social-behaviour", "location_type": "Force", "location": {"latitude": "51.518456", "street": {"id": 1677599, "name": "On or near Percy Street"}, "longitude": "-0.133209"}, "context": "", "outcome_status": null, "persistent_id": "", "id": 122696861, "location_subtype": "", "month": "2024-07"}, {"category": "anti-social-behaviour", "location_type": "Force", "location": {"latitude": "51.516001", "street": {"id": 1679229, "name": "On or near Macklin Street"}, "longitude": "-0.122471"}, "context": "", "outcome_status": null, "persistent_id": "", "id": 122696694, "location_subtype": "", "month": "2024-07"}, {"category": "anti-social-behaviour", "location_type": "Force", "location": {"latitude": "51.512780", "street": {"id": 1677484, "name": "On or near Peter Street"}, "longitude": "-0.134234"}, "context": "", "outcome_status": null, "persistent_id": "", "id": 122696523, "location_subtype": "", "month": "2024-07"}, {"category": "anti-social-behaviour", "location_type": "Force", "location": {"latitude": "51.518281", "street": {"id": 1680923, "name": "On or near Chancery Lane"}, "longitude": "-0.111596"}, "context": "", "outcome_status": null, "persistent_id": "", "id": 122695785, "location_subtype": "", "month": "2024-07"}, {"category": "anti-social-behaviour", "location_type": "Force", "location": {"latitude": "51.519153", "street": {"id": 1676463, "name": "On or near Great Titchfield Street"}, "longitude": "-0.140863"}, "context": "", "outcome_status": null, "persistent_id": "", "id": 122694625, "location_subtype": "", "month": "2024-07"}, {"category": "anti-social-behaviour", "location_type": "Force", "location": {"latitude": "51.511111", "street": {"id": 1679082, "name": "On or near Henrietta Street"}, "longitude": "-0.123710"}, "context": "", "outcome_status": null, "persistent_id": "", "id": 122694498, "location_subtype": "", "month": "2024-07"}, {"category": "anti-social-behaviour", "location_type": "Force", "location": {"latitude": "51.517596", "street": {"id": 1677320, "name": "On or near Newman Street"}, "longitude": "-0.135680"}, "context": "", "outcome_status": null, "persistent_id": "", "id": 122708112, "location_subtype": "", "month": "2024-07"}, {"category": "anti-social-behaviour", "location_type": "Force", "location": {"latitude": "51.514903", "street": {"id": 1680610, "name": "On or near Carey Street"}, "longitude": "-0.113494"}, "context": "", "outcome_status": null, "persistent_id": "", "id": 122708161, "location_subtype": "", "month": "2024-07"}, {"category": "anti-social-behaviour", "location_type": "Force", "location": {"latitude": "51.515088", "street": {"id": 1676649, "name": "On or near Hills Place"}, "longitude": "-0.140222"}, "context": "", "outcome_status": null, "persistent_id": "", "id": 122708588, "location_subtype": "", "month": "2024-07"}, {"category": "anti-social-behaviour", "location_type": "Force", "location": {"latitude": "51.517866", "street": {"id": 1676596, "name": "On or near Mortimer Street"}, "longitude": "-0.140195"}, "context": "", "outcome_status": null, "persistent_id": "", "id": 122708796, "location_subtype": "", "month": "2024-07"}, {"category": "anti-social-behaviour", "location_type": "Force", "location": {"latitude": "51.519092", "street": {"id": 1679240, "name": "On or near Bloomsbury Square"}, "longitude": "-0.122330"}, "context": "", "outcome_status": null, "persistent_id": "", "id": 122708804, "location_subtype": "", "month": "2024-07"}, {"category": "anti-social-behaviour", "location_type": "Force", "location": {"latitude": "51.512802", "street": {"id": 1679061, "name": "On or near James Street"}, "longitude": "-0.123770"}, "context": "", "outcome_status": null, "persistent_id": "", "id": 122709144, "location_subtype": "", "month": "2024-07"}, {"category": "anti-social-behaviour", "location_type": "Force", "location": {"latitude": "51.511012", "street": {"id": 1675865, "name": "On or near Bourdon Street"}, "longitude": "-0.145792"}, "context": "", "outcome_status": null, "persistent_id": "", "id": 122709340, "location_subtype": "", "month": "2024-07"}, {"category": "anti-social-behaviour", "location_type": "Force", "location": {"latitude": "51.520365", "street": {"id": 1679593, "name": "On or near New North Street"}, "longitude": "-0.119827"}, "context": "", "outcome_status": null, "persistent_id": "", "id": 122710236, "location_subtype": "", "month": "2024-07"}, {"category": "anti-social-behaviour", "location_type": "Force", "location": {"latitude": "51.514211", "street": {"id": 1678632, "name": "On or near Monmouth Street"}, "longitude": "-0.126984"}, "context": "", "outcome_status": null, "persistent_id": "", "id": 122710261, "location_subtype": "", "month": "2024-07"}, {"category": "anti-social-behaviour", "location_type": "Force", "location": {"latitude": "51.507623", "street": {"id": 1678103, "name": "On or near Cockspur Street"}, "longitude": "-0.130006"}, "context": "", "outcome_status": null, "persistent_id": "", "id": 122710438, "location_subtype": "", "month": "2024-07"}, {"category": "anti-social-behaviour", "location_type": "Force", "location": {"latitude": "51.514684", "street": {"id": 1676465, "name": "On or near Argyll Street"}, "longitude": "-0.140844"}, "context": "", "outcome_status": null, "persistent_id": "", "id": 122710482, "location_subtype": "", "month": "2024-07"}, {"category": "anti-social-behaviour", "location_type": "Force", "location": {"latitude": "51.515939", "street": {"id": 1677739, "name": "On or near Soho Street"}, "longitude": "-0.132693"}, "context": "", "outcome_status": null, "persistent_id": "", "id": 122710494, "location_subtype": "", "month": "2024-07"}, {"category": "anti-social-behaviour", "location_type": "Force", "location": {"latitude": "51.512980", "street": {"id": 1678970, "name": "On or near Covent Garden"}, "longitude": "-0.124210"}, "context": "", "outcome_status": null, "persistent_id": "", "id": 122711231, "location_subtype": "", "month": "2024-07"}, {"category": "anti-social-behaviour", "location_type": "Force", "location": {"latitude": "51.511893", "street": {"id": 1676045, "name": "On or near New Bond Street"}, "longitude": "-0.144070"}, "context": "", "outcome_status": null, "persistent_id": "", "id": 122674666, "location_subtype": "", "month": "2024-07"}, {"category": "anti-social-behaviour", "location_type": "Force", "location": {"latitude": "51.515004", "street": {"id": 1678816, "name": "On or near B401"}, "longitude": "-0.125352"}, "context": "", "outcome_status": null, "persistent_id": "", "id": 122753564, "location_subtype": "", "month": "2024-07"}, {"category": "anti-social-behaviour", "location_type": "Force", "location": {"latitude": "51.513310", "street": {"id": 1679459, "name": "On or near Theatre/concert Hall"}, "longitude": "-0.120741"}, "context": "", "outcome_status": null, "persistent_id": "", "id": 122753875, "location_subtype": "", "month": "2024-07"}, {"category": "anti-social-behaviour", "location_type": "Force", "location": {"latitude": "51.512166", "street": {"id": 1678947, "name": "On or near Shopping Area"}, "longitude": "-0.123818"}, "context": "", "outcome_status": null, "persistent_id": "", "id": 122754031, "location_subtype": "", "month": "2024-07"}, {"category": "anti-social-behaviour", "location_type": "Force", "location": {"latitude": "51.500978", "street": {"id": 1678704, "name": "On or near Bridge Street"}, "longitude": "-0.125524"}, "context": "", "outcome_status": null, "persistent_id": "", "id": 122674962, "location_subtype": "", "month": "2024-07"}, {"category": "anti-social-behaviour", "location_type": "Force", "location": {"latitude": "51.515598", "street": {"id": 1678536, "name": "On or near St Giles High Street"}, "longitude": "-0.127633"}, "context": "", "outcome_status": null, "persistent_id": "", "id": 122675161, "location_subtype": "", "month": "2024-07"}, {"category": "anti-social-behaviour", "location_type": "Force", "location": {"latitude": "51.514600", "street": {"id": 1679615, "name": "On or near Keeley Street"}, "longitude": "-0.120338"}, "context": "", "outcome_status": null, "persistent_id": "", "id": 122675283, "location_subtype": "", "month": "2024-07"}, {"category": "anti-social-behaviour", "location_type": "Force", "location": {"latitude": "51.500211", "street": {"id": 1678547, "name": "On or near A302"}, "longitude": "-0.126492"}, "context": "", "outcome_status": null, "persistent_id": "", "id": 122670854, "location_subtype": "", "month": "2024-07"}, {"category": "anti-social-behaviour", "location_type": "Force", "location": {"latitude": "51.512339", "street": {"id": 1677616, "name": "On or near Nightclub"}, "longitude": "-0.133618"}, "context": "", "outcome_status": null, "persistent_id": "", "id": 122671045, "location_subtype": "", "month": "2024-07"}, {"category": "anti-social-behaviour", "location_type": "Force", "location": {"latitude": "51.501162", "street": {"id": 1680084, "name": "On or near Addington Street"}, "longitude": "-0.116252"}, "context": "", "outcome_status": null, "persistent_id": "", "id": 122671060, "location_subtype": "", "month": "2024-07"}, {"category": "anti-social-behaviour", "location_type": "Force", "location": {"latitude": "51.516341", "street": {"id": 1679597, "name": "On or near Nightclub"}, "longitude": "-0.120151"}, "context": "", "outcome_status": null, "persistent_id": "", "id": 122671575, "location_subtype": "", "month": "2024-07"}, {"category": "anti-social-behaviour", "location_type": "Force", "location": {"latitude": "51.508202", "street": {"id": 1677075, "name": "On or near Ormond Yard"}, "longitude": "-0.136410"}, "context": "", "outcome_status": null, "persistent_id": "", "id": 122671810, "location_subtype": "", "month": "2024-07"}, {"category": "anti-social-behaviour", "location_type": "Force", "location": {"latitude": "51.513288", "street": {"id": 1675603, "name": "On or near South Molton Lane"}, "longitude": "-0.147530"}, "context": "", "outcome_status": null, "persistent_id": "", "id": 122671975, "location_subtype": "", "month": "2024-07"}, {"category": "anti-social-behaviour", "location_type": "Force", "location": {"latitude": "51.503196", "street": {"id": 1678183, "name": "On or near Downing Street"}, "longitude": "-0.127032"}, "context": "", "outcome_status": null, "persistent_id": "", "id": 122672335, "location_subtype": "", "month": "2024-07"}, {"category": "anti-social-behaviour", "location_type": "Force", "location": {"latitude": "51.509491", "street": {"id": 1678539, "name": "On or near William Iv Street"}, "longitude": "-0.125924"}, "context": "", "outcome_status": null, "persistent_id": "", "id": 122672798, "location_subtype": "", "month": "2024-07"}, {"category": "anti-social-behaviour", "location_type": "Force", "location": {"latitude": "51.496949", "street": {"id": 1677316, "name": "On or near Artillery Row"}, "longitude": "-0.135630"}, "context": "", "outcome_status": null, "persistent_id": "", "id": 122673097, "location_subtype": "", "month": "2024-07"}, {"category": "anti-social-behaviour", "location_type": "Force", "location": {"latitude": "51.500978", "street": {"id": 1678704, "name": "On or near Bridge Street"}, "longitude": "-0.125524"}, "context": "", "outcome_status": null, "persistent_id": "", "id": 122673180, "location_subtype": "", "month": "2024-07"}, {"category": "anti-social-behaviour", "location_type": "Force", "location": {"latitude": "51.511783", "street": {"id": 1678199, "name": "On or near Nightclub"}, "longitude": "-0.129778"}, "context": "", "outcome_status": null, "persistent_id": "", "id": 122673344, "location_subtype": "", "month": "2024-07"}, {"category": "anti-social-behaviour", "location_type": "Force", "location": {"latitude": "51.513161", "street": {"id": 1678473, "name": "On or near Tower Street"}, "longitude": "-0.127675"}, "context": "", "outcome_status": null, "persistent_id": "", "id": 122673709, "location_subtype": "", "month": "2024-07"}, {"category": "anti-social-behaviour", "location_type": "Force", "location": {"latitude": "51.504309", "street": {"id": 1681420, "name": "On or near Brad Street"}, "longitude": "-0.108960"}, "context": "", "outcome_status": null, "persistent_id": "", "id": 122674081, "location_subtype": "", "month": "2024-07"}, {"category": "anti-social-behaviour", "location_type": "Force", "location": {"latitude": "51.508286", "street": {"id": 1678068, "name": "On or near Further/higher Educational Building"}, "longitude": "-0.130426"}, "context": "", "outcome_status": null, "persistent_id": "", "id": 122674389, "location_subtype": "", "month": "2024-07"}, {"category": "anti-social-behaviour", "location_type": "Force", "location": {"latitude": "51.507725", "street": {"id": 1678750, "name": "On or near Corner House Street"}, "longitude": "-0.125708"}, "context": "", "outcome_status": null, "persistent_id": "", "id": 122674395, "location_subtype": "", "month": "2024-07"}, {"category": "anti-social-behaviour", "location_type": "Force", "location": {"latitude": "51.503893", "street": {"id": 1681490, "name": "On or near Windmill Walk"}, "longitude": "-0.108776"}, "context": "", "outcome_status": null, "persistent_id": "", "id": 122751736, "location_subtype": "", "month": "2024-07"}, {"category": "anti-social-behaviour", "location_type": "Force", "location": {"latitude": "51.499246", "street": {"id": 1676803, "name": "On or near Buckingham Gate"}, "longitude": "-0.138706"}, "context": "", "outcome_status": null, "persistent_id": "", "id": 122670977, "location_subtype": "", "month": "2024-07"}, {"category": "anti-social-behaviour", "location_type": "Force", "location": {"latitude": "51.512059", "street": {"id": 1679743, "name": "On or near A301"}, "longitude": "-0.118929"}, "context": "", "outcome_status": null, "persistent_id": "", "id": 122673744, "location_subtype": "", "month": "2024-07"}, {"category": "anti-social-behaviour", "location_type": "Force", "location": {"latitude": "51.515004", "street": {"id": 1678816, "name": "On or near B401"}, "longitude": "-0.125352"}, "context": "", "outcome_status": null, "persistent_id": "", "id": 122695071, "location_subtype": "", "month": "2024-07"}, {"category": "anti-social-behaviour", "location_type": "Force", "location": {"latitude": "51.506736", "street": {"id": 1678642, "name": "On or near Craig's Court"}, "longitude": "-0.126800"}, "context": "", "outcome_status": null, "persistent_id": "", "id": 122729930, "location_subtype": "", "month": "2024-07"}, {"category": "anti-social-behaviour", "location_type": "Force", "location": {"latitude": "51.510295", "street": {"id": 1677826, "name": "On or near Coventry Street"}, "longitude": "-0.132318"}, "context": "", "outcome_status": null, "persistent_id": "", "id": 122695014, "location_subtype": "", "month": "2024-07"}, {"category": "anti-social-behaviour", "location_type": "Force", "location": {"latitude": "51.513470", "street": {"id": 1677129, "name": "On or near Broadwick Street"}, "longitude": "-0.136339"}, "context": "", "outcome_status": null, "persistent_id": "", "id": 122678529, "location_subtype": "", "month": "2024-07"}, {"category": "anti-social-behaviour", "location_type": "Force", "location": {"latitude": "51.510450", "street": {"id": 1678780, "name": "On or near Bedfordbury"}, "longitude": "-0.125726"}, "context": "", "outcome_status": null, "persistent_id": "", "id": 122685930, "location_subtype": "", "month": "2024-07"}, {"category": "anti-social-behaviour", "location_type": "Force", "location": {"latitude": "51.510729", "street": {"id": 1677342, "name": "On or near Denman Street"}, "longitude": "-0.135283"}, "context": "", "outcome_status": null, "persistent_id": "", "id": 122690515, "location_subtype": "", "month": "2024-07"}, {"category": "anti-social-behaviour", "location_type": "Force", "location": {"latitude": "51.518456", "street": {"id": 1677599, "name": "On or near Percy Street"}, "longitude": "-0.133209"}, "context": "", "outcome_status": null, "persistent_id": "", "id": 122746457, "location_subtype": "", "month": "2024-07"}, {"category": "anti-social-behaviour", "location_type": "Force", "location": {"latitude": "51.520965", "street": {"id": 1677133, "name": "On or near Chitty Street"}, "longitude": "-0.136609"}, "context": "", "outcome_status": null, "persistent_id": "", "id": 122694817, "location_subtype": "", "month": "2024-07"}, {"category": "anti-social-behaviour", "location_type": "Force", "location": {"latitude": "51.511359", "street": {"id": 1675825, "name": "On or near Grosvenor Hill"}, "longitude": "-0.146095"}, "context": "", "outcome_status": null, "persistent_id": "", "id": 122694806, "location_subtype": "", "month": "2024-07"}, {"category": "anti-social-behaviour", "location_type": "Force", "location": {"latitude": "51.512300", "street": {"id": 1678389, "name": "On or near Theatre/concert Hall"}, "longitude": "-0.128388"}, "context": "", "outcome_status": null, "persistent_id": "", "id": 122746785, "location_subtype": "", "month": "2024-07"}, {"category": "anti-social-behaviour", "location_type": "Force", "location": {"latitude": "51.507394", "street": {"id": 1678399, "name": "On or near Charing Cross"}, "longitude": "-0.128042"}, "context": "", "outcome_status": null, "persistent_id": "", "id": 122688403, "location_subtype": "", "month": "2024-07"}, {"category": "anti-social-behaviour", "location_type": "Force", "location": {"latitude": "51.512449", "street": {"id": 1680063, "name": "On or near Surrey Street"}, "longitude": "-0.115772"}, "context": "", "outcome_status": null, "persistent_id": "", "id": 122674919, "location_subtype": "", "month": "2024-07"}, {"category": "anti-social-behaviour", "location_type": "Force", "location": {"latitude": "51.501162", "street": {"id": 1680084, "name": "On or near Addington Street"}, "longitude": "-0.116252"}, "context": "", "outcome_status": null, "persistent_id": "", "id": 122746807, "location_subtype": "", "month": "2024-07"}, {"category": "anti-social-behaviour", "location_type": "Force", "location": {"latitude": "51.515598", "street": {"id": 1678536, "name": "On or near St Giles High Street"}, "longitude": "-0.127633"}, "context": "", "outcome_status": null, "persistent_id": "", "id": 122674688, "location_subtype": "", "month": "2024-07"}, {"category": "anti-social-behaviour", "location_type": "Force", "location": {"latitude": "51.513310", "street": {"id": 1679459, "name": "On or near Theatre/concert Hall"}, "longitude": "-0.120741"}, "context": "", "outcome_status": null, "persistent_id": "", "id": 122674564, "location_subtype": "", "month": "2024-07"}, {"category": "anti-social-behaviour", "location_type": "Force", "location": {"latitude": "51.512166", "street": {"id": 1678947, "name": "On or near Shopping Area"}, "longitude": "-0.123818"}, "context": "", "outcome_status": null, "persistent_id": "", "id": 122703341, "location_subtype": "", "month": "2024-07"}, {"category": "anti-social-behaviour", "location_type": "Force", "location": {"latitude": "51.520844", "street": {"id": 1678802, "name": "On or near Bedford Place"}, "longitude": "-0.125040"}, "context": "", "outcome_status": null, "persistent_id": "", "id": 122674301, "location_subtype": "", "month": "2024-07"}, {"category": "anti-social-behaviour", "location_type": "Force", "location": {"latitude": "51.500978", "street": {"id": 1678704, "name": "On or near Bridge Street"}, "longitude": "-0.125524"}, "context": "", "outcome_status": null, "persistent_id": "", "id": 122674292, "location_subtype": "", "month": "2024-07"}, {"category": "anti-social-behaviour", "location_type": "Force", "location": {"latitude": "51.519792", "street": {"id": 1679812, "name": "On or near Theatre/concert Hall"}, "longitude": "-0.118337"}, "context": "", "outcome_status": null, "persistent_id": "", "id": 122674235, "location_subtype": "", "month": "2024-07"}, {"category": "anti-social-behaviour", "location_type": "Force", "location": {"latitude": "51.519933", "street": {"id": 1677494, "name": "On or near Shopping Area"}, "longitude": "-0.133899"}, "context": "", "outcome_status": null, "persistent_id": "", "id": 122706412, "location_subtype": "", "month": "2024-07"}, {"category": "anti-social-behaviour", "location_type": "Force", "location": {"latitude": "51.513052", "street": {"id": 1677758, "name": "On or near Bourchier Street"}, "longitude": "-0.132681"}, "context": "", "outcome_status": null, "persistent_id": "", "id": 122673805, "location_subtype": "", "month": "2024-07"}, {"category": "anti-social-behaviour", "location_type": "Force", "location": {"latitude": "51.513150", "street": {"id": 1676870, "name": "On or near Carnaby Street"}, "longitude": "-0.138845"}, "context": "", "outcome_status": null, "persistent_id": "", "id": 122746835, "location_subtype": "", "month": "2024-07"}, {"category": "anti-social-behaviour", "location_type": "Force", "location": {"latitude": "51.518281", "street": {"id": 1680923, "name": "On or near Chancery Lane"}, "longitude": "-0.111596"}, "context": "", "outcome_status": null, "persistent_id": "", "id": 122673755, "location_subtype": "", "month": "2024-07"}, {"category": "anti-social-behaviour", "location_type": "Force", "location": {"latitude": "51.499488", "street": {"id": 1679222, "name": "On or near Hospital"}, "longitude": "-0.118410"}, "context": "", "outcome_status": null, "persistent_id": "", "id": 122706725, "location_subtype": "", "month": "2024-07"}, {"category": "anti-social-behaviour", "location_type": "Force", "location": {"latitude": "51.506736", "street": {"id": 1678642, "name": "On or near Craig's Court"}, "longitude": "-0.126800"}, "context": "", "outcome_status": null, "persistent_id": "", "id": 122702064, "location_subtype": "", "month": "2024-07"}, {"category": "anti-social-behaviour", "location_type": "Force", "location": {"latitude": "51.518456", "street": {"id": 1677599, "name": "On or near Percy Street"}, "longitude": "-0.133209"}, "context": "", "outcome_status": null, "persistent_id": "", "id": 122673603, "location_subtype": "", "month": "2024-07"}, {"category": "anti-social-behaviour", "location_type": "Force", "location": {"latitude": "51.511783", "street": {"id": 1678199, "name": "On or near Nightclub"}, "longitude": "-0.129778"}, "context": "", "outcome_status": null, "persistent_id": "", "id": 122673048, "location_subtype": "", "month": "2024-07"}, {"category": "anti-social-behaviour", "location_type": "Force", "location": {"latitude": "51.519933", "street": {"id": 1677494, "name": "On or near Shopping Area"}, "longitude": "-0.133899"}, "context": "", "outcome_status": null, "persistent_id": "", "id": 122688285, "location_subtype": "", "month": "2024-07"}, {"category": "anti-social-behaviour", "location_type": "Force", "location": {"latitude": "51.494110", "street": {"id": 1678446, "name": "On or near Dean Ryle Street"}, "longitude": "-0.126785"}, "context": "", "outcome_status": null, "persistent_id": "", "id": 122688174, "location_subtype": "", "month": "2024-07"}, {"category": "anti-social-behaviour", "location_type": "Force", "location": {"latitude": "51.510345", "street": {"id": 1679211, "name": "On or near Theatre/concert Hall"}, "longitude": "-0.122502"}, "context": "", "outcome_status": null, "persistent_id": "", "id": 122672982, "location_subtype": "", "month": "2024-07"}, {"category": "anti-social-behaviour", "location_type": "Force", "location": {"latitude": "51.516341", "street": {"id": 1679597, "name": "On or near Nightclub"}, "longitude": "-0.120151"}, "context": "", "outcome_status": null, "persistent_id": "", "id": 122672873, "location_subtype": "", "month": "2024-07"}, {"category": "anti-social-behaviour", "location_type": "Force", "location": {"latitude": "51.519933", "street": {"id": 1677494, "name": "On or near Shopping Area"}, "longitude": "-0.133899"}, "context": "", "outcome_status": null, "persistent_id": "", "id": 122672667, "location_subtype": "", "month": "2024-07"}, {"category": "anti-social-behaviour", "location_type": "Force", "location": {"latitude": "51.513233", "street": {"id": 1676381, "name": "On or near Parking Area"}, "longitude": "-0.141234"}, "context": "", "outcome_status": null, "persistent_id": "", "id": 122729009, "location_subtype": "", "month": "2024-07"}, {"category": "anti-social-behaviour", "location_type": "Force", "location": {"latitude": "51.512855", "street": {"id": 1678860, "name": "On or near B402"}, "longitude": "-0.124820"}, "context": "", "outcome_status": null, "persistent_id": "", "id": 122672560, "location_subtype": "", "month": "2024-07"}, {"category": "anti-social-behaviour", "location_type": "Force", "location": {"latitude": "51.512855", "street": {"id": 1678860, "name": "On or near B402"}, "longitude": "-0.124820"}, "context": "", "outcome_status": null, "persistent_id": "", "id": 122672557, "location_subtype": "", "month": "2024-07"}, {"category": "anti-social-behaviour", "location_type": "Force", "location": {"latitude": "51.517845", "street": {"id": 1679284, "name": "On or near Further/higher Educational Building"}, "longitude": "-0.121977"}, "context": "", "outcome_status": null, "persistent_id": "", "id": 122729441, "location_subtype": "", "month": "2024-07"}, {"category": "anti-social-behaviour", "location_type": "Force", "location": {"latitude": "51.518567", "street": {"id": 1677789, "name": "On or near B506"}, "longitude": "-0.132282"}, "context": "", "outcome_status": null, "persistent_id": "", "id": 122672108, "location_subtype": "", "month": "2024-07"}, {"category": "anti-social-behaviour", "location_type": "Force", "location": {"latitude": "51.508313", "street": {"id": 1677242, "name": "On or near Apple Tree Yard"}, "longitude": "-0.136074"}, "context": "", "outcome_status": null, "persistent_id": "", "id": 122671710, "location_subtype": "", "month": "2024-07"}, {"category": "anti-social-behaviour", "location_type": "Force", "location": {"latitude": "51.518281", "street": {"id": 1680923, "name": "On or near Chancery Lane"}, "longitude": "-0.111596"}, "context": "", "outcome_status": null, "persistent_id": "", "id": 122671075, "location_subtype": "", "month": "2024-07"}, {"category": "anti-social-behaviour", "location_type": "Force", "location": {"latitude": "51.513052", "street": {"id": 1677758, "name": "On or near Bourchier Street"}, "longitude": "-0.132681"}, "context": "", "outcome_status": null, "persistent_id": "", "id": 122670949, "location_subtype": "", "month": "2024-07"}, {"category": "anti-social-behaviour", "location_type": "Force", "location": {"latitude": "51.522097", "street": {"id": 1679708, "name": "On or near Great Ormond Street"}, "longitude": "-0.119597"}, "context": "", "outcome_status": null, "persistent_id": "", "id": 122687773, "location_subtype": "", "month": "2024-07"}, {"category": "anti-social-behaviour", "location_type": "Force", "location": {"latitude": "51.509944", "street": {"id": 1678386, "name": "On or near Theatre/concert Hall"}, "longitude": "-0.127807"}, "context": "", "outcome_status": null, "persistent_id": "", "id": 122670931, "location_subtype": "", "month": "2024-07"}, {"category": "anti-social-behaviour", "location_type": "Force", "location": {"latitude": "51.498553", "street": {"id": 1677378, "name": "On or near Caxton Street"}, "longitude": "-0.135291"}, "context": "", "outcome_status": null, "persistent_id": "", "id": 122702213, "location_subtype": "", "month": "2024-07"}, {"category": "anti-social-behaviour", "location_type": "Force", "location": {"latitude": "51.519933", "street": {"id": 1677494, "name": "On or near Shopping Area"}, "longitude": "-0.133899"}, "context": "", "outcome_status": null, "persistent_id": "", "id": 122670793, "location_subtype": "", "month": "2024-07"}, {"category": "anti-social-behaviour", "location_type": "Force", "location": {"latitude": "51.506736", "street": {"id": 1678642, "name": "On or near Craig's Court"}, "longitude": "-0.126800"}, "context": "", "outcome_status": null, "persistent_id": "", "id": 122751153, "location_subtype": "", "month": "2024-07"}, {"category": "anti-social-behaviour", "location_type": "Force", "location": {"latitude": "51.518106", "street": {"id": 1680014, "name": "On or near Race Track"}, "longitude": "-0.116951"}, "context": "", "outcome_status": null, "persistent_id": "", "id": 122671433, "location_subtype": "", "month": "2024-07"}, {"category": "anti-social-behaviour", "location_type": "Force", "location": {"latitude": "51.510942", "street": {"id": 1677925, "name": "On or near Leicester Street"}, "longitude": "-0.131196"}, "context": "", "outcome_status": null, "persistent_id": "", "id": 122675210, "location_subtype": "", "month": "2024-07"}, {"category": "anti-social-behaviour", "location_type": "Force", "location": {"latitude": "51.498553", "street": {"id": 1677378, "name": "On or near Caxton Street"}, "longitude": "-0.135291"}, "context": "", "outcome_status": null, "persistent_id": "", "id": 122747215, "location_subtype": "", "month": "2024-07"}, {"category": "anti-social-behaviour", "location_type": "Force", "location": {"latitude": "51.517596", "street": {"id": 1677320, "name": "On or near Newman Street"}, "longitude": "-0.135680"}, "context": "", "outcome_status": null, "persistent_id": "", "id": 122732625, "location_subtype": "", "month": "2024-07"}, {"category": "anti-social-behaviour", "location_type": "Force", "location": {"latitude": "51.513052", "street": {"id": 1677758, "name": "On or near Bourchier Street"}, "longitude": "-0.132681"}, "context": "", "outcome_status": null, "persistent_id": "", "id": 122747267, "location_subtype": "", "month": "2024-07"}, {"category": "anti-social-behaviour", "location_type": "Force", "location": {"latitude": "51.513848", "street": {"id": 1678270, "name": "On or near Old Compton Street"}, "longitude": "-0.129593"}, "context": "", "outcome_status": null, "persistent_id": "", "id": 122675015, "location_subtype": "", "month": "2024-07"}, {"category": "anti-social-behaviour", "location_type": "Force", "location": {"latitude": "51.511623", "street": {"id": 1678738, "name": "On or near Rose Street"}, "longitude": "-0.125951"}, "context": "", "outcome_status": null, "persistent_id": "", "id": 122738292, "location_subtype": "", "month": "2024-07"}, {"category": "anti-social-behaviour", "location_type": "Force", "location": {"latitude": "51.517596", "street": {"id": 1677320, "name": "On or near Newman Street"}, "longitude": "-0.135680"}, "context": "", "outcome_status": null, "persistent_id": "", "id": 122753810, "location_subtype": "", "month": "2024-07"}, {"category": "anti-social-behaviour", "location_type": "Force", "location": {"latitude": "51.518456", "street": {"id": 1677599, "name": "On or near Percy Street"}, "longitude": "-0.133209"}, "context": "", "outcome_status": null, "persistent_id": "", "id": 122740814, "location_subtype": "", "month": "2024-07"}, {"category": "anti-social-behaviour", "location_type": "Force", "location": {"latitude": "51.506063", "street": {"id": 1682363, "name": "On or near Burrell Street"}, "longitude": "-0.103412"}, "context": "", "outcome_status": null, "persistent_id": "", "id": 122753189, "location_subtype": "", "month": "2024-07"}, {"category": "anti-social-behaviour", "location_type": "Force", "location": {"latitude": "51.511574", "street": {"id": 1678643, "name": "On or near Garrick Street"}, "longitude": "-0.126271"}, "context": "", "outcome_status": null, "persistent_id": "", "id": 122698012, "location_subtype": "", "month": "2024-07"}, {"category": "anti-social-behaviour", "location_type": "Force", "location": {"latitude": "51.502823", "street": {"id": 1679478, "name": "On or near Theme/adventure Park"}, "longitude": "-0.119257"}, "context": "", "outcome_status": null, "persistent_id": "", "id": 122752977, "location_subtype": "", "month": "2024-07"}, {"category": "anti-social-behaviour", "location_type": "Force", "location": {"latitude": "51.506855", "street": {"id": 1678358, "name": "On or near Spring Gardens"}, "longitude": "-0.128078"}, "context": "", "outcome_status": null, "persistent_id": "", "id": 122741928, "location_subtype": "", "month": "2024-07"}, {"category": "anti-social-behaviour", "location_type": "Force", "location": {"latitude": "51.513237", "street": {"id": 1675693, "name": "On or near Shopping Area"}, "longitude": "-0.146004"}, "context": "", "outcome_status": null, "persistent_id": "", "id": 122747570, "location_subtype": "", "month": "2024-07"}, {"category": "anti-social-behaviour", "location_type": "Force", "location": {"latitude": "51.521441", "street": {"id": 1679726, "name": "On or near Orde Hall Street"}, "longitude": "-0.119062"}, "context": "", "outcome_status": null, "persistent_id": "", "id": 122747580, "location_subtype": "", "month": "2024-07"}, {"category": "anti-social-behaviour", "location_type": "Force", "location": {"latitude": "51.511111", "street": {"id": 1679082, "name": "On or near Henrietta Street"}, "longitude": "-0.123710"}, "context": "", "outcome_status": null, "persistent_id": "", "id": 122752973, "location_subtype": "", "month": "2024-07"}, {"category": "anti-social-behaviour", "location_type": "Force", "location": {"latitude": "51.509491", "street": {"id": 1678539, "name": "On or near William Iv Street"}, "longitude": "-0.125924"}, "context": "", "outcome_status": null, "persistent_id": "", "id": 122752962, "location_subtype": "", "month": "2024-07"}, {"category": "anti-social-behaviour", "location_type": "Force", "location": {"latitude": "51.511703", "street": {"id": 1678351, "name": "On or near Little Newport Street"}, "longitude": "-0.128701"}, "context": "", "outcome_status": null, "persistent_id": "", "id": 122687731, "location_subtype": "", "month": "2024-07"}, {"category": "anti-social-behaviour", "location_type": "Force", "location": {"latitude": "51.513310", "street": {"id": 1679459, "name": "On or near Theatre/concert Hall"}, "longitude": "-0.120741"}, "context": "", "outcome_status": null, "persistent_id": "", "id": 122687477, "location_subtype": "", "month": "2024-07"}, {"category": "anti-social-behaviour", "location_type": "Force", "location": {"latitude": "51.511583", "street": {"id": 1677675, "name": "On or near Theatre/concert Hall"}, "longitude": "-0.133287"}, "context": "", "outcome_status": null, "persistent_id": "", "id": 122749700, "location_subtype": "", "month": "2024-07"}, {"category": "anti-social-behaviour", "location_type": "Force", "location": {"latitude": "51.510520", "street": {"id": 1677019, "name": "On or near Glasshouse Street"}, "longitude": "-0.137439"}, "context": "", "outcome_status": null, "persistent_id": "", "id": 122705379, "location_subtype": "", "month": "2024-07"}, {"category": "anti-social-behaviour", "location_type": "Force", "location": {"latitude": "51.517482", "street": {"id": 1678669, "name": "On or near Coptic Street"}, "longitude": "-0.126259"}, "context": "", "outcome_status": null, "persistent_id": "", "id": 122705844, "location_subtype": "", "month": "2024-07"}, {"category": "anti-social-behaviour", "location_type": "Force", "location": {"latitude": "51.513090", "street": {"id": 1677384, "name": "On or near Hopkins Street"}, "longitude": "-0.135043"}, "context": "", "outcome_status": null, "persistent_id": "", "id": 122706196, "location_subtype": "", "month": "2024-07"}, {"category": "anti-social-behaviour", "location_type": "Force", "location": {"latitude": "51.502823", "street": {"id": 1679478, "name": "On or near Theme/adventure Park"}, "longitude": "-0.119257"}, "context": "", "outcome_status": null, "persistent_id": "", "id": 122706318, "location_subtype": "", "month": "2024-07"}, {"category": "anti-social-behaviour", "location_type": "Force", "location": {"latitude": "51.516001", "street": {"id": 1679229, "name": "On or near Macklin Street"}, "longitude": "-0.122471"}, "context": "", "outcome_status": null, "persistent_id": "", "id": 122706445, "location_subtype": "", "month": "2024-07"}, {"category": "anti-social-behaviour", "location_type": "Force", "location": {"latitude": "51.505942", "street": {"id": 1678964, "name": "On or near Whitehall Court"}, "longitude": "-0.124412"}, "context": "", "outcome_status": null, "persistent_id": "", "id": 122706965, "location_subtype": "", "month": "2024-07"}, {"category": "anti-social-behaviour", "location_type": "Force", "location": {"latitude": "51.516341", "street": {"id": 1679597, "name": "On or near Nightclub"}, "longitude": "-0.120151"}, "context": "", "outcome_status": null, "persistent_id": "", "id": 122707454, "location_subtype": "", "month": "2024-07"}, {"category": "anti-social-behaviour", "location_type": "Force", "location": {"latitude": "51.502823", "street": {"id": 1679478, "name": "On or near Theme/adventure Park"}, "longitude": "-0.119257"}, "context": "", "outcome_status": null, "persistent_id": "", "id": 122707608, "location_subtype": "", "month": "2024-07"}, {"category": "anti-social-behaviour", "location_type": "Force", "location": {"latitude": "51.506063", "street": {"id": 1682363, "name": "On or near Burrell Street"}, "longitude": "-0.103412"}, "context": "", "outcome_status": null, "persistent_id": "", "id": 122711335, "location_subtype": "", "month": "2024-07"}, {"category": "anti-social-behaviour", "location_type": "Force", "location": {"latitude": "51.499488", "street": {"id": 1679222, "name": "On or near Hospital"}, "longitude": "-0.118410"}, "context": "", "outcome_status": null, "persistent_id": "", "id": 122712097, "location_subtype": "", "month": "2024-07"}, {"category": "anti-social-behaviour", "location_type": "Force", "location": {"latitude": "51.500978", "street": {"id": 1678704, "name": "On or near Bridge Street"}, "longitude": "-0.125524"}, "context": "", "outcome_status": null, "persistent_id": "", "id": 122712150, "location_subtype": "", "month": "2024-07"}, {"category": "anti-social-behaviour", "location_type": "Force", "location": {"latitude": "51.517114", "street": {"id": 1679776, "name": "On or near Gate Street"}, "longitude": "-0.119009"}, "context": "", "outcome_status": null, "persistent_id": "", "id": 122712400, "location_subtype": "", "month": "2024-07"}, {"category": "anti-social-behaviour", "location_type": "Force", "location": {"latitude": "51.511096", "street": {"id": 1679247, "name": "On or near Southampton Street"}, "longitude": "-0.122226"}, "context": "", "outcome_status": null, "persistent_id": "", "id": 122712451, "location_subtype": "", "month": "2024-07"}, {"category": "anti-social-behaviour", "location_type": "Force", "location": {"latitude": "51.512300", "street": {"id": 1678389, "name": "On or near Theatre/concert Hall"}, "longitude": "-0.128388"}, "context": "", "outcome_status": null, "persistent_id": "", "id": 122712581, "location_subtype": "", "month": "2024-07"}, {"category": "anti-social-behaviour", "location_type": "Force", "location": {"latitude": "51.516275", "street": {"id": 1678661, "name": "On or near Theatre/concert Hall"}, "longitude": "-0.126121"}, "context": "", "outcome_status": null, "persistent_id": "", "id": 122713854, "location_subtype": "", "month": "2024-07"}, {"category": "anti-social-behaviour", "location_type": "Force", "location": {"latitude": "51.499488", "street": {"id": 1679222, "name": "On or near Hospital"}, "longitude": "-0.118410"}, "context": "", "outcome_status": null, "persistent_id": "", "id": 122714269, "location_subtype": "", "month": "2024-07"}, {"category": "anti-social-behaviour", "location_type": "Force", "location": {"latitude": "51.513057", "street": {"id": 1675886, "name": "On or near Shopping Area"}, "longitude": "-0.144844"}, "context": "", "outcome_status": null, "persistent_id": "", "id": 122714390, "location_subtype": "", "month": "2024-07"}, {"category": "anti-social-behaviour", "location_type": "Force", "location": {"latitude": "51.518281", "street": {"id": 1680923, "name": "On or near Chancery Lane"}, "longitude": "-0.111596"}, "context": "", "outcome_status": null, "persistent_id": "", "id": 122714664, "location_subtype": "", "month": "2024-07"}, {"category": "anti-social-behaviour", "location_type": "Force", "location": {"latitude": "51.507415", "street": {"id": 1681921, "name": "On or near Supermarket"}, "longitude": "-0.105835"}, "context": "", "outcome_status": null, "persistent_id": "", "id": 122714949, "location_subtype": "", "month": "2024-07"}, {"category": "anti-social-behaviour", "location_type": "Force", "location": {"latitude": "51.513575", "street": {"id": 1676335, "name": "On or near Pollen Street"}, "longitude": "-0.142373"}, "context": "", "outcome_status": null, "persistent_id": "", "id": 122715348, "location_subtype": "", "month": "2024-07"}, {"category": "anti-social-behaviour", "location_type": "Force", "location": {"latitude": "51.512059", "street": {"id": 1679743, "name": "On or near A301"}, "longitude": "-0.118929"}, "context": "", "outcome_status": null, "persistent_id": "", "id": 122715581, "location_subtype": "", "month": "2024-07"}, {"category": "anti-social-behaviour", "location_type": "Force", "location": {"latitude": "51.522216", "street": {"id": 1677558, "name": "On or near Torrington Place"}, "longitude": "-0.133257"}, "context": "", "outcome_status": null, "persistent_id": "", "id": 122715648, "location_subtype": "", "month": "2024-07"}, {"category": "anti-social-behaviour", "location_type": "Force", "location": {"latitude": "51.506985", "street": {"id": 1678839, "name": "On or near Northumberland Avenue"}, "longitude": "-0.124975"}, "context": "", "outcome_status": null, "persistent_id": "", "id": 122715679, "location_subtype": "", "month": "2024-07"}, {"category": "anti-social-behaviour", "location_type": "Force", "location": {"latitude": "51.506600", "street": {"id": 1677427, "name": "On or near Pall Mall"}, "longitude": "-0.134054"}, "context": "", "outcome_status": null, "persistent_id": "", "id": 122716407, "location_subtype": "", "month": "2024-07"}, {"category": "anti-social-behaviour", "location_type": "Force", "location": {"latitude": "51.506342", "street": {"id": 1678767, "name": "On or near Great Scotland Yard"}, "longitude": "-0.125794"}, "context": "", "outcome_status": null, "persistent_id": "", "id": 122716458, "location_subtype": "", "month": "2024-07"}, {"category": "anti-social-behaviour", "location_type": "Force", "location": {"latitude": "51.510345", "street": {"id": 1679211, "name": "On or near Theatre/concert Hall"}, "longitude": "-0.122502"}, "context": "", "outcome_status": null, "persistent_id": "", "id": 122716765, "location_subtype": "", "month": "2024-07"}, {"category": "anti-social-behaviour", "location_type": "Force", "location": {"latitude": "51.511856", "street": {"id": 1678534, "name": "On or near Great Newport Street"}, "longitude": "-0.127570"}, "context": "", "outcome_status": null, "persistent_id": "", "id": 122716778, "location_subtype": "", "month": "2024-07"}, {"category": "anti-social-behaviour", "location_type": "Force", "location": {"latitude": "51.504925", "street": {"id": 1678852, "name": "On or near Horse Guards Avenue"}, "longitude": "-0.124886"}, "context": "", "outcome_status": null, "persistent_id": "", "id": 122716786, "location_subtype": "", "month": "2024-07"}, {"category": "anti-social-behaviour", "location_type": "Force", "location": {"latitude": "51.496949", "street": {"id": 1677316, "name": "On or near Artillery Row"}, "longitude": "-0.135630"}, "context": "", "outcome_status": null, "persistent_id": "", "id": 122717552, "location_subtype": "", "month": "2024-07"}, {"category": "anti-social-behaviour", "location_type": "Force", "location": {"latitude": "51.499246", "street": {"id": 1676803, "name": "On or near Buckingham Gate"}, "longitude": "-0.138706"}, "context": "", "outcome_status": null, "persistent_id": "", "id": 122698716, "location_subtype": "", "month": "2024-07"}, {"category": "anti-social-behaviour", "location_type": "Force", "location": {"latitude": "51.516275", "street": {"id": 1678661, "name": "On or near Theatre/concert Hall"}, "longitude": "-0.126121"}, "context": "", "outcome_status": null, "persistent_id": "", "id": 122675443, "location_subtype": "", "month": "2024-07"}, {"category": "anti-social-behaviour", "location_type": "Force", "location": {"latitude": "51.507843", "street": {"id": 1675601, "name": "On or near Charles Street"}, "longitude": "-0.147232"}, "context": "", "outcome_status": null, "persistent_id": "", "id": 122675537, "location_subtype": "", "month": "2024-07"}, {"category": "anti-social-behaviour", "location_type": "Force", "location": {"latitude": "51.514600", "street": {"id": 1679615, "name": "On or near Keeley Street"}, "longitude": "-0.120338"}, "context": "", "outcome_status": null, "persistent_id": "", "id": 122747783, "location_subtype": "", "month": "2024-07"}, {"category": "anti-social-behaviour", "location_type": "Force", "location": {"latitude": "51.512078", "street": {"id": 1676378, "name": "On or near New Burlington Place"}, "longitude": "-0.141526"}, "context": "", "outcome_status": null, "persistent_id": "", "id": 122752841, "location_subtype": "", "month": "2024-07"}, {"category": "anti-social-behaviour", "location_type": "Force", "location": {"latitude": "51.510520", "street": {"id": 1677019, "name": "On or near Glasshouse Street"}, "longitude": "-0.137439"}, "context": "", "outcome_status": null, "persistent_id": "", "id": 122752435, "location_subtype": "", "month": "2024-07"}, {"category": "anti-social-behaviour", "location_type": "Force", "location": {"latitude": "51.499488", "street": {"id": 1679222, "name": "On or near Hospital"}, "longitude": "-0.118410"}, "context": "", "outcome_status": null, "persistent_id": "", "id": 122752071, "location_subtype": "", "month": "2024-07"}, {"category": "anti-social-behaviour", "location_type": "Force", "location": {"latitude": "51.496313", "street": {"id": 1677735, "name": "On or near Chadwick Street"}, "longitude": "-0.132429"}, "context": "", "outcome_status": null, "persistent_id": "", "id": 122752669, "location_subtype": "", "month": "2024-07"}, {"category": "anti-social-behaviour", "location_type": "Force", "location": {"latitude": "51.498553", "street": {"id": 1677378, "name": "On or near Caxton Street"}, "longitude": "-0.135291"}, "context": "", "outcome_status": null, "persistent_id": "", "id": 122700517, "location_subtype": "", "month": "2024-07"}, {"category": "anti-social-behaviour", "location_type": "Force", "location": {"latitude": "51.508401", "street": {"id": 1676325, "name": "On or near Dover Street"}, "longitude": "-0.142195"}, "context": "", "outcome_status": null, "persistent_id": "", "id": 122705595, "location_subtype": "", "month": "2024-07"}, {"category": "anti-social-behaviour", "location_type": "Force", "location": {"latitude": "51.498553", "street": {"id": 1677378, "name": "On or near Caxton Street"}, "longitude": "-0.135291"}, "context": "", "outcome_status": null, "persistent_id": "", "id": 122702407, "location_subtype": "", "month": "2024-07"}, {"category": "anti-social-behaviour", "location_type": "Force", "location": {"latitude": "51.514916", "street": {"id": 1679680, "name": "On or near Keeley Street"}, "longitude": "-0.119850"}, "context": "", "outcome_status": null, "persistent_id": "", "id": 122752635, "location_subtype": "", "month": "2024-07"}, {"category": "anti-social-behaviour", "location_type": "Force", "location": {"latitude": "51.515753", "street": {"id": 1676083, "name": "On or near John Prince's Street"}, "longitude": "-0.143092"}, "context": "", "outcome_status": null, "persistent_id": "", "id": 122744993, "location_subtype": "", "month": "2024-07"}, {"category": "anti-social-behaviour", "location_type": "Force", "location": {"latitude": "51.518405", "street": {"id": 1679695, "name": "On or near Procter Street"}, "longitude": "-0.119302"}, "context": "", "outcome_status": null, "persistent_id": "", "id": 122702465, "location_subtype": "", "month": "2024-07"}, {"category": "anti-social-behaviour", "location_type": "Force", "location": {"latitude": "51.500978", "street": {"id": 1678704, "name": "On or near Bridge Street"}, "longitude": "-0.125524"}, "context": "", "outcome_status": null, "persistent_id": "", "id": 122747939, "location_subtype": "", "month": "2024-07"}, {"category": "anti-social-behaviour", "location_type": "Force", "location": {"latitude": "51.515460", "street": {"id": 1679674, "name": "On or near Wild Court"}, "longitude": "-0.119611"}, "context": "", "outcome_status": null, "persistent_id": "", "id": 122744728, "location_subtype": "", "month": "2024-07"}, {"category": "anti-social-behaviour", "location_type": "Force", "location": {"latitude": "51.509404", "street": {"id": 1677825, "name": "On or near Theatre/concert Hall"}, "longitude": "-0.131706"}, "context": "", "outcome_status": null, "persistent_id": "", "id": 122702492, "location_subtype": "", "month": "2024-07"}, {"category": "anti-social-behaviour", "location_type": "Force", "location": {"latitude": "51.516275", "street": {"id": 1678661, "name": "On or near Theatre/concert Hall"}, "longitude": "-0.126121"}, "context": "", "outcome_status": null, "persistent_id": "", "id": 122687043, "location_subtype": "", "month": "2024-07"}, {"category": "anti-social-behaviour", "location_type": "Force", "location": {"latitude": "51.498553", "street": {"id": 1677378, "name": "On or near Caxton Street"}, "longitude": "-0.135291"}, "context": "", "outcome_status": null, "persistent_id": "", "id": 122743891, "location_subtype": "", "month": "2024-07"}, {"category": "anti-social-behaviour", "location_type": "Force", "location": {"latitude": "51.510623", "street": {"id": 1678627, "name": "On or near St Martin's Lane"}, "longitude": "-0.126987"}, "context": "", "outcome_status": null, "persistent_id": "", "id": 122748189, "location_subtype": "", "month": "2024-07"}, {"category": "anti-social-behaviour", "location_type": "Force", "location": {"latitude": "51.498553", "street": {"id": 1677378, "name": "On or near Caxton Street"}, "longitude": "-0.135291"}, "context": "", "outcome_status": null, "persistent_id": "", "id": 122743761, "location_subtype": "", "month": "2024-07"}, {"category": "anti-social-behaviour", "location_type": "Force", "location": {"latitude": "51.500978", "street": {"id": 1678704, "name": "On or near Bridge Street"}, "longitude": "-0.125524"}, "context": "", "outcome_status": null, "persistent_id": "", "id": 122743242, "location_subtype": "", "month": "2024-07"}, {"category": "anti-social-behaviour", "location_type": "Force", "location": {"latitude": "51.511783", "street": {"id": 1678199, "name": "On or near Nightclub"}, "longitude": "-0.129778"}, "context": "", "outcome_status": null, "persistent_id": "", "id": 122743006, "location_subtype": "", "month": "2024-07"}, {"category": "anti-social-behaviour", "location_type": "Force", "location": {"latitude": "51.516001", "street": {"id": 1679229, "name": "On or near Macklin Street"}, "longitude": "-0.122471"}, "context": "", "outcome_status": null, "persistent_id": "", "id": 122686998, "location_subtype": "", "month": "2024-07"}, {"category": "anti-social-behaviour", "location_type": "Force", "location": {"latitude": "51.517265", "street": {"id": 1678861, "name": "On or near Museum Street"}, "longitude": "-0.125071"}, "context": "", "outcome_status": null, "persistent_id": "", "id": 122742980, "location_subtype": "", "month": "2024-07"}, {"category": "anti-social-behaviour", "location_type": "Force", "location": {"latitude": "51.507623", "street": {"id": 1678103, "name": "On or near Cockspur Street"}, "longitude": "-0.130006"}, "context": "", "outcome_status": null, "persistent_id": "", "id": 122686983, "location_subtype": "", "month": "2024-07"}, {"category": "anti-social-behaviour", "location_type": "Force", "location": {"latitude": "51.513341", "street": {"id": 1677704, "name": "On or near Meard Street"}, "longitude": "-0.132756"}, "context": "", "outcome_status": null, "persistent_id": "", "id": 122742883, "location_subtype": "", "month": "2024-07"}, {"category": "anti-social-behaviour", "location_type": "Force", "location": {"latitude": "51.521928", "street": {"id": 1679934, "name": "On or near Rugby Street"}, "longitude": "-0.118062"}, "context": "", "outcome_status": null, "persistent_id": "", "id": 122686706, "location_subtype": "", "month": "2024-07"}, {"category": "anti-social-behaviour", "location_type": "Force", "location": {"latitude": "51.513701", "street": {"id": 1678506, "name": "On or near Earlham Street"}, "longitude": "-0.127091"}, "context": "", "outcome_status": null, "persistent_id": "", "id": 122742323, "location_subtype": "", "month": "2024-07"}, {"category": "anti-social-behaviour", "location_type": "Force", "location": {"latitude": "51.509491", "street": {"id": 1678539, "name": "On or near William Iv Street"}, "longitude": "-0.125924"}, "context": "", "outcome_status": null, "persistent_id": "", "id": 122742270, "location_subtype": "", "month": "2024-07"}, {"category": "anti-social-behaviour", "location_type": "Force", "location": {"latitude": "51.510152", "street": {"id": 1677738, "name": "On or near Theatre/concert Hall"}, "longitude": "-0.132382"}, "context": "", "outcome_status": null, "persistent_id": "", "id": 122686562, "location_subtype": "", "month": "2024-07"}, {"category": "anti-social-behaviour", "location_type": "Force", "location": {"latitude": "51.518130", "street": {"id": 1676977, "name": "On or near Parking Area"}, "longitude": "-0.137604"}, "context": "", "outcome_status": null, "persistent_id": "", "id": 122685782, "location_subtype": "", "month": "2024-07"}, {"category": "anti-social-behaviour", "location_type": "Force", "location": {"latitude": "51.506553", "street": {"id": 1682080, "name": "On or near Shopping Area"}, "longitude": "-0.104775"}, "context": "", "outcome_status": null, "persistent_id": "", "id": 122741773, "location_subtype": "", "month": "2024-07"}, {"category": "anti-social-behaviour", "location_type": "Force", "location": {"latitude": "51.514185", "street": {"id": 1677307, "name": "On or near Berwick Street"}, "longitude": "-0.135459"}, "context": "", "outcome_status": null, "persistent_id": "", "id": 122684984, "location_subtype": "", "month": "2024-07"}, {"category": "anti-social-behaviour", "location_type": "Force", "location": {"latitude": "51.495745", "street": {"id": 1677734, "name": "On or near Parking Area"}, "longitude": "-0.132308"}, "context": "", "outcome_status": null, "persistent_id": "", "id": 122741602, "location_subtype": "", "month": "2024-07"}, {"category": "anti-social-behaviour", "location_type": "Force", "location": {"latitude": "51.510345", "street": {"id": 1679211, "name": "On or near Theatre/concert Hall"}, "longitude": "-0.122502"}, "context": "", "outcome_status": null, "persistent_id": "", "id": 122684425, "location_subtype": "", "month": "2024-07"}, {"category": "anti-social-behaviour", "location_type": "Force", "location": {"latitude": "51.512449", "street": {"id": 1680063, "name": "On or near Surrey Street"}, "longitude": "-0.115772"}, "context": "", "outcome_status": null, "persistent_id": "", "id": 122741174, "location_subtype": "", "month": "2024-07"}, {"category": "anti-social-behaviour", "location_type": "Force", "location": {"latitude": "51.500978", "street": {"id": 1678704, "name": "On or near Bridge Street"}, "longitude": "-0.125524"}, "context": "", "outcome_status": null, "persistent_id": "", "id": 122703985, "location_subtype": "", "month": "2024-07"}, {"category": "anti-social-behaviour", "location_type": "Force", "location": {"latitude": "51.495745", "street": {"id": 1677734, "name": "On or near Parking Area"}, "longitude": "-0.132308"}, "context": "", "outcome_status": null, "persistent_id": "", "id": 122705141, "location_subtype": "", "month": "2024-07"}, {"category": "anti-social-behaviour", "location_type": "Force", "location": {"latitude": "51.516295", "street": {"id": 1678131, "name": "On or near Conference/exhibition Centre"}, "longitude": "-0.129487"}, "context": "", "outcome_status": null, "persistent_id": "", "id": 122741117, "location_subtype": "", "month": "2024-07"}, {"category": "anti-social-behaviour", "location_type": "Force", "location": {"latitude": "51.520101", "street": {"id": 1677055, "name": "On or near Tottenham Mews"}, "longitude": "-0.137092"}, "context": "", "outcome_status": null, "persistent_id": "", "id": 122740959, "location_subtype": "", "month": "2024-07"}, {"category": "anti-social-behaviour", "location_type": "Force", "location": {"latitude": "51.502428", "street": {"id": 1681119, "name": "On or near Pear Place"}, "longitude": "-0.110508"}, "context": "", "outcome_status": null, "persistent_id": "", "id": 122732921, "location_subtype": "", "month": "2024-07"}, {"category": "anti-social-behaviour", "location_type": "Force", "location": {"latitude": "51.504126", "street": {"id": 1682088, "name": "On or near Joan Street"}, "longitude": "-0.105409"}, "context": "", "outcome_status": null, "persistent_id": "", "id": 122753641, "location_subtype": "", "month": "2024-07"}, {"category": "anti-social-behaviour", "location_type": "Force", "location": {"latitude": "51.507938", "street": {"id": 1678191, "name": "On or near Trafalgar Square"}, "longitude": "-0.128898"}, "context": "", "outcome_status": null, "persistent_id": "", "id": 122704040, "location_subtype": "", "month": "2024-07"}, {"category": "anti-social-behaviour", "location_type": "Force", "location": {"latitude": "51.503893", "street": {"id": 1681490, "name": "On or near Windmill Walk"}, "longitude": "-0.108776"}, "context": "", "outcome_status": null, "persistent_id": "", "id": 122740271, "location_subtype": "", "month": "2024-07"}, {"category": "anti-social-behaviour", "location_type": "Force", "location": {"latitude": "51.507832", "street": {"id": 1679120, "name": "On or near Villiers Street"}, "longitude": "-0.123383"}, "context": "", "outcome_status": null, "persistent_id": "", "id": 122739987, "location_subtype": "", "month": "2024-07"}, {"category": "anti-social-behaviour", "location_type": "Force", "location": {"latitude": "51.513052", "street": {"id": 1677758, "name": "On or near Bourchier Street"}, "longitude": "-0.132681"}, "context": "", "outcome_status": null, "persistent_id": "", "id": 122700365, "location_subtype": "", "month": "2024-07"}, {"category": "anti-social-behaviour", "location_type": "Force", "location": {"latitude": "51.516785", "street": {"id": 1678562, "name": "On or near Theatre/concert Hall"}, "longitude": "-0.126532"}, "context": "", "outcome_status": null, "persistent_id": "", "id": 122748472, "location_subtype": "", "month": "2024-07"}, {"category": "anti-social-behaviour", "location_type": "Force", "location": {"latitude": "51.513205", "street": {"id": 1678985, "name": "On or near Long Acre"}, "longitude": "-0.124229"}, "context": "", "outcome_status": null, "persistent_id": "", "id": 122739689, "location_subtype": "", "month": "2024-07"}, {"category": "anti-social-behaviour", "location_type": "Force", "location": {"latitude": "51.517727", "street": {"id": 1678383, "name": "On or near Further/higher Educational Building"}, "longitude": "-0.128612"}, "context": "", "outcome_status": null, "persistent_id": "", "id": 122739466, "location_subtype": "", "month": "2024-07"}, {"category": "anti-social-behaviour", "location_type": "Force", "location": {"latitude": "51.517563", "street": {"id": 1677662, "name": "On or near Stephen Street"}, "longitude": "-0.133001"}, "context": "", "outcome_status": null, "persistent_id": "", "id": 122739412, "location_subtype": "", "month": "2024-07"}, {"category": "anti-social-behaviour", "location_type": "Force", "location": {"latitude": "51.514684", "street": {"id": 1676465, "name": "On or near Argyll Street"}, "longitude": "-0.140844"}, "context": "", "outcome_status": null, "persistent_id": "", "id": 122684408, "location_subtype": "", "month": "2024-07"}, {"category": "anti-social-behaviour", "location_type": "Force", "location": {"latitude": "51.514365", "street": {"id": 1675924, "name": "On or near Princes Street"}, "longitude": "-0.143408"}, "context": "", "outcome_status": null, "persistent_id": "", "id": 122683872, "location_subtype": "", "month": "2024-07"}, {"category": "anti-social-behaviour", "location_type": "Force", "location": {"latitude": "51.506632", "street": {"id": 1678507, "name": "On or near Theatre/concert Hall"}, "longitude": "-0.127640"}, "context": "", "outcome_status": null, "persistent_id": "", "id": 122738977, "location_subtype": "", "month": "2024-07"}, {"category": "anti-social-behaviour", "location_type": "Force", "location": {"latitude": "51.511783", "street": {"id": 1678199, "name": "On or near Nightclub"}, "longitude": "-0.129778"}, "context": "", "outcome_status": null, "persistent_id": "", "id": 122738971, "location_subtype": "", "month": "2024-07"}, {"category": "anti-social-behaviour", "location_type": "Force", "location": {"latitude": "51.512117", "street": {"id": 1679112, "name": "On or near Shopping Area"}, "longitude": "-0.123121"}, "context": "", "outcome_status": null, "persistent_id": "", "id": 122750994, "location_subtype": "", "month": "2024-07"}, {"category": "anti-social-behaviour", "location_type": "Force", "location": {"latitude": "51.511574", "street": {"id": 1678643, "name": "On or near Garrick Street"}, "longitude": "-0.126271"}, "context": "", "outcome_status": null, "persistent_id": "", "id": 122683831, "location_subtype": "", "month": "2024-07"}, {"category": "anti-social-behaviour", "location_type": "Force", "location": {"latitude": "51.502888", "street": {"id": 1679979, "name": "On or near Chicheley Street"}, "longitude": "-0.117319"}, "context": "", "outcome_status": null, "persistent_id": "", "id": 122738527, "location_subtype": "", "month": "2024-07"}, {"category": "anti-social-behaviour", "location_type": "Force", "location": {"latitude": "51.505895", "street": {"id": 1677614, "name": "On or near Carlton Gardens"}, "longitude": "-0.133319"}, "context": "", "outcome_status": null, "persistent_id": "", "id": 122738414, "location_subtype": "", "month": "2024-07"}, {"category": "anti-social-behaviour", "location_type": "Force", "location": {"latitude": "51.514684", "street": {"id": 1676465, "name": "On or near Argyll Street"}, "longitude": "-0.140844"}, "context": "", "outcome_status": null, "persistent_id": "", "id": 122683589, "location_subtype": "", "month": "2024-07"}, {"category": "anti-social-behaviour", "location_type": "Force", "location": {"latitude": "51.519092", "street": {"id": 1679240, "name": "On or near Bloomsbury Square"}, "longitude": "-0.122330"}, "context": "", "outcome_status": null, "persistent_id": "", "id": 122737625, "location_subtype": "", "month": "2024-07"}, {"category": "anti-social-behaviour", "location_type": "Force", "location": {"latitude": "51.495745", "street": {"id": 1677734, "name": "On or near Parking Area"}, "longitude": "-0.132308"}, "context": "", "outcome_status": null, "persistent_id": "", "id": 122699969, "location_subtype": "", "month": "2024-07"}, {"category": "anti-social-behaviour", "location_type": "Force", "location": {"latitude": "51.511703", "street": {"id": 1678351, "name": "On or near Little Newport Street"}, "longitude": "-0.128701"}, "context": "", "outcome_status": null, "persistent_id": "", "id": 122683531, "location_subtype": "", "month": "2024-07"}, {"category": "anti-social-behaviour", "location_type": "Force", "location": {"latitude": "51.507623", "street": {"id": 1678103, "name": "On or near Cockspur Street"}, "longitude": "-0.130006"}, "context": "", "outcome_status": null, "persistent_id": "", "id": 122682968, "location_subtype": "", "month": "2024-07"}, {"category": "anti-social-behaviour", "location_type": "Force", "location": {"latitude": "51.514365", "street": {"id": 1675924, "name": "On or near Princes Street"}, "longitude": "-0.143408"}, "context": "", "outcome_status": null, "persistent_id": "", "id": 122682336, "location_subtype": "", "month": "2024-07"}, {"category": "anti-social-behaviour", "location_type": "Force", "location": {"latitude": "51.509158", "street": {"id": 1677370, "name": "On or near Theatre/concert Hall"}, "longitude": "-0.134930"}, "context": "", "outcome_status": null, "persistent_id": "", "id": 122737306, "location_subtype": "", "month": "2024-07"}, {"category": "anti-social-behaviour", "location_type": "Force", "location": {"latitude": "51.507097", "street": {"id": 1677926, "name": "On or near Parking Area"}, "longitude": "-0.130864"}, "context": "", "outcome_status": null, "persistent_id": "", "id": 122681972, "location_subtype": "", "month": "2024-07"}, {"category": "anti-social-behaviour", "location_type": "Force", "location": {"latitude": "51.521006", "street": {"id": 1677513, "name": "On or near Alfred Mews"}, "longitude": "-0.134100"}, "context": "", "outcome_status": null, "persistent_id": "", "id": 122737059, "location_subtype": "", "month": "2024-07"}, {"category": "anti-social-behaviour", "location_type": "Force", "location": {"latitude": "51.515460", "street": {"id": 1679674, "name": "On or near Wild Court"}, "longitude": "-0.119611"}, "context": "", "outcome_status": null, "persistent_id": "", "id": 122736322, "location_subtype": "", "month": "2024-07"}, {"category": "anti-social-behaviour", "location_type": "Force", "location": {"latitude": "51.517742", "street": {"id": 1678770, "name": "On or near Little Russell Street"}, "longitude": "-0.125614"}, "context": "", "outcome_status": null, "persistent_id": "", "id": 122736295, "location_subtype": "", "month": "2024-07"}, {"category": "anti-social-behaviour", "location_type": "Force", "location": {"latitude": "51.496440", "street": {"id": 1677223, "name": "On or near Spencer Place"}, "longitude": "-0.135867"},