[{"category": "anti-social-behaviour", "location_type": "Force", "location": {"latitude": "52.958184", "street": {"id": 2247416, "name": "On or near Parking Area"}, "longitude": "-1.142665"}, "context": "", "outcome_status": null, "persistent_id": "", "id": 119406856, "location_subtype": "", "month": "2024-05"}, {"category": "anti-social-behaviour", "location_type": "Force", "location": {"latitude": "52.960134", "street": {"id": 2247657, "name": "On or near Jedburgh Close"}, "longitude": "-1.138815"}, "context": "", "outcome_status": null, "persistent_id": "", "id": 119406990, "location_subtype": "", "month": "2024-05"}, {"category": "anti-social-behaviour", "location_type": "Force", "location": {"latitude": "52.963666", "street": {"id": 2247049, "name": "On or near Conway Close"}, "longitude": "-1.147395"}, "context": "", "outcome_status": null, "persistent_id": "", "id": 119406915, "location_subtype": "", "month": "2024-05"}, {"category": "anti-social-behaviour", "location_type": "Force", "location": {"latitude": "52.957205", "street": {"id": 2245497, "name": "On or near Highurst Street"}, "longitude": "-1.166800"}, "context": "", "outcome_status": null, "persistent_id": "", "id": 119406988, "location_subtype": "", "month": "2024-05"}, {"category": "anti-social-behaviour", "location_type": "Force", "location": {"latitude": "52.964852", "street": {"id": 2247065, "name": "On or near Cambria Mews"}, "longitude": "-1.147327"}, "context": "", "outcome_status": null, "persistent_id": "", "id": 119406977, "location_subtype": "", "month": "2024-05"}, {"category": "anti-social-behaviour", "location_type": "Force", "location": {"latitude": "52.953688", "street": {"id": 2247042, "name": "On or near High Street"}, "longitude": "-1.147502"}, "context": "", "outcome_status": null, "persistent_id": "", "id": 119406917, "location_subtype": "", "month": "2024-05"}, {"category": "anti-social-behaviour", "location_type": "Force", "location": {"latitude": "52.964852", "street": {"id": 2247065, "name": "On or near Cambria Mews"}, "longitude": "-1.147327"}, "context": "", "outcome_status": null, "persistent_id": "", "id": 119406974, "location_subtype": "", "month": "2024-05"}, {"category": "anti-social-behaviour", "location_type": "Force", "location": {"latitude": "52.960981", "street": {"id": 2245194, "name": "On or near Bovill Street"}, "longitude": "-1.170776"}, "context": "", "outcome_status": null, "persistent_id": "", "id": 119406928, "location_subtype": "", "month": "2024-05"}, {"category": "anti-social-behaviour", "location_type": "Force", "location": {"latitude": "52.956030", "street": {"id": 2246804, "name": "On or near Nightclub"}, "longitude": "-1.150671"}, "context": "", "outcome_status": null, "persistent_id": "", "id": 119406981, "location_subtype": "", "month": "2024-05"}, {"category": "anti-social-behaviour", "location_type": "Force", "location": {"latitude": "52.949344", "street": {"id": 2247084, "name": "On or near Parking Area"}, "longitude": "-1.147141"}, "context": "", "outcome_status": null, "persistent_id": "", "id": 119406969, "location_subtype": "", "month": "2024-05"}, {"category": "anti-social-behaviour", "location_type": "Force", "location": {"latitude": "52.957733", "street": {"id": 2247107, "name": "On or near St Ann's Street"}, "longitude": "-1.146217"}, "context": "", "outcome_status": null, "persistent_id": "", "id": 119406929, "location_subtype": "", "month": "2024-05"}, {"category": "anti-social-behaviour", "location_type": "Force", "location": {"latitude": "52.954501", "street": {"id": 2248158, "name": "On or near Westhorpe Avenue"}, "longitude": "-1.129475"}, "context": "", "outcome_status": null, "persistent_id": "", "id": 119406949, "location_subtype": "", "month": "2024-05"}, {"category": "anti-social-behaviour", "location_type": "Force", "location": {"latitude": "52.964852", "street": {"id": 2247065, "name": "On or near Cambria Mews"}, "longitude": "-1.147327"}, "context": "", "outcome_status": null, "persistent_id": "", "id": 119406937, "location_subtype": "", "month": "2024-05"}, {"category": "anti-social-behaviour", "location_type": "Force", "location": {"latitude": "52.953792", "street": {"id": 2247095, "name": "On or near Nightclub"}, "longitude": "-1.146979"}, "context": "", "outcome_status": null, "persistent_id": "", "id": 119406920, "location_subtype": "", "month": "2024-05"}, {"category": "anti-social-behaviour", "location_type": "Force", "location": {"latitude": "52.954396", "street": {"id": 2245514, "name": "On or near Western Terrace"}, "longitude": "-1.166199"}, "context": "", "outcome_status": null, "persistent_id": "", "id": 119406826, "location_subtype": "", "month": "2024-05"}, {"category": "anti-social-behaviour", "location_type": "Force", "location": {"latitude": "52.953648", "street": {"id": 2246876, "name": "On or near Long Row"}, "longitude": "-1.149438"}, "context": "", "outcome_status": null, "persistent_id": "", "id": 119406923, "location_subtype": "", "month": "2024-05"}, {"category": "anti-social-behaviour", "location_type": "Force", "location": {"latitude": "52.953599", "street": {"id": 2247337, "name": "On or near Carlton Street"}, "longitude": "-1.143842"}, "context": "", "outcome_status": null, "persistent_id": "", "id": 119406875, "location_subtype": "", "month": "2024-05"}, {"category": "anti-social-behaviour", "location_type": "Force", "location": {"latitude": "52.956121", "street": {"id": 2246761, "name": "On or near Burton Street"}, "longitude": "-1.150848"}, "context": "", "outcome_status": null, "persistent_id": "", "id": 119406942, "location_subtype": "", "month": "2024-05"}, {"category": "anti-social-behaviour", "location_type": "Force", "location": {"latitude": "52.949430", "street": {"id": 2247384, "name": "On or near Parking Area"}, "longitude": "-1.141647"}, "context": "", "outcome_status": null, "persistent_id": "", "id": 119406853, "location_subtype": "", "month": "2024-05"}, {"category": "anti-social-behaviour", "location_type": "Force", "location": {"latitude": "52.966687", "street": {"id": 2247391, "name": "On or near Rose Close"}, "longitude": "-1.142556"}, "context": "", "outcome_status": null, "persistent_id": "", "id": 119406851, "location_subtype": "", "month": "2024-05"}, {"category": "anti-social-behaviour", "location_type": "Force", "location": {"latitude": "52.959041", "street": {"id": 2246914, "name": "On or near Bus/coach Station"}, "longitude": "-1.148855"}, "context": "", "outcome_status": null, "persistent_id": "", "id": 119406847, "location_subtype": "", "month": "2024-05"}, {"category": "anti-social-behaviour", "location_type": "Force", "location": {"latitude": "52.940875", "street": {"id": 2246339, "name": "On or near Thrumpton Drive"}, "longitude": "-1.155849"}, "context": "", "outcome_status": null, "persistent_id": "", "id": 119406845, "location_subtype": "", "month": "2024-05"}, {"category": "anti-social-behaviour", "location_type": "Force", "location": {"latitude": "52.954355", "street": {"id": 2245180, "name": "On or near Rothesay Avenue"}, "longitude": "-1.171930"}, "context": "", "outcome_status": null, "persistent_id": "", "id": 119406842, "location_subtype": "", "month": "2024-05"}, {"category": "anti-social-behaviour", "location_type": "Force", "location": {"latitude": "52.955101", "street": {"id": 2245349, "name": "On or near Balfour Road"}, "longitude": "-1.169281"}, "context": "", "outcome_status": null, "persistent_id": "", "id": 119406839, "location_subtype": "", "month": "2024-05"}, {"category": "anti-social-behaviour", "location_type": "Force", "location": {"latitude": "52.962950", "street": {"id": 2246893, "name": "On or near Theatre/concert Hall"}, "longitude": "-1.149340"}, "context": "", "outcome_status": null, "persistent_id": "", "id": 119406832, "location_subtype": "", "month": "2024-05"}, {"category": "anti-social-behaviour", "location_type": "Force", "location": {"latitude": "52.951894", "street": {"id": 2246676, "name": "On or near Spaniel Row"}, "longitude": "-1.151749"}, "context": "", "outcome_status": null, "persistent_id": "", "id": 119406882, "location_subtype": "", "month": "2024-05"}, {"category": "anti-social-behaviour", "location_type": "Force", "location": {"latitude": "52.953224", "street": {"id": 2247307, "name": "On or near Warser Gate"}, "longitude": "-1.144192"}, "context": "", "outcome_status": null, "persistent_id": "", "id": 119407011, "location_subtype": "", "month": "2024-05"}, {"category": "anti-social-behaviour", "location_type": "Force", "location": {"latitude": "52.954475", "street": {"id": 2245335, "name": "On or near Albert Grove"}, "longitude": "-1.169725"}, "context": "", "outcome_status": null, "persistent_id": "", "id": 119406824, "location_subtype": "", "month": "2024-05"}, {"category": "anti-social-behaviour", "location_type": "Force", "location": {"latitude": "52.952315", "street": {"id": 2247176, "name": "On or near Parking Area"}, "longitude": "-1.145371"}, "context": "", "outcome_status": null, "persistent_id": "", "id": 119407001, "location_subtype": "", "month": "2024-05"}, {"category": "anti-social-behaviour", "location_type": "Force", "location": {"latitude": "52.958227", "street": {"id": 2247484, "name": "On or near Wasnidge Close"}, "longitude": "-1.141205"}, "context": "", "outcome_status": null, "persistent_id": "", "id": 119406982, "location_subtype": "", "month": "2024-05"}, {"category": "anti-social-behaviour", "location_type": "Force", "location": {"latitude": "52.964182", "street": {"id": 2246703, "name": "On or near Villa Road"}, "longitude": "-1.151688"}, "context": "", "outcome_status": null, "persistent_id": "", "id": 119407013, "location_subtype": "", "month": "2024-05"}, {"category": "anti-social-behaviour", "location_type": "Force", "location": {"latitude": "52.948262", "street": {"id": 2246294, "name": "On or near Hope Drive"}, "longitude": "-1.156851"}, "context": "", "outcome_status": null, "persistent_id": "", "id": 119406995, "location_subtype": "", "month": "2024-05"}, {"category": "anti-social-behaviour", "location_type": "Force", "location": {"latitude": "52.951137", "street": {"id": 2247168, "name": "On or near Weekday Cross"}, "longitude": "-1.145304"}, "context": "", "outcome_status": null, "persistent_id": "", "id": 119407015, "location_subtype": "", "month": "2024-05"}, {"category": "anti-social-behaviour", "location_type": "Force", "location": {"latitude": "52.960801", "street": {"id": 2246523, "name": "On or near Mansfield Grove"}, "longitude": "-1.154151"}, "context": "", "outcome_status": null, "persistent_id": "", "id": 119407016, "location_subtype": "", "month": "2024-05"}, {"category": "anti-social-behaviour", "location_type": "Force", "location": {"latitude": "52.950919", "street": {"id": 2246765, "name": "On or near Castle Gate"}, "longitude": "-1.151203"}, "context": "", "outcome_status": null, "persistent_id": "", "id": 119406993, "location_subtype": "", "month": "2024-05"}, {"category": "anti-social-behaviour", "location_type": "Force", "location": {"latitude": "52.952881", "street": {"id": 2246779, "name": "On or near Bus/coach Station"}, "longitude": "-1.150256"}, "context": "", "outcome_status": null, "persistent_id": "", "id": 119406887, "location_subtype": "", "month": "2024-05"}, {"category": "anti-social-behaviour", "location_type": "Force", "location": {"latitude": "52.945508", "street": {"id": 2245995, "name": "On or near Tinkersway"}, "longitude": "-1.160119"}, "context": "", "outcome_status": null, "persistent_id": "", "id": 119406996, "location_subtype": "", "month": "2024-05"}, {"category": "anti-social-behaviour", "location_type": "Force", "location": {"latitude": "52.962884", "street": {"id": 2246619, "name": "On or near Alpha Terrace"}, "longitude": "-1.152443"}, "context": "", "outcome_status": null, "persistent_id": "", "id": 119406905, "location_subtype": "", "month": "2024-05"}, {"category": "anti-social-behaviour", "location_type": "Force", "location": {"latitude": "52.961512", "street": {"id": 2245876, "name": "On or near Arthur Street"}, "longitude": "-1.161774"}, "context": "", "outcome_status": null, "persistent_id": "", "id": 119407020, "location_subtype": "", "month": "2024-05"}, {"category": "bicycle-theft", "location_type": "Force", "location": {"latitude": "52.950229", "street": {"id": 2248233, "name": "On or near Sneinton Hollows"}, "longitude": "-1.129188"}, "context": "", "outcome_status": {"category": "Investigation complete; no suspect identified", "date": "2024-05"}, "persistent_id": "79b8fb77b60ca2acab2679f6fd0a71e37fad183c3bd421ec7ce757126de0c420", "id": 119404769, "location_subtype": "", "month": "2024-05"}, {"category": "bicycle-theft", "location_type": "Force", "location": {"latitude": "52.949794", "street": {"id": 2247371, "name": "On or near Shortwood Close"}, "longitude": "-1.143485"}, "context": "", "outcome_status": {"category": "Investigation complete; no suspect identified", "date": "2024-05"}, "persistent_id": "0c592b3ce9effdeb41bcb263eade96953574f97c096de9ac055910810415c2ef", "id": 119399663, "location_subtype": "", "month": "2024-05"}, {"category": "bicycle-theft", "location_type": "Force", "location": {"latitude": "52.953688", "street": {"id": 2247042, "name": "On or near High Street"}, "longitude": "-1.147502"}, "context": "", "outcome_status": {"category": "Investigation complete; no suspect identified", "date": "2024-07"}, "persistent_id": "510b9801936491de43310a5c31c8d1efd5e1eb50d587dfde32c558461dbce4d7", "id": 119405166, "location_subtype": "", "month": "2024-05"}, {"category": "bicycle-theft", "location_type": "Force", "location": {"latitude": "52.953625", "street": {"id": 2247148, "name": "On or near Pelham Street"}, "longitude": "-1.146238"}, "context": "", "outcome_status": {"category": "Investigation complete; no suspect identified", "date": "2024-05"}, "persistent_id": "d4a5e209a36315551f94a4fe41d6cdef681981fb5638389af9c9858bafb5cb34", "id": 119405113, "location_subtype": "", "month": "2024-05"}, {"category": "bicycle-theft", "location_type": "Force", "location": {"latitude": "52.959177", "street": {"id": 2245911, "name": "On or near Oliver Close"}, "longitude": "-1.160852"}, "context": "", "outcome_status": {"category": "Unable to prosecute suspect", "date": "2024-06"}, "persistent_id": "04fd4e674bbd96d243592e92ed0ecc241ba05515ea6f1af832158032652692f2", "id": 119406128, "location_subtype": "", "month": "2024-05"}, {"category": "bicycle-theft", "location_type": "Force", "location": {"latitude": "52.953648", "street": {"id": 2246876, "name": "On or near Long Row"}, "longitude": "-1.149438"}, "context": "", "outcome_status": {"category": "Investigation complete; no suspect identified", "date": "2024-06"}, "persistent_id": "5ba458367f1dc716a2e953ea864844f81d68685f7faf8db762b9f1884bb1b7ce", "id": 119401765, "location_subtype": "", "month": "2024-05"}, {"category": "bicycle-theft", "location_type": "Force", "location": {"latitude": "52.967553", "street": {"id": 2246192, "name": "On or near Parking Area"}, "longitude": "-1.156773"}, "context": "", "outcome_status": {"category": "Investigation complete; no suspect identified", "date": "2024-05"}, "persistent_id": "fb13edd93e88c84868df56d549ac0a7d8f8511325bd077db26caa32cf5991d6c", "id": 119406026, "location_subtype": "", "month": "2024-05"}, {"category": "bicycle-theft", "location_type": "Force", "location": {"latitude": "52.954374", "street": {"id": 2246431, "name": "On or near Theme/adventure Park"}, "longitude": "-1.154231"}, "context": "", "outcome_status": {"category": "Investigation complete; no suspect identified", "date": "2024-07"}, "persistent_id": "a498ea4595ce54c71ac003fd7577fea5c592c791fb7448ea8e0706a73eada2f9", "id": 119401335, "location_subtype": "", "month": "2024-05"}, {"category": "bicycle-theft", "location_type": "Force", "location": {"latitude": "52.953625", "street": {"id": 2247148, "name": "On or near Pelham Street"}, "longitude": "-1.146238"}, "context": "", "outcome_status": {"category": "Investigation complete; no suspect identified", "date": "2024-06"}, "persistent_id": "349a7fa68de03fa1b9f695fc45e147b4e2115fdcf4eedd0086f80f14d2876b96", "id": 119405111, "location_subtype": "", "month": "2024-05"}, {"category": "bicycle-theft", "location_type": "Force", "location": {"latitude": "52.946449", "street": {"id": 2245763, "name": "On or near Supermarket"}, "longitude": "-1.162363"}, "context": "", "outcome_status": {"category": "Investigation complete; no suspect identified", "date": "2024-05"}, "persistent_id": "f0a1f747b21fb40432b59aa007d00ac8ef46367883c609d6214d2301ab7e2d0f", "id": 119404405, "location_subtype": "", "month": "2024-05"}, {"category": "bicycle-theft", "location_type": "Force", "location": {"latitude": "52.954716", "street": {"id": 2247760, "name": "On or near Longden Street"}, "longitude": "-1.136720"}, "context": "", "outcome_status": {"category": "Investigation complete; no suspect identified", "date": "2024-06"}, "persistent_id": "f7cfc4bfbdd1fce27b53523c3fcbe4cba34d7bea45f773fb01f07be30e05959c", "id": 119404388, "location_subtype": "", "month": "2024-05"}, {"category": "bicycle-theft", "location_type": "Force", "location": {"latitude": "52.949774", "street": {"id": 2247243, "name": "On or near Rancliffe Street"}, "longitude": "-1.144557"}, "context": "", "outcome_status": {"category": "Investigation complete; no suspect identified", "date": "2024-05"}, "persistent_id": "8a72c9f9d70e601bd6283fe87e57d8a311cd521f42e42d966ac2a686bfc92c9d", "id": 119404202, "location_subtype": "", "month": "2024-05"}, {"category": "bicycle-theft", "location_type": "Force", "location": {"latitude": "52.949646", "street": {"id": 2247017, "name": "On or near Collin Street"}, "longitude": "-1.147938"}, "context": "", "outcome_status": {"category": "Investigation complete; no suspect identified", "date": "2024-06"}, "persistent_id": "13ca80b4bb00b5feaeb45ee6c745a15e0b890ba347ee08404c781d7aa28ff663", "id": 119403791, "location_subtype": "", "month": "2024-05"}, {"category": "bicycle-theft", "location_type": "Force", "location": {"latitude": "52.953680", "street": {"id": 2247565, "name": "On or near Hockley"}, "longitude": "-1.140193"}, "context": "", "outcome_status": {"category": "Investigation complete; no suspect identified", "date": "2024-05"}, "persistent_id": "7b708644ab416d30a028d0da138d7e43497c92515d31bfed16e3193f93fdbb3d", "id": 119404547, "location_subtype": "", "month": "2024-05"}, {"category": "bicycle-theft", "location_type": "Force", "location": {"latitude": "52.949646", "street": {"id": 2247017, "name": "On or near Collin Street"}, "longitude": "-1.147938"}, "context": "", "outcome_status": {"category": "Investigation complete; no suspect identified", "date": "2024-05"}, "persistent_id": "24d058cfc2e3e666d2971a57ebcc8074a67fe61c83a635b28d653243ab9fa1cb", "id": 119400447, "location_subtype": "", "month": "2024-05"}, {"category": "burglary", "location_type": "Force", "location": {"latitude": "52.956575", "street": {"id": 2247197, "name": "On or near Rick Street"}, "longitude": "-1.145123"}, "context": "", "outcome_status": {"category": "Court result unavailable", "date": "2024-11"}, "persistent_id": "cade4a7a2d7db632b1796993991e0e9bf8b8a336815aaf4c915d7672a8b455cd", "id": 119398205, "location_subtype": "", "month": "2024-05"}, {"category": "burglary", "location_type": "Force", "location": {"latitude": "52.951012", "street": {"id": 2245024, "name": "On or near Newgate Street"}, "longitude": "-1.173319"}, "context": "", "outcome_status": {"category": "Investigation complete; no suspect identified", "date": "2024-05"}, "persistent_id": "82b5ee9abe47503bcfabf3ed23dee776322afebac20972d95405961fee2e3980", "id": 119405106, "location_subtype": "", "month": "2024-05"}, {"category": "burglary", "location_type": "Force", "location": {"latitude": "52.951582", "street": {"id": 2246408, "name": "On or near St James's Terrace"}, "longitude": "-1.154673"}, "context": "", "outcome_status": {"category": "Investigation complete; no suspect identified", "date": "2024-08"}, "persistent_id": "065211144f95fc97e7a469aeac80f37ebc1a842d8f13c8d36ce52b55fccee255", "id": 119405560, "location_subtype": "", "month": "2024-05"}, {"category": "burglary", "location_type": "Force", "location": {"latitude": "52.955035", "street": {"id": 2245851, "name": "On or near Newcastle Terrace"}, "longitude": "-1.162510"}, "context": "", "outcome_status": {"category": "Investigation complete; no suspect identified", "date": "2024-05"}, "persistent_id": "9a6c044036e039737096b033e2f3a15dc0c88ad755551c3cddfd2b91d96c5379", "id": 119402736, "location_subtype": "", "month": "2024-05"}, {"category": "burglary", "location_type": "Force", "location": {"latitude": "52.963137", "street": {"id": 2247551, "name": "On or near Church Road"}, "longitude": "-1.140140"}, "context": "", "outcome_status": {"category": "Investigation complete; no suspect identified", "date": "2024-08"}, "persistent_id": "d79164cdc93652fb3bfcc65b53c5b89ad9e75e64f3027dfaf548a26479a88b51", "id": 119405513, "location_subtype": "", "month": "2024-05"}, {"category": "burglary", "location_type": "Force", "location": {"latitude": "52.953221", "street": {"id": 2246169, "name": "On or near Oxford Street"}, "longitude": "-1.157648"}, "context": "", "outcome_status": {"category": "Investigation complete; no suspect identified", "date": "2024-07"}, "persistent_id": "1e20523f15032f120a92f3720a143bb439f7e9301960ff2752b990f846521a01", "id": 119402763, "location_subtype": "", "month": "2024-05"}, {"category": "burglary", "location_type": "Force", "location": {"latitude": "52.951894", "street": {"id": 2246676, "name": "On or near Spaniel Row"}, "longitude": "-1.151749"}, "context": "", "outcome_status": {"category": "Investigation complete; no suspect identified", "date": "2024-07"}, "persistent_id": "1b7e004791084daad1f5366320b415058a95f46ddab27329d64719635e98e0c3", "id": 119405885, "location_subtype": "", "month": "2024-05"}, {"category": "burglary", "location_type": "Force", "location": {"latitude": "52.958122", "street": {"id": 2246223, "name": "On or near Waverley Terrace"}, "longitude": "-1.156659"}, "context": "", "outcome_status": {"category": "Investigation complete; no suspect identified", "date": "2024-06"}, "persistent_id": "e2186393cad865bfc0f0c242fe533e60abe3375790e5e851ad6a18cf231165a1", "id": 119404760, "location_subtype": "", "month": "2024-05"}, {"category": "burglary", "location_type": "Force", "location": {"latitude": "52.953599", "street": {"id": 2247337, "name": "On or near Carlton Street"}, "longitude": "-1.143842"}, "context": "", "outcome_status": {"category": "Investigation complete; no suspect identified", "date": "2024-05"}, "persistent_id": "9bb1a4f220af17b0e39aa0b368d7fa652bfb33e272ac448bd2cfbbb06a8b2af0", "id": 119398103, "location_subtype": "", "month": "2024-05"}, {"category": "burglary", "location_type": "Force", "location": {"latitude": "52.954489", "street": {"id": 2247142, "name": "On or near Lincoln Street"}, "longitude": "-1.146414"}, "context": "", "outcome_status": {"category": "Awaiting court outcome", "date": "2024-11"}, "persistent_id": "db9f67d4dfaf84bf7b4003845e8e497cf51c2c380b7371673c3f63b1610c1798", "id": 119400375, "location_subtype": "", "month": "2024-05"}, {"category": "burglary", "location_type": "Force", "location": {"latitude": "52.953648", "street": {"id": 2246876, "name": "On or near Long Row"}, "longitude": "-1.149438"}, "context": "", "outcome_status": {"category": "Investigation complete; no suspect identified", "date": "2024-08"}, "persistent_id": "6718c24a3a382a96e060fba66653c12e77bdf9c7586f6f3f79164bf1363781b4", "id": 119405887, "location_subtype": "", "month": "2024-05"}, {"category": "burglary", "location_type": "Force", "location": {"latitude": "52.939736", "street": {"id": 2246314, "name": "On or near Osman Close"}, "longitude": "-1.156243"}, "context": "", "outcome_status": {"category": "Court result unavailable", "date": "2024-12"}, "persistent_id": "041369fa1b7a94c6bb9ca4cc67bd77e462602e5caba89163a3a9315e1fb11e97", "id": 119405159, "location_subtype": "", "month": "2024-05"}, {"category": "burglary", "location_type": "Force", "location": {"latitude": "52.946297", "street": {"id": 2245574, "name": "On or near Castle Quay Close"}, "longitude": "-1.165015"}, "context": "", "outcome_status": {"category": "Investigation complete; no suspect identified", "date": "2024-06"}, "persistent_id": "6a2f79b0258a9f24241d589b8177979d800f4af61f3eb521060d6c19dffe098b", "id": 119404757, "location_subtype": "", "month": "2024-05"}, {"category": "burglary", "location_type": "Force", "location": {"latitude": "52.951797", "street": {"id": 2246928, "name": "On or near Shopping Area"}, "longitude": "-1.148313"}, "context": "", "outcome_status": {"category": "Investigation complete; no suspect identified", "date": "2024-05"}, "persistent_id": "051bbc1466092fff1cbaa8a1bd439dbbec86a6a33e3a622e22b634cc9d79df01", "id": 119404606, "location_subtype": "", "month": "2024-05"}, {"category": "burglary", "location_type": "Force", "location": {"latitude": "52.951567", "street": {"id": 2246610, "name": "On or near Maid Marian Way"}, "longitude": "-1.152574"}, "context": "", "outcome_status": {"category": "Unable to prosecute suspect", "date": "2024-06"}, "persistent_id": "088b34e5364c82db651a8c4e5ea897e496036c3d342bf74af2df30922c416b5a", "id": 119402436, "location_subtype": "", "month": "2024-05"}, {"category": "burglary", "location_type": "Force", "location": {"latitude": "52.953688", "street": {"id": 2247042, "name": "On or near High Street"}, "longitude": "-1.147502"}, "context": "", "outcome_status": {"category": "Investigation complete; no suspect identified", "date": "2024-08"}, "persistent_id": "8b0b740b1a6b1d2ee1f71493f0d4802816eaa3ae95cdbb9745084593ac618b4c", "id": 119405617, "location_subtype": "", "month": "2024-05"}, {"category": "burglary", "location_type": "Force", "location": {"latitude": "52.958702", "street": {"id": 2245530, "name": "On or near Thoroton Street"}, "longitude": "-1.166160"}, "context": "", "outcome_status": {"category": "Investigation complete; no suspect identified", "date": "2024-06"}, "persistent_id": "5cc82273ebdb0e7cb2f546c22f0cfaea7eff3437515bb42695a3f3b60c70bb14", "id": 119405515, "location_subtype": "", "month": "2024-05"}, {"category": "burglary", "location_type": "Force", "location": {"latitude": "52.939736", "street": {"id": 2246314, "name": "On or near Osman Close"}, "longitude": "-1.156243"}, "context": "", "outcome_status": {"category": "Investigation complete; no suspect identified", "date": "2024-06"}, "persistent_id": "f12b46e0f09db8e29cf6653d7466c5472d9da0736c460af35cbacb0b6388a2fa", "id": 119401982, "location_subtype": "", "month": "2024-05"}, {"category": "burglary", "location_type": "Force", "location": {"latitude": "52.951788", "street": {"id": 2247378, "name": "On or near Broadway"}, "longitude": "-1.143357"}, "context": "", "outcome_status": {"category": "Investigation complete; no suspect identified", "date": "2024-05"}, "persistent_id": "51d60479c0024c75938c7c127ebf8cfa10cdf1aea6f31e1584a1440af60f1cad", "id": 119398532, "location_subtype": "", "month": "2024-05"}, {"category": "burglary", "location_type": "Force", "location": {"latitude": "52.951797", "street": {"id": 2246928, "name": "On or near Shopping Area"}, "longitude": "-1.148313"}, "context": "", "outcome_status": {"category": "Investigation complete; no suspect identified", "date": "2024-05"}, "persistent_id": "b5fd3d42e0df4bb64f8a0e516b8c4650866b51b1b5d67427d19ee01b2aa21c82", "id": 119406661, "location_subtype": "", "month": "2024-05"}, {"category": "burglary", "location_type": "Force", "location": {"latitude": "52.945307", "street": {"id": 2247205, "name": "On or near Newthorpe Street"}, "longitude": "-1.144646"}, "context": "", "outcome_status": {"category": "Investigation complete; no suspect identified", "date": "2024-07"}, "persistent_id": "1e2b7522863455b42a54f9ed56902709bb7c6969ae4a2d1de12df0163abcddde", "id": 119400754, "location_subtype": "", "month": "2024-05"}, {"category": "burglary", "location_type": "Force", "location": {"latitude": "52.956104", "street": {"id": 2246459, "name": "On or near Stanley Place"}, "longitude": "-1.154689"}, "context": "", "outcome_status": {"category": "Court result unavailable", "date": "2025-01"}, "persistent_id": "fe1df64e3f9111f5a1c5a60f0e3ebe156e051cec75910acd6431db02c5581edb", "id": 119398375, "location_subtype": "", "month": "2024-05"}, {"category": "burglary", "location_type": "Force", "location": {"latitude": "52.955247", "street": {"id": 2246275, "name": "On or near Vernon Street"}, "longitude": "-1.156819"}, "context": "", "outcome_status": {"category": "Investigation complete; no suspect identified", "date": "2024-05"}, "persistent_id": "abc3264c6006441042946e32d069e92e5cd7fa295c79684aeba0c774b113c1d5", "id": 119399979, "location_subtype": "", "month": "2024-05"}, {"category": "burglary", "location_type": "Force", "location": {"latitude": "52.941363", "street": {"id": 2247521, "name": "On or near Ladysmock Gardens"}, "longitude": "-1.141211"}, "context": "", "outcome_status": {"category": "Investigation complete; no suspect identified", "date": "2024-07"}, "persistent_id": "8b084b4600b088c8893a96a70321487c2c2c47b94e501cafac6e51fc67eb35c0", "id": 119402507, "location_subtype": "", "month": "2024-05"}, {"category": "burglary", "location_type": "Force", "location": {"latitude": "52.960545", "street": {"id": 2247066, "name": "On or near Palmerston Gardens"}, "longitude": "-1.145982"}, "context": "", "outcome_status": {"category": "Investigation complete; no suspect identified", "date": "2024-05"}, "persistent_id": "0a3f0a0787d5d6a7d3b22620fbf8d90e06717e227dc04698fa906948a8c13d90", "id": 119399213, "location_subtype": "", "month": "2024-05"}, {"category": "burglary", "location_type": "Force", "location": {"latitude": "52.954355", "street": {"id": 2247178, "name": "On or near George Street"}, "longitude": "-1.145167"}, "context": "", "outcome_status": {"category": "Court result unavailable", "date": "2024-12"}, "persistent_id": "93aa519cca882a0510082ebb397a300e453e22434d6f23a867e877ecc4960079", "id": 119406005, "location_subtype": "", "month": "2024-05"}, {"category": "burglary", "location_type": "Force", "location": {"latitude": "52.959611", "street": {"id": 2245454, "name": "On or near Sunbourne Court"}, "longitude": "-1.167632"}, "context": "", "outcome_status": {"category": "Investigation complete; no suspect identified", "date": "2024-05"}, "persistent_id": "2ff1c528749bdbd5623bf5039f4b244112b61997222b5afe19fce492be4e51c8", "id": 119405646, "location_subtype": "", "month": "2024-05"}, {"category": "burglary", "location_type": "Force", "location": {"latitude": "52.947981", "street": {"id": 2246953, "name": "On or near Carrington Street"}, "longitude": "-1.147614"}, "context": "", "outcome_status": {"category": "Unable to prosecute suspect", "date": "2024-07"}, "persistent_id": "d539e2bb0b54b44fa24c26767eb6c54a402eb71c65b0e2cdc396beb84f23c842", "id": 119405911, "location_subtype": "", "month": "2024-05"}, {"category": "burglary", "location_type": "Force", "location": {"latitude": "52.951012", "street": {"id": 2245024, "name": "On or near Newgate Street"}, "longitude": "-1.173319"}, "context": "", "outcome_status": {"category": "Investigation complete; no suspect identified", "date": "2024-05"}, "persistent_id": "0585c3f171db34174d42c2b1e491045a80c31111cf0d3d2628ac4f64501feb7a", "id": 119405347, "location_subtype": "", "month": "2024-05"}, {"category": "burglary", "location_type": "Force", "location": {"latitude": "52.956575", "street": {"id": 2247197, "name": "On or near Rick Street"}, "longitude": "-1.145123"}, "context": "", "outcome_status": {"category": "Investigation complete; no suspect identified", "date": "2024-05"}, "persistent_id": "c54d76d10e8d84591fee3e09742cc6d7da50d0977d7c1b73e6f34d7c0174a84f", "id": 119399575, "location_subtype": "", "month": "2024-05"}, {"category": "burglary", "location_type": "Force", "location": {"latitude": "52.952001", "street": {"id": 2247281, "name": "On or near St Mary's Gate"}, "longitude": "-1.144201"}, "context": "", "outcome_status": {"category": "Unable to prosecute suspect", "date": "2024-06"}, "persistent_id": "fe8a97ad0496496fd1e16dab0449bb1bab538b975c2230313754db72a22e9846", "id": 119400605, "location_subtype": "", "month": "2024-05"}, {"category": "burglary", "location_type": "Force", "location": {"latitude": "52.954476", "street": {"id": 2245191, "name": "On or near Kimbolton Avenue"}, "longitude": "-1.171243"}, "context": "", "outcome_status": {"category": "Investigation complete; no suspect identified", "date": "2024-05"}, "persistent_id": "82ebac63160b855a32235394cd5a40e9059a13b1642567379f2cceb35c0238a3", "id": 119405804, "location_subtype": "", "month": "2024-05"}, {"category": "burglary", "location_type": "Force", "location": {"latitude": "52.949975", "street": {"id": 2245386, "name": "On or near Harrington Drive"}, "longitude": "-1.169097"}, "context": "", "outcome_status": {"category": "Investigation complete; no suspect identified", "date": "2024-06"}, "persistent_id": "89f5e9b286a8be3fe45c4c45a4fec9658781ea7e522292813b7b4c1813f22f75", "id": 119401267, "location_subtype": "", "month": "2024-05"}, {"category": "burglary", "location_type": "Force", "location": {"latitude": "52.958523", "street": {"id": 2248111, "name": "On or near Magson Close"}, "longitude": "-1.131180"}, "context": "", "outcome_status": {"category": "Awaiting court outcome", "date": "2024-10"}, "persistent_id": "ef24228b900ae0713eb62ef7e7912a0b0c9abc8d62dff4d3a92146a2bd5e5015", "id": 119398242, "location_subtype": "", "month": "2024-05"}, {"category": "burglary", "location_type": "Force", "location": {"latitude": "52.960515", "street": {"id": 2247386, "name": "On or near Dane Close"}, "longitude": "-1.142991"}, "context": "", "outcome_status": {"category": "Investigation complete; no suspect identified", "date": "2024-05"}, "persistent_id": "6f34266141256d5b13e1f1c884c36a78162d1be05ab61f474f4f3765aea40d03", "id": 119400391, "location_subtype": "", "month": "2024-05"}, {"category": "burglary", "location_type": "Force", "location": {"latitude": "52.946297", "street": {"id": 2245574, "name": "On or near Castle Quay Close"}, "longitude": "-1.165015"}, "context": "", "outcome_status": {"category": "Investigation complete; no suspect identified", "date": "2024-05"}, "persistent_id": "bb93278c23e399e15822536f2aa192890fb4ca6a08d03a958195962427b27068", "id": 119406163, "location_subtype": "", "month": "2024-05"}, {"category": "burglary", "location_type": "Force", "location": {"latitude": "52.954501", "street": {"id": 2246940, "name": "On or near Maypole Yard"}, "longitude": "-1.148096"}, "context": "", "outcome_status": {"category": "Investigation complete; no suspect identified", "date": "2024-05"}, "persistent_id": "41c040f681ac2c736ad56b5d7b7e6cea5891fa3da1be1c1cfb4308a3baed08ba", "id": 119398638, "location_subtype": "", "month": "2024-05"}, {"category": "burglary", "location_type": "Force", "location": {"latitude": "52.953599", "street": {"id": 2247337, "name": "On or near Carlton Street"}, "longitude": "-1.143842"}, "context": "", "outcome_status": {"category": "Court result unavailable", "date": "2025-02"}, "persistent_id": "867477c8d7182b563a0af45e56fbc459569b3f9789cbcf6cf66bad5e6be1c109", "id": 119401541, "location_subtype": "", "month": "2024-05"}, {"category": "burglary", "location_type": "Force", "location": {"latitude": "52.942548", "street": {"id": 2246251, "name": "On or near Beardsley Gardens"}, "longitude": "-1.157230"}, "context": "", "outcome_status": {"category": "Further investigation is not in the public interest", "date": "2024-06"}, "persistent_id": "8d9f7a2f626c2bc9bfa04531f68278e561f20d3c66f749443a7543cf6d44cdab", "id": 119400569, "location_subtype": "", "month": "2024-05"}, {"category": "burglary", "location_type": "Force", "location": {"latitude": "52.959092", "street": {"id": 2247599, "name": "On or near Ritson Close"}, "longitude": "-1.140131"}, "context": "", "outcome_status": {"category": "Investigation complete; no suspect identified", "date": "2024-06"}, "persistent_id": "e44a538a8dc891ba78e31f18d75d762ac2672c5fdad899be25237c68466bdfc1", "id": 119405774, "location_subtype": "", "month": "2024-05"}, {"category": "burglary", "location_type": "Force", "location": {"latitude": "52.955435", "street": {"id": 2245576, "name": "On or near Wellington Square"}, "longitude": "-1.165613"}, "context": "", "outcome_status": {"category": "Unable to prosecute suspect", "date": "2024-05"}, "persistent_id": "8f3dcc7877978902749d2b2ef5a0d933128f11dc084309529ec9911d5c8b3a7d", "id": 119404790, "location_subtype": "", "month": "2024-05"}, {"category": "burglary", "location_type": "Force", "location": {"latitude": "52.959616", "street": {"id": 2247757, "name": "On or near Kelvedon Gardens"}, "longitude": "-1.136860"}, "context": "", "outcome_status": {"category": "Investigation complete; no suspect identified", "date": "2024-05"}, "persistent_id": "f76ba9af44f3600649315598b8e115f667c060516356ba5ff4549aa047b55a00", "id": 119402406, "location_subtype": "", "month": "2024-05"}, {"category": "burglary", "location_type": "Force", "location": {"latitude": "52.947981", "street": {"id": 2246953, "name": "On or near Carrington Street"}, "longitude": "-1.147614"}, "context": "", "outcome_status": {"category": "Investigation complete; no suspect identified", "date": "2024-06"}, "persistent_id": "89d8e5756512db1db09679c9d38373854a494e5f22ef02d28aba557a6413dc9b", "id": 119403867, "location_subtype": "", "month": "2024-05"}, {"category": "criminal-damage-arson", "location_type": "Force", "location": {"latitude": "52.941876", "street": {"id": 2247313, "name": "On or near Kirkby Gardens"}, "longitude": "-1.143746"}, "context": "", "outcome_status": {"category": "Investigation complete; no suspect identified", "date": "2024-05"}, "persistent_id": "338ae1ccc022621ef823a9f84492540c07ab74c5ac0b46dbaaa2cbbff1276afd", "id": 119403140, "location_subtype": "", "month": "2024-05"}, {"category": "criminal-damage-arson", "location_type": "Force", "location": {"latitude": "52.961195", "street": {"id": 2245539, "name": "On or near Forest Road West"}, "longitude": "-1.165338"}, "context": "", "outcome_status": {"category": "Investigation complete; no suspect identified", "date": "2024-05"}, "persistent_id": "24ecae41fe0848c02b3a8e2d7421ddb3ceb4f2d3be2c49ca2077a6cb930d563b", "id": 119399054, "location_subtype": "", "month": "2024-05"}, {"category": "criminal-damage-arson", "location_type": "Force", "location": {"latitude": "52.952312", "street": {"id": 2247367, "name": "On or near Parking Area"}, "longitude": "-1.143644"}, "context": "", "outcome_status": {"category": "Investigation complete; no suspect identified", "date": "2024-05"}, "persistent_id": "bda2f18e8802e54333dfaf22746377ecdac6ed5dc726d4886e5b336597dde761", "id": 119401872, "location_subtype": "", "month": "2024-05"}, {"category": "criminal-damage-arson", "location_type": "Force", "location": {"latitude": "52.963882", "street": {"id": 2247366, "name": "On or near Furze Gardens"}, "longitude": "-1.142418"}, "context": "", "outcome_status": {"category": "Further action is not in the public interest", "date": "2025-02"}, "persistent_id": "447d5565d6f5bae97c830a2f9588490846d577466a6ef251bcfe2cd32b926ddb", "id": 119398268, "location_subtype": "", "month": "2024-05"}, {"category": "criminal-damage-arson", "location_type": "Force", "location": {"latitude": "52.942152", "street": {"id": 2246108, "name": "On or near Saffron Gardens"}, "longitude": "-1.158547"}, "context": "", "outcome_status": {"category": "Unable to prosecute suspect", "date": "2024-05"}, "persistent_id": "a8e381996e035c305323088ad934fad17111f1745aa16730851f0993b158da0f", "id": 119400833, "location_subtype": "", "month": "2024-05"}, {"category": "criminal-damage-arson", "location_type": "Force", "location": {"latitude": "52.959842", "street": {"id": 2248044, "name": "On or near Jersey Gardens"}, "longitude": "-1.132122"}, "context": "", "outcome_status": {"category": "Unable to prosecute suspect", "date": "2024-05"}, "persistent_id": "7b0e99e253e8b293669296fe6dfcca0d5f447462a8e2b01c8f938a2bcafb7025", "id": 119399771, "location_subtype": "", "month": "2024-05"}, {"category": "criminal-damage-arson", "location_type": "Force", "location": {"latitude": "52.961934", "street": {"id": 2246534, "name": "On or near Newstead Grove"}, "longitude": "-1.152863"}, "context": "", "outcome_status": {"category": "Investigation complete; no suspect identified", "date": "2024-05"}, "persistent_id": "7a3239410a4a607bd2d026cc9a7c8c351e5bcab92688384c71ab0b368eaede64", "id": 119398176, "location_subtype": "", "month": "2024-05"}, {"category": "criminal-damage-arson", "location_type": "Force", "location": {"latitude": "52.961934", "street": {"id": 2246534, "name": "On or near Newstead Grove"}, "longitude": "-1.152863"}, "context": "", "outcome_status": {"category": "Investigation complete; no suspect identified", "date": "2024-05"}, "persistent_id": "732fe667d403cb22e284e2771d1c1251281cb0d98670c4161ed50dbcfcabb823", "id": 119398191, "location_subtype": "", "month": "2024-05"}, {"category": "criminal-damage-arson", "location_type": "Force", "location": {"latitude": "52.953648", "street": {"id": 2246876, "name": "On or near Long Row"}, "longitude": "-1.149438"}, "context": "", "outcome_status": {"category": "Unable to prosecute suspect", "date": "2024-05"}, "persistent_id": "8ca68c33a4b5c0f6f46c4e6e9764f3a575e95e54eac2659e2720a8d815929581", "id": 119401434, "location_subtype": "", "month": "2024-05"}, {"category": "criminal-damage-arson", "location_type": "Force", "location": {"latitude": "52.966805", "street": {"id": 2246509, "name": "On or near St Andrew's Road"}, "longitude": "-1.152768"}, "context": "", "outcome_status": {"category": "Court result unavailable", "date": "2024-12"}, "persistent_id": "937c19cb3ad51c86abbf3cd4ae9eb9e6690cbadd382aabfdfac33bab9e4f54d2", "id": 119405443, "location_subtype": "", "month": "2024-05"}, {"category": "criminal-damage-arson", "location_type": "Force", "location": {"latitude": "52.953479", "street": {"id": 2247838, "name": "On or near Bond Street"}, "longitude": "-1.136015"}, "context": "", "outcome_status": {"category": "Unable to prosecute suspect", "date": "2024-11"}, "persistent_id": "0eb063cb06645e54e2ac62b09111754b73331c9ef5ae06b649382bdc6d836302", "id": 119399598, "location_subtype": "", "month": "2024-05"}, {"category": "criminal-damage-arson", "location_type": "Force", "location": {"latitude": "52.952312", "street": {"id": 2247367, "name": "On or near Parking Area"}, "longitude": "-1.143644"}, "context": "", "outcome_status": {"category": "Investigation complete; no suspect identified", "date": "2024-05"}, "persistent_id": "fb2ed4c4a2c61b05db2b5a19134a2836b4d794d15a05f7ba17dc6f981906d9d3", "id": 119400515, "location_subtype": "", "month": "2024-05"}, {"category": "criminal-damage-arson", "location_type": "Force", "location": {"latitude": "52.947981", "street": {"id": 2246953, "name": "On or near Carrington Street"}, "longitude": "-1.147614"}, "context": "", "outcome_status": {"category": "Unable to prosecute suspect", "date": "2024-06"}, "persistent_id": "fd1e9f9bbc5a6909b2d4a4b3211c9a7c6bc678852c705d9aa269e70106580696", "id": 119406531, "location_subtype": "", "month": "2024-05"}, {"category": "criminal-damage-arson", "location_type": "Force", "location": {"latitude": "52.957912", "street": {"id": 2246880, "name": "On or near Peachey Street"}, "longitude": "-1.149845"}, "context": "", "outcome_status": {"category": "Unable to prosecute suspect", "date": "2024-05"}, "persistent_id": "95b61445d5a6dc27cb9afeae3f7c5b3e59c8ebf66d06dc8c4e0033562adadb89", "id": 119401219, "location_subtype": "", "month": "2024-05"}, {"category": "criminal-damage-arson", "location_type": "Force", "location": {"latitude": "52.954501", "street": {"id": 2246940, "name": "On or near Maypole Yard"}, "longitude": "-1.148096"}, "context": "", "outcome_status": {"category": "Investigation complete; no suspect identified", "date": "2024-05"}, "persistent_id": "4d34a1c59ec3850629fd1400cca0987f8abdecceb08035d9038461f5a1e738a9", "id": 119401085, "location_subtype": "", "month": "2024-05"}, {"category": "criminal-damage-arson", "location_type": "Force", "location": {"latitude": "52.958934", "street": {"id": 2248096, "name": "On or near St Matthias Road"}, "longitude": "-1.130845"}, "context": "", "outcome_status": {"category": "Investigation complete; no suspect identified", "date": "2024-05"}, "persistent_id": "ec9570924c9ac44d69514844b4322711e5b3b4888257f83d50de0f8b4a9c7a64", "id": 119404061, "location_subtype": "", "month": "2024-05"}, {"category": "criminal-damage-arson", "location_type": "Force", "location": {"latitude": "52.957573", "street": {"id": 2245743, "name": "On or near Stoneleigh Street"}, "longitude": "-1.162952"}, "context": "", "outcome_status": {"category": "Investigation complete; no suspect identified", "date": "2024-05"}, "persistent_id": "55c26bb223582af89c09a07fece0c28e8eff9814d1df6acfb529bbfb75f76866", "id": 119401028, "location_subtype": "", "month": "2024-05"}, {"category": "criminal-damage-arson", "location_type": "BTP", "location": {"latitude": "52.946560", "street": {"id": 2348074, "name": "Nottingham (station)"}, "longitude": "-1.147157"}, "context": "", "outcome_status": {"category": "Status update unavailable", "date": "2024-09"}, "persistent_id": "", "id": 126030475, "location_subtype": "STATION", "month": "2024-05"}, {"category": "criminal-damage-arson", "location_type": "Force", "location": {"latitude": "52.955724", "street": {"id": 2246560, "name": "On or near Nightclub"}, "longitude": "-1.153178"}, "context": "", "outcome_status": {"category": "Unable to prosecute suspect", "date": "2024-05"}, "persistent_id": "b1c7d8fcaf1be703c1ae748e5a71b054fa6c46a2c29558732c21019185d0ab59", "id": 119399287, "location_subtype": "", "month": "2024-05"}, {"category": "criminal-damage-arson", "location_type": "Force", "location": {"latitude": "52.947981", "street": {"id": 2246953, "name": "On or near Carrington Street"}, "longitude": "-1.147614"}, "context": "", "outcome_status": {"category": "Investigation complete; no suspect identified", "date": "2024-05"}, "persistent_id": "53e2400e7855622cb9475d5566df6ef79bfcf8a0fb2228630d991884af683f95", "id": 119405468, "location_subtype": "", "month": "2024-05"}, {"category": "criminal-damage-arson", "location_type": "Force", "location": {"latitude": "52.955069", "street": {"id": 2247071, "name": "On or near Clinton Street West"}, "longitude": "-1.147013"}, "context": "", "outcome_status": {"category": "Investigation complete; no suspect identified", "date": "2024-05"}, "persistent_id": "8842fe685b1068a681da5721a8741691cf8fbf226d01f62186eac046e09469e2", "id": 119398154, "location_subtype": "", "month": "2024-05"}, {"category": "criminal-damage-arson", "location_type": "Force", "location": {"latitude": "52.953479", "street": {"id": 2247838, "name": "On or near Bond Street"}, "longitude": "-1.136015"}, "context": "", "outcome_status": {"category": "Investigation complete; no suspect identified", "date": "2024-05"}, "persistent_id": "5f3717a60d0158f1e220419b9a5e8135eece40e3fa90b2373628ac5f1b40d378", "id": 119402843, "location_subtype": "", "month": "2024-05"}, {"category": "criminal-damage-arson", "location_type": "Force", "location": {"latitude": "52.951898", "street": {"id": 2246646, "name": "On or near Friar Lane"}, "longitude": "-1.152345"}, "context": "", "outcome_status": {"category": "Local resolution", "date": "2024-06"}, "persistent_id": "935ec8ac85cfec66ba6bcaf24c2140ea493daace927e7c4ad3239bd73409e31b", "id": 119403519, "location_subtype": "", "month": "2024-05"}, {"category": "criminal-damage-arson", "location_type": "Force", "location": {"latitude": "52.954733", "street": {"id": 2246846, "name": "On or near Queen Street"}, "longitude": "-1.150250"}, "context": "", "outcome_status": {"category": "Investigation complete; no suspect identified", "date": "2024-05"}, "persistent_id": "a8d98b947354a6736792771fd74cb4e65234f86f2843b484ff3bf19797d5d5c1", "id": 119398410, "location_subtype": "", "month": "2024-05"}, {"category": "criminal-damage-arson", "location_type": "Force", "location": {"latitude": "52.947933", "street": {"id": 2245163, "name": "On or near Willoughby Street"}, "longitude": "-1.171368"}, "context": "", "outcome_status": {"category": "Investigation complete; no suspect identified", "date": "2024-05"}, "persistent_id": "804adff6da89cebb025108fef97b05abe891652c2166664a401e32d4cc027eb4", "id": 119398429, "location_subtype": "", "month": "2024-05"}, {"category": "criminal-damage-arson", "location_type": "Force", "location": {"latitude": "52.952312", "street": {"id": 2247367, "name": "On or near Parking Area"}, "longitude": "-1.143644"}, "context": "", "outcome_status": {"category": "Investigation complete; no suspect identified", "date": "2024-06"}, "persistent_id": "88a63fd6ed7d238e1ec5775c91bd82b1b3334ac8ddff99f0cb02adec0b10ef09", "id": 119400484, "location_subtype": "", "month": "2024-05"}, {"category": "criminal-damage-arson", "location_type": "Force", "location": {"latitude": "52.951463", "street": {"id": 2248122, "name": "On or near Perlethorpe Avenue"}, "longitude": "-1.130726"}, "context": "", "outcome_status": {"category": "Investigation complete; no suspect identified", "date": "2024-05"}, "persistent_id": "3122121179bee9ade35752e5914c0d6542ce6046bb391daace945a0d5810fe29", "id": 119404356, "location_subtype": "", "month": "2024-05"}, {"category": "criminal-damage-arson", "location_type": "Force", "location": {"latitude": "52.963981", "street": {"id": 2247132, "name": "On or near Cardigan Close"}, "longitude": "-1.146227"}, "context": "", "outcome_status": {"category": "Unable to prosecute suspect", "date": "2024-11"}, "persistent_id": "56bd066f29cdd4aa12375e335a26f50f52e3f8428d7bffa55c792724ba32c549", "id": 119406743, "location_subtype": "", "month": "2024-05"}, {"category": "criminal-damage-arson", "location_type": "Force", "location": {"latitude": "52.949357", "street": {"id": 2248146, "name": "On or near Lees Hill Street"}, "longitude": "-1.130367"}, "context": "", "outcome_status": {"category": "Investigation complete; no suspect identified", "date": "2024-05"}, "persistent_id": "110057ffd5fe3788107c98a60362366b18de87e07bce9d12f6eac5d59f477aeb", "id": 119399498, "location_subtype": "", "month": "2024-05"}, {"category": "criminal-damage-arson", "location_type": "Force", "location": {"latitude": "52.939736", "street": {"id": 2246314, "name": "On or near Osman Close"}, "longitude": "-1.156243"}, "context": "", "outcome_status": {"category": "Investigation complete; no suspect identified", "date": "2024-05"}, "persistent_id": "05fdc8bb53fee41b0542fc0f336040816d263958cb0c494fa6244e5f3f1654f0", "id": 119399957, "location_subtype": "", "month": "2024-05"}, {"category": "criminal-damage-arson", "location_type": "Force", "location": {"latitude": "52.955282", "street": {"id": 2245891, "name": "On or near Cottage Terrace"}, "longitude": "-1.160555"}, "context": "", "outcome_status": {"category": "Investigation complete; no suspect identified", "date": "2024-05"}, "persistent_id": "9a214e1e2fbe3f43218a65ca3e26e2385761c75df2a58727aaaa7bc23027ad0e", "id": 119399919, "location_subtype": "", "month": "2024-05"}, {"category": "criminal-damage-arson", "location_type": "Force", "location": {"latitude": "52.961934", "street": {"id": 2246534, "name": "On or near Newstead Grove"}, "longitude": "-1.152863"}, "context": "", "outcome_status": {"category": "Investigation complete; no suspect identified", "date": "2024-05"}, "persistent_id": "fae8e5085cf5d2782c573e82d1ec00d4473ff7686ec964d1b63b17999ca0aba2", "id": 119404348, "location_subtype": "", "month": "2024-05"}, {"category": "criminal-damage-arson", "location_type": "Force", "location": {"latitude": "52.957204", "street": {"id": 2247316, "name": "On or near Curzon Place"}, "longitude": "-1.143860"}, "context": "", "outcome_status": {"category": "Investigation complete; no suspect identified", "date": "2024-05"}, "persistent_id": "7526f9222e4939d2a0aae0f03d2ba61c25d20b9c2570fb5484f0f88f2bf01126", "id": 119399950, "location_subtype": "", "month": "2024-05"}, {"category": "criminal-damage-arson", "location_type": "Force", "location": {"latitude": "52.961600", "street": {"id": 2245745, "name": "On or near Gedling Grove"}, "longitude": "-1.162815"}, "context": "", "outcome_status": {"category": "Court result unavailable", "date": "2024-12"}, "persistent_id": "cdd5436891a5ebeaedeb1c5f78b164d14d4ecf6e93e8713f1d18d6798f0aafe2", "id": 119405519, "location_subtype": "", "month": "2024-05"}, {"category": "criminal-damage-arson", "location_type": "Force", "location": {"latitude": "52.957182", "street": {"id": 2246809, "name": "On or near Police Station"}, "longitude": "-1.150154"}, "context": "", "outcome_status": {"category": "Investigation complete; no suspect identified", "date": "2024-06"}, "persistent_id": "bdd6798c0b310360dfabd5f89154bc804db90a0d47d2da35bf6fbbc3df5e2a16", "id": 119405751, "location_subtype": "", "month": "2024-05"}, {"category": "criminal-damage-arson", "location_type": "Force", "location": {"latitude": "52.954501", "street": {"id": 2246940, "name": "On or near Maypole Yard"}, "longitude": "-1.148096"}, "context": "", "outcome_status": {"category": "Investigation complete; no suspect identified", "date": "2024-06"}, "persistent_id": "a809c42beb99c51992eb97f3468cbacd64954fa70e7eaac3eb2d343e1d7e7cad", "id": 119404805, "location_subtype": "", "month": "2024-05"}, {"category": "criminal-damage-arson", "location_type": "Force", "location": {"latitude": "52.960776", "street": {"id": 2246790, "name": "On or near Nightclub"}, "longitude": "-1.150533"}, "context": "", "outcome_status": {"category": "Investigation complete; no suspect identified", "date": "2024-05"}, "persistent_id": "0886401c21f36a34bcf1852fbb66850bfd46d043aa8fd37644f6743d36151d0b", "id": 119402842, "location_subtype": "", "month": "2024-05"}, {"category": "criminal-damage-arson", "location_type": "Force", "location": {"latitude": "52.953648", "street": {"id": 2246876, "name": "On or near Long Row"}, "longitude": "-1.149438"}, "context": "", "outcome_status": {"category": "Investigation complete; no suspect identified", "date": "2024-06"}, "persistent_id": "19479c5a4284026ce26c53f39c27b2135b6b57e466c7361688b0a5e9a547029d", "id": 119405880, "location_subtype": "", "month": "2024-05"}, {"category": "criminal-damage-arson", "location_type": "Force", "location": {"latitude": "52.950793", "street": {"id": 2246851, "name": "On or near Stanford Street"}, "longitude": "-1.149896"}, "context": "", "outcome_status": {"category": "Investigation complete; no suspect identified", "date": "2024-05"}, "persistent_id": "45d793c3efe0b2a205048c7b2bcc1a92d9c7597652dc19a04c310d0cf2512d0b", "id": 119404833, "location_subtype": "", "month": "2024-05"}, {"category": "criminal-damage-arson", "location_type": "Force", "location": {"latitude": "52.959842", "street": {"id": 2248044, "name": "On or near Jersey Gardens"}, "longitude": "-1.132122"}, "context": "", "outcome_status": {"category": "Local resolution", "date": "2024-08"}, "persistent_id": "7cd7cc67c93808944f5a5d8fd8a50c51b6d3fe896b960d904839fdfa6704907c", "id": 119403996, "location_subtype": "", "month": "2024-05"}, {"category": "criminal-damage-arson", "location_type": "Force", "location": {"latitude": "52.951582", "street": {"id": 2246408, "name": "On or near St James's Terrace"}, "longitude": "-1.154673"}, "context": "", "outcome_status": {"category": "Investigation complete; no suspect identified", "date": "2024-05"}, "persistent_id": "c61b05666e3bff308ddb01f25bb5eccf48e3d99720637ac897de7c34d7cbd511", "id": 119403979, "location_subtype": "", "month": "2024-05"}, {"category": "criminal-damage-arson", "location_type": "Force", "location": {"latitude": "52.949774", "street": {"id": 2247243, "name": "On or near Rancliffe Street"}, "longitude": "-1.144557"}, "context": "", "outcome_status": {"category": "Local resolution", "date": "2024-07"}, "persistent_id": "bfcd95ef5f33af05b30c4e6486e090f604fb642309d20d1bb9a3501c749db3d1", "id": 119402687, "location_subtype": "", "month": "2024-05"}, {"category": "criminal-damage-arson", "location_type": "Force", "location": {"latitude": "52.954374", "street": {"id": 2246431, "name": "On or near Theme/adventure Park"}, "longitude": "-1.154231"}, "context": "", "outcome_status": {"category": "Investigation complete; no suspect identified", "date": "2024-06"}, "persistent_id": "1884165bff0ad6d537ef92427a4c1a8d5c793d2070f2fa6e0de49166d9ab5cbb", "id": 119403950, "location_subtype": "", "month": "2024-05"}, {"category": "criminal-damage-arson", "location_type": "Force", "location": {"latitude": "52.940721", "street": {"id": 2246371, "name": "On or near Meredith Close"}, "longitude": "-1.155703"}, "context": "", "outcome_status": {"category": "Local resolution", "date": "2024-06"}, "persistent_id": "7375f0d5f1520f7a180a2e6a71ae5bc3081f89a97acd19bd187a73fc1728e129", "id": 119403905, "location_subtype": "", "month": "2024-05"}, {"category": "criminal-damage-arson", "location_type": "Force", "location": {"latitude": "52.963444", "street": {"id": 2245492, "name": "On or near Weston Avenue"}, "longitude": "-1.166873"}, "context": "", "outcome_status": {"category": "Investigation complete; no suspect identified", "date": "2024-05"}, "persistent_id": "adebccd69110030bd48bdb465785fbadcfe6fa8f51a20cfb3d546987cb1c53b4", "id": 119403903, "location_subtype": "", "month": "2024-05"}, {"category": "criminal-damage-arson", "location_type": "Force", "location": {"latitude": "52.956194", "street": {"id": 2246946, "name": "On or near Milton Street"}, "longitude": "-1.148390"}, "context": "", "outcome_status": {"category": "Investigation complete; no suspect identified", "date": "2024-05"}, "persistent_id": "594cec9aee267144cff7fe6f4ea33f8c195d6d0461cb684778840a64c431324b", "id": 119404003, "location_subtype": "", "month": "2024-05"}, {"category": "criminal-damage-arson", "location_type": "Force", "location": {"latitude": "52.948286", "street": {"id": 2248007, "name": "On or near Marham Close"}, "longitude": "-1.131415"}, "context": "", "outcome_status": {"category": "Unable to prosecute suspect", "date": "2024-07"}, "persistent_id": "36b6545ed99277d9bbc7464a5f72ba951d28848d15d3cb8db2290e12308ef953", "id": 119404609, "location_subtype": "", "month": "2024-05"}, {"category": "criminal-damage-arson", "location_type": "Force", "location": {"latitude": "52.965787", "street": {"id": 2247582, "name": "On or near Heather Close"}, "longitude": "-1.139924"}, "context": "", "outcome_status": {"category": "Offender given a caution", "date": "2024-06"}, "persistent_id": "56e3a18642a55a7b5bb0cac5a18f0bba187bf9b3833b201e5d6b926ee94c063a", "id": 119406545, "location_subtype": "", "month": "2024-05"}, {"category": "criminal-damage-arson", "location_type": "Force", "location": {"latitude": "52.952312", "street": {"id": 2247367, "name": "On or near Parking Area"}, "longitude": "-1.143644"}, "context": "", "outcome_status": {"category": "Investigation complete; no suspect identified", "date": "2024-05"}, "persistent_id": "02b033fd419a719cc4785d1d32990730f8823770b06f678b814e661dae289fde", "id": 119403591, "location_subtype": "", "month": "2024-05"}, {"category": "criminal-damage-arson", "location_type": "Force", "location": {"latitude": "52.956646", "street": {"id": 2246704, "name": "On or near South Sherwood Street"}, "longitude": "-1.151254"}, "context": "", "outcome_status": {"category": "Investigation complete; no suspect identified", "date": "2024-05"}, "persistent_id": "63fc7d4785a4af980cd02edb364f791ed19c25f1d157433e8400b7d0200f99c4", "id": 119404131, "location_subtype": "", "month": "2024-05"}, {"category": "criminal-damage-arson", "location_type": "Force", "location": {"latitude": "52.951463", "street": {"id": 2248122, "name": "On or near Perlethorpe Avenue"}, "longitude": "-1.130726"}, "context": "", "outcome_status": {"category": "Investigation complete; no suspect identified", "date": "2024-05"}, "persistent_id": "13d8be9870f1ea0f7f400f216f4db5ef084ab71c17d4a821251759761bb26799", "id": 119404361, "location_subtype": "", "month": "2024-05"}, {"category": "criminal-damage-arson", "location_type": "Force", "location": {"latitude": "52.959410", "street": {"id": 2248185, "name": "On or near Pym Street"}, "longitude": "-1.129510"}, "context": "", "outcome_status": {"category": "Investigation complete; no suspect identified", "date": "2024-05"}, "persistent_id": "47dbcf233ca6da245b5027418e78459934bc28ed2fe26a8f575665a13985dc64", "id": 119404586, "location_subtype": "", "month": "2024-05"}, {"category": "criminal-damage-arson", "location_type": "Force", "location": {"latitude": "52.957085", "street": {"id": 2246460, "name": "On or near Goldsmith Street"}, "longitude": "-1.153583"}, "context": "", "outcome_status": {"category": "Unable to prosecute suspect", "date": "2024-05"}, "persistent_id": "b56c846b88f006c37afad684385a88c5da93b5579c0ada56af652aca41829bc5", "id": 119399399, "location_subtype": "", "month": "2024-05"}, {"category": "criminal-damage-arson", "location_type": "Force", "location": {"latitude": "52.965791", "street": {"id": 2245712, "name": "On or near Sports/recreation Area"}, "longitude": "-1.161266"}, "context": "", "outcome_status": {"category": "Investigation complete; no suspect identified", "date": "2024-07"}, "persistent_id": "1f89441b67705ce71ef7c9ef719a7d83e213129372644dfcf75f65ff3b905c6b", "id": 119404140, "location_subtype": "", "month": "2024-05"}, {"category": "criminal-damage-arson", "location_type": "Force", "location": {"latitude": "52.946449", "street": {"id": 2245763, "name": "On or near Supermarket"}, "longitude": "-1.162363"}, "context": "", "outcome_status": {"category": "Investigation complete; no suspect identified", "date": "2024-08"}, "persistent_id": "94fb8d7712567ecb6bb23c0d6ec5707775738353fc1b61ebbaa7dc95886a7a68", "id": 119399419, "location_subtype": "", "month": "2024-05"}, {"category": "criminal-damage-arson", "location_type": "Force", "location": {"latitude": "52.948001", "street": {"id": 2248207, "name": "On or near Gresley Drive"}, "longitude": "-1.129293"}, "context": "", "outcome_status": {"category": "Investigation complete; no suspect identified", "date": "2024-05"}, "persistent_id": "50317e7d3581a866ec38c4e3f08b53601b7f418a1405251d015562f93fcc42a6", "id": 119399362, "location_subtype": "", "month": "2024-05"}, {"category": "criminal-damage-arson", "location_type": "Force", "location": {"latitude": "52.955784", "street": {"id": 2245039, "name": "On or near Ilkeston Road"}, "longitude": "-1.171903"}, "context": "", "outcome_status": {"category": "Investigation complete; no suspect identified", "date": "2024-05"}, "persistent_id": "26a699f47e96c2f8a6fe02d09db4e09b944d58cef21cb1ed20264a5b03467649", "id": 119403119, "location_subtype": "", "month": "2024-05"}, {"category": "criminal-damage-arson", "location_type": "Force", "location": {"latitude": "52.959842", "street": {"id": 2248044, "name": "On or near Jersey Gardens"}, "longitude": "-1.132122"}, "context": "", "outcome_status": {"category": "Court result unavailable", "date": "2024-11"}, "persistent_id": "d46afdf67bb7d3651e3ea21ef730db497e1622f79bd173975094506b6da4f215", "id": 119403022, "location_subtype": "", "month": "2024-05"}, {"category": "criminal-damage-arson", "location_type": "Force", "location": {"latitude": "52.946297", "street": {"id": 2245574, "name": "On or near Castle Quay Close"}, "longitude": "-1.165015"}, "context": "", "outcome_status": {"category": "Investigation complete; no suspect identified", "date": "2024-05"}, "persistent_id": "4313603b308260216508f66e4c26acc028137f95952f63cddc640d5e4461da4f", "id": 119402657, "location_subtype": "", "month": "2024-05"}, {"category": "criminal-damage-arson", "location_type": "Force", "location": {"latitude": "52.959071", "street": {"id": 2246437, "name": "On or near Hampden Street"}, "longitude": "-1.154869"}, "context": "", "outcome_status": {"category": "Court result unavailable", "date": "2024-12"}, "persistent_id": "1891646072be4e3512120cd6d49df901a7c6f585f8492af878ba68c07c69c4c9", "id": 119402009, "location_subtype": "", "month": "2024-05"}, {"category": "criminal-damage-arson", "location_type": "Force", "location": {"latitude": "52.950649", "street": {"id": 2247557, "name": "On or near Poplar Street"}, "longitude": "-1.139882"}, "context": "", "outcome_status": {"category": "Investigation complete; no suspect identified", "date": "2024-05"}, "persistent_id": "5bb8fad2c52e53b10999b97329cd47dbf23845784da55f47e32b4ffe82da90e5", "id": 119404602, "location_subtype": "", "month": "2024-05"}, {"category": "criminal-damage-arson", "location_type": "Force", "location": {"latitude": "52.955724", "street": {"id": 2246560, "name": "On or near Nightclub"}, "longitude": "-1.153178"}, "context": "", "outcome_status": {"category": "Investigation complete; no suspect identified", "date": "2024-06"}, "persistent_id": "6cfc65aaf940d1f356bf8edaa30e828576695fa8d83b74c17af5451e7e41c069", "id": 119400002, "location_subtype": "", "month": "2024-05"}, {"category": "criminal-damage-arson", "location_type": "Force", "location": {"latitude": "52.956855", "street": {"id": 2246895, "name": "On or near Parking Area"}, "longitude": "-1.149166"}, "context": "", "outcome_status": {"category": "Status update unavailable", "date": "2024-09"}, "persistent_id": "82dec81a95c94c4552cbba996302c0ce1b06f6fb76473706f5e00490d8d56e64", "id": 119404446, "location_subtype": "", "month": "2024-05"}, {"category": "criminal-damage-arson", "location_type": "Force", "location": {"latitude": "52.949430", "street": {"id": 2247384, "name": "On or near Parking Area"}, "longitude": "-1.141647"}, "context": "", "outcome_status": {"category": "Unable to prosecute suspect", "date": "2024-05"}, "persistent_id": "b78d31b3afa4e74ac3d50554163f9f4346ccfe661ca3569eb1bbe6d0f2a79271", "id": 119404494, "location_subtype": "", "month": "2024-05"}, {"category": "criminal-damage-arson", "location_type": "Force", "location": {"latitude": "52.961350", "street": {"id": 2248108, "name": "On or near Wigley Close"}, "longitude": "-1.130543"}, "context": "", "outcome_status": {"category": "Investigation complete; no suspect identified", "date": "2024-05"}, "persistent_id": "baf138e690ebacc4e3eb8173b77980657ec18f6225bae4c69451bf7dc29f6c02", "id": 119398340, "location_subtype": "", "month": "2024-05"}, {"category": "criminal-damage-arson", "location_type": "Force", "location": {"latitude": "52.953931", "street": {"id": 2247866, "name": "On or near North Street"}, "longitude": "-1.135113"}, "context": "", "outcome_status": {"category": "Investigation complete; no suspect identified", "date": "2024-05"}, "persistent_id": "9400775863d8d360a5b6bac7e039a56e3ce8d672c3fb42b2a4abcd9667bee45b", "id": 119400175, "location_subtype": "", "month": "2024-05"}, {"category": "criminal-damage-arson", "location_type": "Force", "location": {"latitude": "52.956453", "street": {"id": 2246594, "name": "On or near Conference/exhibition Centre"}, "longitude": "-1.153298"}, "context": "", "outcome_status": {"category": "Investigation complete; no suspect identified", "date": "2024-05"}, "persistent_id": "539bdda17ec014d8b3b4127eb2c6eb4664e81baea4b52ccf7eec580550faef36", "id": 119402421, "location_subtype": "", "month": "2024-05"}, {"category": "criminal-damage-arson", "location_type": "Force", "location": {"latitude": "52.952881", "street": {"id": 2246779, "name": "On or near Bus/coach Station"}, "longitude": "-1.150256"}, "context": "", "outcome_status": {"category": "Investigation complete; no suspect identified", "date": "2024-05"}, "persistent_id": "46d80fd2bea8712b462af31916d0dcd5403bbe3c15b58708894e3a96811d25f7", "id": 119406061, "location_subtype": "", "month": "2024-05"}, {"category": "criminal-damage-arson", "location_type": "Force", "location": {"latitude": "52.953842", "street": {"id": 2246586, "name": "On or near Angel Row"}, "longitude": "-1.152649"}, "context": "", "outcome_status": {"category": "Investigation complete; no suspect identified", "date": "2024-07"}, "persistent_id": "e0beba5c0c2a46cf843ecdbc9c2d0267ea501d2b70fa4b191b884892a8542b65", "id": 119398102, "location_subtype": "", "month": "2024-05"}, {"category": "criminal-damage-arson", "location_type": "Force", "location": {"latitude": "52.951672", "street": {"id": 2247605, "name": "On or near Dean Street"}, "longitude": "-1.139623"}, "context": "", "outcome_status": {"category": "Investigation complete; no suspect identified", "date": "2024-06"}, "persistent_id": "1e0002652abad4ecb6fecfb0a27d05ab2edd106ac95a7705d7adee2c90135996", "id": 119400668, "location_subtype": "", "month": "2024-05"}, {"category": "criminal-damage-arson", "location_type": "Force", "location": {"latitude": "52.953688", "street": {"id": 2247042, "name": "On or near High Street"}, "longitude": "-1.147502"}, "context": "", "outcome_status": {"category": "Investigation complete; no suspect identified", "date": "2024-05"}, "persistent_id": "0c26b91a0db4dc50cb765bfef3265166bc34a01ecabd9c32edf9939c491dc22b", "id": 119399310, "location_subtype": "", "month": "2024-05"}, {"category": "criminal-damage-arson", "location_type": "Force", "location": {"latitude": "52.953479", "street": {"id": 2247838, "name": "On or near Bond Street"}, "longitude": "-1.136015"}, "context": "", "outcome_status": {"category": "Unable to prosecute suspect", "date": "2024-05"}, "persistent_id": "9857e8641030e454d042a56e0cb00e573ff1367021129a4601efa79d6aacad80", "id": 119401901, "location_subtype": "", "month": "2024-05"}, {"category": "criminal-damage-arson", "location_type": "Force", "location": {"latitude": "52.952604", "street": {"id": 2247032, "name": "On or near Bank Place"}, "longitude": "-1.148059"}, "context": "", "outcome_status": {"category": "Investigation complete; no suspect identified", "date": "2024-05"}, "persistent_id": "12d0c326bd1300124e92eb70d7d077889e306f394944f6164d3efdfed7f51d7a", "id": 119403338, "location_subtype": "", "month": "2024-05"}, {"category": "criminal-damage-arson", "location_type": "Force", "location": {"latitude": "52.954489", "street": {"id": 2247142, "name": "On or near Lincoln Street"}, "longitude": "-1.146414"}, "context": "", "outcome_status": {"category": "Investigation complete; no suspect identified", "date": "2024-06"}, "persistent_id": "65456a41236ebfc31cf2dd057bb8cd7272d2f0f7e8f8a6cb2b14db2945db0f6d", "id": 119398574, "location_subtype": "", "month": "2024-05"}, {"category": "criminal-damage-arson", "location_type": "Force", "location": {"latitude": "52.955282", "street": {"id": 2245891, "name": "On or near Cottage Terrace"}, "longitude": "-1.160555"}, "context": "", "outcome_status": {"category": "Investigation complete; no suspect identified", "date": "2024-05"}, "persistent_id": "d664108ef8fac7a555b94b490b6793afe3a44d667bd2f3ed55fd33f7b3454721", "id": 119400103, "location_subtype": "", "month": "2024-05"}, {"category": "criminal-damage-arson", "location_type": "Force", "location": {"latitude": "52.952315", "street": {"id": 2247176, "name": "On or near Parking Area"}, "longitude": "-1.145371"}, "context": "", "outcome_status": {"category": "Investigation complete; no suspect identified", "date": "2024-07"}, "persistent_id": "ac9fe35eaccc5cf468a30f71f686d527a483ea47852e2b4f023247b0addc5e16", "id": 119400066, "location_subtype": "", "month": "2024-05"}, {"category": "criminal-damage-arson", "location_type": "Force", "location": {"latitude": "52.939966", "street": {"id": 2246248, "name": "On or near Fossil Close"}, "longitude": "-1.156982"}, "context": "", "outcome_status": {"category": "Unable to prosecute suspect", "date": "2024-05"}, "persistent_id": "c0daea41d7e62695e2478f0fc4edd9d682e05c6d3ba5821ae0110b24387fa1f9", "id": 119398022, "location_subtype": "", "month": "2024-05"}, {"category": "criminal-damage-arson", "location_type": "Force", "location": {"latitude": "52.940184", "street": {"id": 2247460, "name": "On or near Muskham Street"}, "longitude": "-1.142232"}, "context": "", "outcome_status": {"category": "Investigation complete; no suspect identified", "date": "2024-05"}, "persistent_id": "39c2f43e81280c63b03a39fa62b64f757018ba180e169e32189c85ce7fe8dcda", "id": 119403925, "location_subtype": "", "month": "2024-05"}, {"category": "criminal-damage-arson", "location_type": "Force", "location": {"latitude": "52.966687", "street": {"id": 2247391, "name": "On or near Rose Close"}, "longitude": "-1.142556"}, "context": "", "outcome_status": {"category": "Unable to prosecute suspect", "date": "2024-06"}, "persistent_id": "d2451ab5ff08a3555d342a27add810ac0df5fa79c47ad7c68864e33213a12101", "id": 119401440, "location_subtype": "", "month": "2024-05"}, {"category": "drugs", "location_type": "Force", "location": {"latitude": "52.957453", "street": {"id": 2246938, "name": "On or near Shopping Area"}, "longitude": "-1.148119"}, "context": "", "outcome_status": {"category": "Local resolution", "date": "2024-06"}, "persistent_id": "2a09aa0e411e535ba2710637169b68643376417a1b18a123eb9c5a73593b981f", "id": 119404206, "location_subtype": "", "month": "2024-05"}, {"category": "drugs", "location_type": "Force", "location": {"latitude": "52.953179", "street": {"id": 2246892, "name": "On or near South Parade"}, "longitude": "-1.149253"}, "context": "", "outcome_status": {"category": "Further action is not in the public interest", "date": "2024-08"}, "persistent_id": "9e8398a476f4a30e2c3e5e1dc165b567ada7efd7dfba1973b3d97ee52c00ac64", "id": 119401722, "location_subtype": "", "month": "2024-05"}, {"category": "drugs", "location_type": "Force", "location": {"latitude": "52.961821", "street": {"id": 2246756, "name": "On or near Frogmore Street"}, "longitude": "-1.150930"}, "context": "", "outcome_status": {"category": "Local resolution", "date": "2024-05"}, "persistent_id": "7fb7e4eb655611144a1bb1483c8444a8ac4722083af239ef2c5493c4957d877c", "id": 119400717, "location_subtype": "", "month": "2024-05"}, {"category": "drugs", "location_type": "Force", "location": {"latitude": "52.952881", "street": {"id": 2246779, "name": "On or near Bus/coach Station"}, "longitude": "-1.150256"}, "context": "", "outcome_status": {"category": "Local resolution", "date": "2024-05"}, "persistent_id": "c5fb20b0e5733afcf17ef7e089e0d61b054ecdc64895856398c182f675b9454e", "id": 119399996, "location_subtype": "", "month": "2024-05"}, {"category": "drugs", "location_type": "Force", "location": {"latitude": "52.955409", "street": {"id": 2248097, "name": "On or near Denstone Road"}, "longitude": "-1.130662"}, "context": "", "outcome_status": {"category": "Offender given penalty notice", "date": "2024-07"}, "persistent_id": "b47175fcdae945c07e964b4b110710d8ac12657ba817dbc1c4ed300c7561dfa0", "id": 119406543, "location_subtype": "", "month": "2024-05"}, {"category": "drugs", "location_type": "Force", "location": {"latitude": "52.952532", "street": {"id": 2246579, "name": "On or near St James's Street"}, "longitude": "-1.153091"}, "context": "", "outcome_status": {"category": "Court result unavailable", "date": "2025-01"}, "persistent_id": "6b03f332ec8018aad33fd6bbee9bb400bd2234f401b3cf4550c0d9e6938fdfb7", "id": 119401937, "location_subtype": "", "month": "2024-05"}, {"category": "drugs", "location_type": "Force", "location": {"latitude": "52.953599", "street": {"id": 2247337, "name": "On or near Carlton Street"}, "longitude": "-1.143842"}, "context": "", "outcome_status": {"category": "Offender given a caution", "date": "2024-05"}, "persistent_id": "55c2609f53f8d90f85505627de00a57210c661182c0ee9d13d09e91200eb685d", "id": 119401673, "location_subtype": "", "month": "2024-05"}, {"category": "drugs", "location_type": "Force", "location": {"latitude": "52.964182", "street": {"id": 2246703, "name": "On or near Villa Road"}, "longitude": "-1.151688"}, "context": "", "outcome_status": {"category": "Local resolution", "date": "2024-05"}, "persistent_id": "3b4bec7e8149bf36b5cb13aecfd347812c3fb9fbbc2157be794ab7d66da5868f", "id": 119400080, "location_subtype": "", "month": "2024-05"}, {"category": "drugs", "location_type": "Force", "location": {"latitude": "52.951137", "street": {"id": 2247168, "name": "On or near Weekday Cross"}, "longitude": "-1.145304"}, "context": "", "outcome_status": {"category": "Local resolution", "date": "2024-05"}, "persistent_id": "0694a33347f6c3ba3d94140591733a45a713ce049914ba4f3f862306253e3367", "id": 119401670, "location_subtype": "", "month": "2024-05"}, {"category": "drugs", "location_type": "Force", "location": {"latitude": "52.961821", "street": {"id": 2246756, "name": "On or near Frogmore Street"}, "longitude": "-1.150930"}, "context": "", "outcome_status": {"category": "Local resolution", "date": "2024-05"}, "persistent_id": "46e24f615fa00070574390ff5eae0796f3dc94db1cc46f99119078c2f774424a", "id": 119400718, "location_subtype": "", "month": "2024-05"}, {"category": "drugs", "location_type": "Force", "location": {"latitude": "52.952532", "street": {"id": 2246579, "name": "On or near St James's Street"}, "longitude": "-1.153091"}, "context": "", "outcome_status": {"category": "Offender given a caution", "date": "2024-05"}, "persistent_id": "0d76e4ceae5d19b2cd39e53f358ad50750db643deadabe247253d6a3e3806920", "id": 119401914, "location_subtype": "", "month": "2024-05"}, {"category": "drugs", "location_type": "Force", "location": {"latitude": "52.952604", "street": {"id": 2247032, "name": "On or near Bank Place"}, "longitude": "-1.148059"}, "context": "", "outcome_status": {"category": "Offender given a caution", "date": "2024-05"}, "persistent_id": "493f266581e6196167a4b3cc196fdd86b9bb32d0b1f28e0bd8c6d216ff318d4a", "id": 119401236, "location_subtype": "", "month": "2024-05"}, {"category": "drugs", "location_type": "Force", "location": {"latitude": "52.961928", "street": {"id": 2247867, "name": "On or near Southampton Street"}, "longitude": "-1.134536"}, "context": "", "outcome_status": {"category": "Offender given a drugs possession warning", "date": "2024-05"}, "persistent_id": "91149302438b8f0aa858b2c8b2085c5b53e6d7fd1970e9afd6646cbcf65fac63", "id": 119398818, "location_subtype": "", "month": "2024-05"}, {"category": "drugs", "location_type": "Force", "location": {"latitude": "52.954851", "street": {"id": 2247497, "name": "On or near Nightclub"}, "longitude": "-1.141689"}, "context": "", "outcome_status": {"category": "Status update unavailable", "date": "2024-09"}, "persistent_id": "8eb255d1226aeeeb8216f419a407da504a099c0f6c9836e14fc9a292bd2f5f03", "id": 119405302, "location_subtype": "", "month": "2024-05"}, {"category": "drugs", "location_type": "Force", "location": {"latitude": "52.959071", "street": {"id": 2246437, "name": "On or near Hampden Street"}, "longitude": "-1.154869"}, "context": "", "outcome_status": {"category": "Awaiting court outcome", "date": "2024-11"}, "persistent_id": "598771760c1605b81d8da3f3ebe1ee14ecb22cac4e529e79fff6de80c9052f04", "id": 119402955, "location_subtype": "", "month": "2024-05"}, {"category": "drugs", "location_type": "BTP", "location": {"latitude": "52.946560", "street": {"id": 2348074, "name": "Nottingham (station)"}, "longitude": "-1.147157"}, "context": "", "outcome_status": {"category": "Status update unavailable", "date": "2024-09"}, "persistent_id": "", "id": 126030476, "location_subtype": "STATION", "month": "2024-05"}, {"category": "drugs", "location_type": "Force", "location": {"latitude": "52.958443", "street": {"id": 2246411, "name": "On or near Supermarket"}, "longitude": "-1.154986"}, "context": "", "outcome_status": {"category": "Further action is not in the public interest", "date": "2024-06"}, "persistent_id": "b1c5e4dccb64e5e74ebf241329a7057854c2e97ab22f7b48391f303f34e48c16", "id": 119406725, "location_subtype": "", "month": "2024-05"}, {"category": "drugs", "location_type": "Force", "location": {"latitude": "52.957453", "street": {"id": 2246938, "name": "On or near Shopping Area"}, "longitude": "-1.148119"}, "context": "", "outcome_status": {"category": "Further action is not in the public interest", "date": "2024-05"}, "persistent_id": "bb9c740a5d8e970ca78f1e0ad0b693b0eff1fab883252e99d9708493e45d55a5", "id": 119399238, "location_subtype": "", "month": "2024-05"}, {"category": "drugs", "location_type": "Force", "location": {"latitude": "52.962884", "street": {"id": 2246619, "name": "On or near Alpha Terrace"}, "longitude": "-1.152443"}, "context": "", "outcome_status": {"category": "Offender given penalty notice", "date": "2024-05"}, "persistent_id": "d4f651b726ccff2d160a9fef2c26eb39ea23814ebac9767fb047982fec2c022e", "id": 119398124, "location_subtype": "", "month": "2024-05"}, {"category": "drugs", "location_type": "Force", "location": {"latitude": "52.957912", "street": {"id": 2246880, "name": "On or near Peachey Street"}, "longitude": "-1.149845"}, "context": "", "outcome_status": {"category": "Court result unavailable", "date": "2024-11"}, "persistent_id": "70b96565dc5310c25817d43fa06c21a6a66e7c8b826f14ab59e09540e8c73016", "id": 119399127, "location_subtype": "", "month": "2024-05"}, {"category": "drugs", "location_type": "Force", "location": {"latitude": "52.947981", "street": {"id": 2246953, "name": "On or near Carrington Street"}, "longitude": "-1.147614"}, "context": "", "outcome_status": {"category": "Court result unavailable", "date": "2024-12"}, "persistent_id": "45a2a068984c865da34239c6221f265e914292d0b1a3db51449beb14553c18a0", "id": 119406533, "location_subtype": "", "month": "2024-05"}, {"category": "drugs", "location_type": "Force", "location": {"latitude": "52.960373", "street": {"id": 2246562, "name": "On or near Peel Street"}, "longitude": "-1.153355"}, "context": "", "outcome_status": {"category": "Awaiting court outcome", "date": "2024-12"}, "persistent_id": "9c251f9bd8ff0cccdaa3b383b4f8b2a3c75b6e6c66de1b8d4ffdeca85f5b8fe6", "id": 119405147, "location_subtype": "", "month": "2024-05"}, {"category": "drugs", "location_type": "Force", "location": {"latitude": "52.951797", "street": {"id": 2246928, "name": "On or near Shopping Area"}, "longitude": "-1.148313"}, "context": "", "outcome_status": {"category": "Local resolution", "date": "2024-05"}, "persistent_id": "a94dac69b281039ab18129556b8ad72cc0f2e7776dcc12b666489746cbcaa851", "id": 119399135, "location_subtype": "", "month": "2024-05"}, {"category": "drugs", "location_type": "Force", "location": {"latitude": "52.953857", "street": {"id": 2246257, "name": "On or near Theatre/concert Hall"}, "longitude": "-1.156117"}, "context": "", "outcome_status": {"category": "Formal action is not in the public interest", "date": "2024-05"}, "persistent_id": "5753c042429628fbcfe91e725c3dc1bbdb83e4ac5b166ffdb7b230e2d2e9e5dd", "id": 119399477, "location_subtype": "", "month": "2024-05"}, {"category": "drugs", "location_type": "Force", "location": {"latitude": "52.955069", "street": {"id": 2247071, "name": "On or near Clinton Street West"}, "longitude": "-1.147013"}, "context": "", "outcome_status": {"category": "Court result unavailable", "date": "2024-11"}, "persistent_id": "b4e6dc59e8063606112e88e2549c6f67f7029411a0fa4b08991b740bd5543201", "id": 119403597, "location_subtype": "", "month": "2024-05"}, {"category": "drugs", "location_type": "Force", "location": {"latitude": "52.957453", "street": {"id": 2246938, "name": "On or near Shopping Area"}, "longitude": "-1.148119"}, "context": "", "outcome_status": {"category": "Local resolution", "date": "2024-05"}, "persistent_id": "9cb862be502de7f28ce5fd26236f5e2bd1b72085ccbed0c28d11d94609e078c8", "id": 119401672, "location_subtype": "", "month": "2024-05"}, {"category": "drugs", "location_type": "Force", "location": {"latitude": "52.963101", "street": {"id": 2246770, "name": "On or near Alfred Street North"}, "longitude": "-1.150086"}, "context": "", "outcome_status": {"category": "Investigation complete; no suspect identified", "date": "2024-06"}, "persistent_id": "6d2898f0c47836aee0c2ebe8097d36885f9c5406b4bbd34db0706c265545f69e", "id": 119406699, "location_subtype": "", "month": "2024-05"}, {"category": "drugs", "location_type": "Force", "location": {"latitude": "52.961195", "street": {"id": 2245539, "name": "On or near Forest Road West"}, "longitude": "-1.165338"}, "context": "", "outcome_status": {"category": "Local resolution", "date": "2024-06"}, "persistent_id": "c4c9dd814d98b287c1325a6adbea4f5d5fc188d61d30a6244bcb1b97964a803c", "id": 119399207, "location_subtype": "", "month": "2024-05"}, {"category": "drugs", "location_type": "Force", "location": {"latitude": "52.952222", "street": {"id": 2247151, "name": "On or near Nightclub"}, "longitude": "-1.146206"}, "context": "", "outcome_status": {"category": "Court result unavailable", "date": "2024-11"}, "persistent_id": "3182d98be890854c0b4da5aa872fc8632c4f8303e3993617426ac52cb6ca81e1", "id": 119398945, "location_subtype": "", "month": "2024-05"}, {"category": "drugs", "location_type": "Force", "location": {"latitude": "52.961934", "street": {"id": 2246534, "name": "On or near Newstead Grove"}, "longitude": "-1.152863"}, "context": "", "outcome_status": {"category": "Local resolution", "date": "2024-06"}, "persistent_id": "2b91c58eed17eed62ed203ae6dec79b5c80cf035238a26fcd61e46ffb287406f", "id": 119402169, "location_subtype": "", "month": "2024-05"}, {"category": "drugs", "location_type": "Force", "location": {"latitude": "52.953179", "street": {"id": 2246892, "name": "On or near South Parade"}, "longitude": "-1.149253"}, "context": "", "outcome_status": {"category": "Unable to prosecute suspect", "date": "2024-05"}, "persistent_id": "d34880d66a43b090aca53e2a42a6556b9fd174da81bf634c8922efe1622d387d", "id": 119399968, "location_subtype": "", "month": "2024-05"}, {"category": "drugs", "location_type": "Force", "location": {"latitude": "52.953179", "street": {"id": 2246892, "name": "On or near South Parade"}, "longitude": "-1.149253"}, "context": "", "outcome_status": {"category": "Offender given a caution", "date": "2024-05"}, "persistent_id": "e36aa319f4b8dbb6d3538992d7634fa4c33ba4972c37cc8a1c65862cec901dd7", "id": 119405264, "location_subtype": "", "month": "2024-05"}, {"category": "drugs", "location_type": "Force", "location": {"latitude": "52.954489", "street": {"id": 2247142, "name": "On or near Lincoln Street"}, "longitude": "-1.146414"}, "context": "", "outcome_status": {"category": "Formal action is not in the public interest", "date": "2024-05"}, "persistent_id": "eea32afb9c19859dea70506f5676feb5b374605a2e7b396b244f77bed22bf2b0", "id": 119403936, "location_subtype": "", "month": "2024-05"}, {"category": "drugs", "location_type": "Force", "location": {"latitude": "52.950649", "street": {"id": 2247557, "name": "On or near Poplar Street"}, "longitude": "-1.139882"}, "context": "", "outcome_status": {"category": "Offender given a caution", "date": "2024-06"}, "persistent_id": "0568de9aa97f3393401aac9b1c53f48f4a034fb35109f2438dd6fa75642310a7", "id": 119403839, "location_subtype": "", "month": "2024-05"}, {"category": "drugs", "location_type": "Force", "location": {"latitude": "52.955491", "street": {"id": 2247144, "name": "On or near Clare Street"}, "longitude": "-1.145725"}, "context": "", "outcome_status": {"category": "Court result unavailable", "date": "2024-11"}, "persistent_id": "a5d9e084410089353d88762b7a1cacab39ca808dae7cde7945f622763682f962", "id": 119403871, "location_subtype": "", "month": "2024-05"}, {"category": "drugs", "location_type": "Force", "location": {"latitude": "52.957453", "street": {"id": 2246938, "name": "On or near Shopping Area"}, "longitude": "-1.148119"}, "context": "", "outcome_status": {"category": "Court result unavailable", "date": "2024-11"}, "persistent_id": "8d51340460a2f9218c4a9db5058cd9faecc69b1d7f3273be44bef24e3ff58d76", "id": 119401677, "location_subtype": "", "month": "2024-05"}, {"category": "drugs", "location_type": "Force", "location": {"latitude": "52.955784", "street": {"id": 2245039, "name": "On or near Ilkeston Road"}, "longitude": "-1.171903"}, "context": "", "outcome_status": {"category": "Investigation complete; no suspect identified", "date": "2024-06"}, "persistent_id": "2cfa19f8d20bbcc0e3c495b3e87551f7bca8dc6134a24d772d715dce97d7043f", "id": 119398868, "location_subtype": "", "month": "2024-05"}, {"category": "drugs", "location_type": "Force", "location": {"latitude": "52.961195", "street": {"id": 2245539, "name": "On or near Forest Road West"}, "longitude": "-1.165338"}, "context": "", "outcome_status": {"category": "Further action is not in the public interest", "date": "2024-06"}, "persistent_id": "6d89cb91e92297757692a02fc639abba8ecd5b140afb1ff0daf3cea38ddace09", "id": 119399224, "location_subtype": "", "month": "2024-05"}, {"category": "drugs", "location_type": "Force", "location": {"latitude": "52.952881", "street": {"id": 2246779, "name": "On or near Bus/coach Station"}, "longitude": "-1.150256"}, "context": "", "outcome_status": {"category": "Court result unavailable", "date": "2024-11"}, "persistent_id": "c82376a797c69358a6cc81422285852368ba68d1dfabeefe3890044e54c7bf2c", "id": 119399870, "location_subtype": "", "month": "2024-05"}, {"category": "drugs", "location_type": "Force", "location": {"latitude": "52.952881", "street": {"id": 2246779, "name": "On or near Bus/coach Station"}, "longitude": "-1.150256"}, "context": "", "outcome_status": {"category": "Court result unavailable", "date": "2024-11"}, "persistent_id": "7b32ceea6cacbc0054e0bb2f7aa74b434cdad8e9f01eb92b69625476a498b366", "id": 119403974, "location_subtype": "", "month": "2024-05"}, {"category": "drugs", "location_type": "Force", "location": {"latitude": "52.961600", "street": {"id": 2245745, "name": "On or near Gedling Grove"}, "longitude": "-1.162815"}, "context": "", "outcome_status": {"category": "Court result unavailable", "date": "2024-12"}, "persistent_id": "ac510c70f69883b69f627e0bd1fc6b89c4658826dc550c08b2f18981b14adc64", "id": 119403998, "location_subtype": "", "month": "2024-05"}, {"category": "drugs", "location_type": "Force", "location": {"latitude": "52.952881", "street": {"id": 2246779, "name": "On or near Bus/coach Station"}, "longitude": "-1.150256"}, "context": "", "outcome_status": {"category": "Court result unavailable", "date": "2024-11"}, "persistent_id": "97a703a111ba19475ad69baf36801450d480ffdb8ff18e2052e78f2d77fe2e02", "id": 119399887, "location_subtype": "", "month": "2024-05"}, {"category": "drugs", "location_type": "Force", "location": {"latitude": "52.955784", "street": {"id": 2245039, "name": "On or near Ilkeston Road"}, "longitude": "-1.171903"}, "context": "", "outcome_status": {"category": "Unable to prosecute suspect", "date": "2024-05"}, "persistent_id": "8fb2c880e72649ea62eed243c6a92838ce35e829079031e3e0bfb22b1de678ba", "id": 119404113, "location_subtype": "", "month": "2024-05"}, {"category": "drugs", "location_type": "Force", "location": {"latitude": "52.957453", "street": {"id": 2246938, "name": "On or near Shopping Area"}, "longitude": "-1.148119"}, "context": "", "outcome_status": {"category": "Local resolution", "date": "2024-05"}, "persistent_id": "5f5cd4035e89f6199a3868c438cdc7d9061b28f421bc2de4108f34e4d46a1aae", "id": 119399120, "location_subtype": "", "month": "2024-05"}, {"category": "drugs", "location_type": "Force", "location": {"latitude": "52.953842", "street": {"id": 2246586, "name": "On or near Angel Row"}, "longitude": "-1.152649"}, "context": "", "outcome_status": {"category": "Court result unavailable", "date": "2024-11"}, "persistent_id": "0831097fecdfd1fe4d92dd6eb9448a77dbf2d05afa96ffcb55ec0d191a4da0d6", "id": 119402184, "location_subtype": "", "month": "2024-05"}, {"category": "drugs", "location_type": "Force", "location": {"latitude": "52.957453", "street": {"id": 2246938, "name": "On or near Shopping Area"}, "longitude": "-1.148119"}, "context": "", "outcome_status": {"category": "Investigation complete; no suspect identified", "date": "2024-05"}, "persistent_id": "9e49dae2b9e534b183ff4e0b99174b1bbf13056a17483aa6e7148aace879fe00", "id": 119402505, "location_subtype": "", "month": "2024-05"}, {"category": "drugs", "location_type": "Force", "location": {"latitude": "52.952222", "street": {"id": 2247151, "name": "On or near Nightclub"}, "longitude": "-1.146206"}, "context": "", "outcome_status": {"category": "Local resolution", "date": "2024-05"}, "persistent_id": "b72fa38d2932380711fb406e25e06dd70422be60491fe69951566f1cce3a1cdf", "id": 119402183, "location_subtype": "", "month": "2024-05"}, {"category": "drugs", "location_type": "Force", "location": {"latitude": "52.954851", "street": {"id": 2247497, "name": "On or near Nightclub"}, "longitude": "-1.141689"}, "context": "", "outcome_status": {"category": "Offender given a caution", "date": "2024-05"}, "persistent_id": "0986ae63e215aa91d56cf84aecdb1fb03341b9692e2e7a6806a1b94aa80fcc8a", "id": 119405559, "location_subtype": "", "month": "2024-05"}, {"category": "drugs", "location_type": "Force", "location": {"latitude": "52.950649", "street": {"id": 2247557, "name": "On or near Poplar Street"}, "longitude": "-1.139882"}, "context": "", "outcome_status": {"category": "Court result unavailable", "date": "2024-11"}, "persistent_id": "f0cdd3c54227211278d5eafa228665b32859b19b4fa747ddc397025c1c28028b", "id": 119402225, "location_subtype": "", "month": "2024-05"}, {"category": "drugs", "location_type": "Force", "location": {"latitude": "52.958438", "street": {"id": 2248166, "name": "On or near Woodhouse Street"}, "longitude": "-1.129366"}, "context": "", "outcome_status": {"category": "Court result unavailable", "date": "2024-11"}, "persistent_id": "f7f8769e56e2ba1790f248abc9eb1f1dd429fc0417a765700d7637460d601941", "id": 119399717, "location_subtype": "", "month": "2024-05"}, {"category": "drugs", "location_type": "Force", "location": {"latitude": "52.950793", "street": {"id": 2246851, "name": "On or near Stanford Street"}, "longitude": "-1.149896"}, "context": "", "outcome_status": {"category": "Local resolution", "date": "2024-05"}, "persistent_id": "a61baa0b89e942cd8a983e0dbf6836c27aad591fa6f4edefcf1326b86379a846", "id": 119402230, "location_subtype": "", "month": "2024-05"}, {"category": "drugs", "location_type": "Force", "location": {"latitude": "52.955878", "street": {"id": 2248056, "name": "On or near St Chad's Road"}, "longitude": "-1.132141"}, "context": "", "outcome_status": {"category": "Court result unavailable", "date": "2024-11"}, "persistent_id": "377e4f093ef031f10293d6194a73f9ee8b4f1f7d7696f5a433230b80bebe6f66", "id": 119398245, "location_subtype": "", "month": "2024-05"}, {"category": "drugs", "location_type": "Force", "location": {"latitude": "52.955069", "street": {"id": 2247071, "name": "On or near Clinton Street West"}, "longitude": "-1.147013"}, "context": "", "outcome_status": {"category": "Court result unavailable", "date": "2024-11"}, "persistent_id": "aabe488a6e123647e07f24c9ca457f38274386152bbc4f45515918828777bd4f", "id": 119400357, "location_subtype": "", "month": "2024-05"}, {"category": "other-theft", "location_type": "Force", "location": {"latitude": "52.955069", "street": {"id": 2247071, "name": "On or near Clinton Street West"}, "longitude": "-1.147013"}, "context": "", "outcome_status": {"category": "Investigation complete; no suspect identified", "date": "2024-08"}, "persistent_id": "c5aa978143ef60df8abe7b9b2e714cbd5c4877635a60b92121854fcb46915ac0", "id": 119402759, "location_subtype": "", "month": "2024-05"}, {"category": "other-theft", "location_type": "Force", "location": {"latitude": "52.952222", "street": {"id": 2247151, "name": "On or near Nightclub"}, "longitude": "-1.146206"}, "context": "", "outcome_status": {"category": "Investigation complete; no suspect identified", "date": "2024-06"}, "persistent_id": "074b7eb14f6df4c7a3c814ca9cf0e26c7f2ffe988c62e604e0ed7d418f9fefbf", "id": 119402741, "location_subtype": "", "month": "2024-05"}, {"category": "other-theft", "location_type": "Force", "location": {"latitude": "52.941702", "street": {"id": 2247054, "name": "On or near Ryeland Gardens"}, "longitude": "-1.147023"}, "context": "", "outcome_status": {"category": "Investigation complete; no suspect identified", "date": "2024-05"}, "persistent_id": "f8108c2657df33d674a626410f4b8b3b7b329c069bc7500f26106d50a0b20816", "id": 119402432, "location_subtype": "", "month": "2024-05"}, {"category": "other-theft", "location_type": "Force", "location": {"latitude": "52.949430", "street": {"id": 2247384, "name": "On or near Parking Area"}, "longitude": "-1.141647"}, "context": "", "outcome_status": {"category": "Unable to prosecute suspect", "date": "2024-05"}, "persistent_id": "b6361e275a0cd67d00ed63558471f3e9afc4d6204b3a7e9a40574c4623db067b", "id": 119405191, "location_subtype": "", "month": "2024-05"}, {"category": "other-theft", "location_type": "Force", "location": {"latitude": "52.955450", "street": {"id": 2246850, "name": "On or near Forman Street"}, "longitude": "-1.150013"}, "context": "", "outcome_status": {"category": "Investigation complete; no suspect identified", "date": "2024-06"}, "persistent_id": "584a380c9e792e5faa36df2edf02974349be3cd8beeadb7304af51447eee73ae", "id": 119405146, "location_subtype": "", "month": "2024-05"}, {"category": "other-theft", "location_type": "Force", "location": {"latitude": "52.944596", "street": {"id": 2246919, "name": "On or near Meadows Way"}, "longitude": "-1.148291"}, "context": "", "outcome_status": {"category": "Unable to prosecute suspect", "date": "2024-06"}, "persistent_id": "7690fad0117fe4adde767ecf7c14d4d1afd127b2b1c7a2324e0397b3a7a2b290", "id": 119405130, "location_subtype": "", "month": "2024-05"}, {"category": "other-theft", "location_type": "Force", "location": {"latitude": "52.956194", "street": {"id": 2246946, "name": "On or near Milton Street"}, "longitude": "-1.148390"}, "context": "", "outcome_status": {"category": "Investigation complete; no suspect identified", "date": "2024-08"}, "persistent_id": "ee48fa03a472ecf731018dec76b0bb02a4ee2beaf4b8d029d7b702a216c70b4f", "id": 119405104, "location_subtype": "", "month": "2024-05"}, {"category": "other-theft", "location_type": "Force", "location": {"latitude": "52.956194", "street": {"id": 2246946, "name": "On or near Milton Street"}, "longitude": "-1.148390"}, "context": "", "outcome_status": {"category": "Investigation complete; no suspect identified", "date": "2024-06"}, "persistent_id": "12bfe8cc0d83ba8e7594d311a350a2b7ef88368d79def20c3ed8812d65ddfd53", "id": 119404803, "location_subtype": "", "month": "2024-05"}, {"category": "other-theft", "location_type": "Force", "location": {"latitude": "52.957453", "street": {"id": 2246938, "name": "On or near Shopping Area"}, "longitude": "-1.148119"}, "context": "", "outcome_status": {"category": "Investigation complete; no suspect identified", "date": "2024-06"}, "persistent_id": "3e45754e6762bbffe4587d8da0cf741f7721941fd77fd4d0e8c0c1e592371565", "id": 119405786, "location_subtype": "", "month": "2024-05"}, {"category": "other-theft", "location_type": "Force", "location": {"latitude": "52.948697", "street": {"id": 2248278, "name": "On or near Thoresby Avenue"}, "longitude": "-1.128698"}, "context": "", "outcome_status": {"category": "Investigation complete; no suspect identified", "date": "2024-05"}, "persistent_id": "c9862d5f5e0e13f978922c45ea013e8e68a6d5875355f0be674379c92be211b5", "id": 119404663, "location_subtype": "", "month": "2024-05"}, {"category": "other-theft", "location_type": "Force", "location": {"latitude": "52.949344", "street": {"id": 2247084, "name": "On or near Parking Area"}, "longitude": "-1.147141"}, "context": "", "outcome_status": {"category": "Unable to prosecute suspect", "date": "2024-07"},