[{"category": "anti-social-behaviour", "location_type": "Force", "location": {"latitude": "52.952397", "street": {"id": 2247410, "name": "On or near Stoney Street"}, "longitude": "-1.143032"}, "context": "", "outcome_status": null, "persistent_id": "", "id": 124992672, "location_subtype": "", "month": "2024-11"}, {"category": "anti-social-behaviour", "location_type": "Force", "location": {"latitude": "52.956787", "street": {"id": 2247266, "name": "On or near Parking Area"}, "longitude": "-1.144702"}, "context": "", "outcome_status": null, "persistent_id": "", "id": 124992806, "location_subtype": "", "month": "2024-11"}, {"category": "anti-social-behaviour", "location_type": "Force", "location": {"latitude": "52.953625", "street": {"id": 2247148, "name": "On or near Pelham Street"}, "longitude": "-1.146238"}, "context": "", "outcome_status": null, "persistent_id": "", "id": 124992679, "location_subtype": "", "month": "2024-11"}, {"category": "anti-social-behaviour", "location_type": "Force", "location": {"latitude": "52.956257", "street": {"id": 2246539, "name": "On or near Nightclub"}, "longitude": "-1.153465"}, "context": "", "outcome_status": null, "persistent_id": "", "id": 124992649, "location_subtype": "", "month": "2024-11"}, {"category": "anti-social-behaviour", "location_type": "Force", "location": {"latitude": "52.960962", "street": {"id": 2247575, "name": "On or near Thomas Close"}, "longitude": "-1.140243"}, "context": "", "outcome_status": null, "persistent_id": "", "id": 124992819, "location_subtype": "", "month": "2024-11"}, {"category": "anti-social-behaviour", "location_type": "Force", "location": {"latitude": "52.965791", "street": {"id": 2245712, "name": "On or near Sports/recreation Area"}, "longitude": "-1.161266"}, "context": "", "outcome_status": null, "persistent_id": "", "id": 124992820, "location_subtype": "", "month": "2024-11"}, {"category": "anti-social-behaviour", "location_type": "Force", "location": {"latitude": "52.953323", "street": {"id": 2247469, "name": "On or near Woolpack Lane"}, "longitude": "-1.141734"}, "context": "", "outcome_status": null, "persistent_id": "", "id": 124992648, "location_subtype": "", "month": "2024-11"}, {"category": "anti-social-behaviour", "location_type": "Force", "location": {"latitude": "52.953179", "street": {"id": 2246892, "name": "On or near South Parade"}, "longitude": "-1.149253"}, "context": "", "outcome_status": null, "persistent_id": "", "id": 124992823, "location_subtype": "", "month": "2024-11"}, {"category": "anti-social-behaviour", "location_type": "Force", "location": {"latitude": "52.953323", "street": {"id": 2247469, "name": "On or near Woolpack Lane"}, "longitude": "-1.141734"}, "context": "", "outcome_status": null, "persistent_id": "", "id": 124992645, "location_subtype": "", "month": "2024-11"}, {"category": "anti-social-behaviour", "location_type": "Force", "location": {"latitude": "52.949344", "street": {"id": 2247084, "name": "On or near Parking Area"}, "longitude": "-1.147141"}, "context": "", "outcome_status": null, "persistent_id": "", "id": 124992643, "location_subtype": "", "month": "2024-11"}, {"category": "anti-social-behaviour", "location_type": "Force", "location": {"latitude": "52.951894", "street": {"id": 2246676, "name": "On or near Spaniel Row"}, "longitude": "-1.151749"}, "context": "", "outcome_status": null, "persistent_id": "", "id": 124992824, "location_subtype": "", "month": "2024-11"}, {"category": "anti-social-behaviour", "location_type": "Force", "location": {"latitude": "52.946661", "street": {"id": 2247292, "name": "On or near Parking Area"}, "longitude": "-1.144157"}, "context": "", "outcome_status": null, "persistent_id": "", "id": 124992640, "location_subtype": "", "month": "2024-11"}, {"category": "anti-social-behaviour", "location_type": "Force", "location": {"latitude": "52.949344", "street": {"id": 2247084, "name": "On or near Parking Area"}, "longitude": "-1.147141"}, "context": "", "outcome_status": null, "persistent_id": "", "id": 124992665, "location_subtype": "", "month": "2024-11"}, {"category": "anti-social-behaviour", "location_type": "Force", "location": {"latitude": "52.954237", "street": {"id": 2247424, "name": "On or near Brightmoor Street"}, "longitude": "-1.142519"}, "context": "", "outcome_status": null, "persistent_id": "", "id": 124992833, "location_subtype": "", "month": "2024-11"}, {"category": "anti-social-behaviour", "location_type": "Force", "location": {"latitude": "52.949646", "street": {"id": 2247017, "name": "On or near Collin Street"}, "longitude": "-1.147938"}, "context": "", "outcome_status": null, "persistent_id": "", "id": 124992668, "location_subtype": "", "month": "2024-11"}, {"category": "anti-social-behaviour", "location_type": "Force", "location": {"latitude": "52.951894", "street": {"id": 2246676, "name": "On or near Spaniel Row"}, "longitude": "-1.151749"}, "context": "", "outcome_status": null, "persistent_id": "", "id": 124992673, "location_subtype": "", "month": "2024-11"}, {"category": "anti-social-behaviour", "location_type": "Force", "location": {"latitude": "52.963444", "street": {"id": 2245492, "name": "On or near Weston Avenue"}, "longitude": "-1.166873"}, "context": "", "outcome_status": null, "persistent_id": "", "id": 124992802, "location_subtype": "", "month": "2024-11"}, {"category": "anti-social-behaviour", "location_type": "Force", "location": {"latitude": "52.953092", "street": {"id": 2247532, "name": "On or near Belward Street"}, "longitude": "-1.140935"}, "context": "", "outcome_status": null, "persistent_id": "", "id": 124992799, "location_subtype": "", "month": "2024-11"}, {"category": "anti-social-behaviour", "location_type": "Force", "location": {"latitude": "52.961669", "street": {"id": 2245382, "name": "On or near Lake Street"}, "longitude": "-1.168872"}, "context": "", "outcome_status": null, "persistent_id": "", "id": 124992793, "location_subtype": "", "month": "2024-11"}, {"category": "anti-social-behaviour", "location_type": "Force", "location": {"latitude": "52.952881", "street": {"id": 2246779, "name": "On or near Bus/coach Station"}, "longitude": "-1.150256"}, "context": "", "outcome_status": null, "persistent_id": "", "id": 124992785, "location_subtype": "", "month": "2024-11"}, {"category": "anti-social-behaviour", "location_type": "Force", "location": {"latitude": "52.949344", "street": {"id": 2247084, "name": "On or near Parking Area"}, "longitude": "-1.147141"}, "context": "", "outcome_status": null, "persistent_id": "", "id": 124992681, "location_subtype": "", "month": "2024-11"}, {"category": "anti-social-behaviour", "location_type": "Force", "location": {"latitude": "52.953648", "street": {"id": 2246876, "name": "On or near Long Row"}, "longitude": "-1.149438"}, "context": "", "outcome_status": null, "persistent_id": "", "id": 124992682, "location_subtype": "", "month": "2024-11"}, {"category": "anti-social-behaviour", "location_type": "Force", "location": {"latitude": "52.953179", "street": {"id": 2246892, "name": "On or near South Parade"}, "longitude": "-1.149253"}, "context": "", "outcome_status": null, "persistent_id": "", "id": 124992784, "location_subtype": "", "month": "2024-11"}, {"category": "anti-social-behaviour", "location_type": "Force", "location": {"latitude": "52.954501", "street": {"id": 2248158, "name": "On or near Westhorpe Avenue"}, "longitude": "-1.129475"}, "context": "", "outcome_status": null, "persistent_id": "", "id": 124992778, "location_subtype": "", "month": "2024-11"}, {"category": "anti-social-behaviour", "location_type": "Force", "location": {"latitude": "52.954363", "street": {"id": 2245668, "name": "On or near Tennis Drive"}, "longitude": "-1.162746"}, "context": "", "outcome_status": null, "persistent_id": "", "id": 124992777, "location_subtype": "", "month": "2024-11"}, {"category": "anti-social-behaviour", "location_type": "Force", "location": {"latitude": "52.963643", "street": {"id": 2247890, "name": "On or near Rushworth Close"}, "longitude": "-1.134338"}, "context": "", "outcome_status": null, "persistent_id": "", "id": 124992723, "location_subtype": "", "month": "2024-11"}, {"category": "anti-social-behaviour", "location_type": "Force", "location": {"latitude": "52.963680", "street": {"id": 2246823, "name": "On or near Egerton Street"}, "longitude": "-1.149375"}, "context": "", "outcome_status": null, "persistent_id": "", "id": 124992725, "location_subtype": "", "month": "2024-11"}, {"category": "anti-social-behaviour", "location_type": "Force", "location": {"latitude": "52.954501", "street": {"id": 2246940, "name": "On or near Maypole Yard"}, "longitude": "-1.148096"}, "context": "", "outcome_status": null, "persistent_id": "", "id": 124992775, "location_subtype": "", "month": "2024-11"}, {"category": "anti-social-behaviour", "location_type": "Force", "location": {"latitude": "52.949571", "street": {"id": 2245719, "name": "On or near Clumber Crescent South"}, "longitude": "-1.164044"}, "context": "", "outcome_status": null, "persistent_id": "", "id": 124992770, "location_subtype": "", "month": "2024-11"}, {"category": "anti-social-behaviour", "location_type": "Force", "location": {"latitude": "52.955488", "street": {"id": 2245638, "name": "On or near Hermon Street"}, "longitude": "-1.164287"}, "context": "", "outcome_status": null, "persistent_id": "", "id": 124992728, "location_subtype": "", "month": "2024-11"}, {"category": "anti-social-behaviour", "location_type": "Force", "location": {"latitude": "52.955093", "street": {"id": 2247127, "name": "On or near Clinton Street East"}, "longitude": "-1.146551"}, "context": "", "outcome_status": null, "persistent_id": "", "id": 124992729, "location_subtype": "", "month": "2024-11"}, {"category": "anti-social-behaviour", "location_type": "Force", "location": {"latitude": "52.950919", "street": {"id": 2246765, "name": "On or near Castle Gate"}, "longitude": "-1.151203"}, "context": "", "outcome_status": null, "persistent_id": "", "id": 124992684, "location_subtype": "", "month": "2024-11"}, {"category": "anti-social-behaviour", "location_type": "Force", "location": {"latitude": "52.956257", "street": {"id": 2246539, "name": "On or near Nightclub"}, "longitude": "-1.153465"}, "context": "", "outcome_status": null, "persistent_id": "", "id": 124992786, "location_subtype": "", "month": "2024-11"}, {"category": "anti-social-behaviour", "location_type": "Force", "location": {"latitude": "52.939405", "street": {"id": 2247121, "name": "On or near Beauvale Road"}, "longitude": "-1.146428"}, "context": "", "outcome_status": null, "persistent_id": "", "id": 124992686, "location_subtype": "", "month": "2024-11"}, {"category": "anti-social-behaviour", "location_type": "Force", "location": {"latitude": "52.949430", "street": {"id": 2247384, "name": "On or near Parking Area"}, "longitude": "-1.141647"}, "context": "", "outcome_status": null, "persistent_id": "", "id": 124992690, "location_subtype": "", "month": "2024-11"}, {"category": "anti-social-behaviour", "location_type": "Force", "location": {"latitude": "52.956257", "street": {"id": 2246539, "name": "On or near Nightclub"}, "longitude": "-1.153465"}, "context": "", "outcome_status": null, "persistent_id": "", "id": 124992662, "location_subtype": "", "month": "2024-11"}, {"category": "anti-social-behaviour", "location_type": "Force", "location": {"latitude": "52.953179", "street": {"id": 2246892, "name": "On or near South Parade"}, "longitude": "-1.149253"}, "context": "", "outcome_status": null, "persistent_id": "", "id": 124992691, "location_subtype": "", "month": "2024-11"}, {"category": "anti-social-behaviour", "location_type": "Force", "location": {"latitude": "52.959064", "street": {"id": 2246970, "name": "On or near Victoria Bus Station"}, "longitude": "-1.148736"}, "context": "", "outcome_status": null, "persistent_id": "", "id": 124992663, "location_subtype": "", "month": "2024-11"}, {"category": "anti-social-behaviour", "location_type": "Force", "location": {"latitude": "52.948697", "street": {"id": 2248278, "name": "On or near Thoresby Avenue"}, "longitude": "-1.128698"}, "context": "", "outcome_status": null, "persistent_id": "", "id": 124992661, "location_subtype": "", "month": "2024-11"}, {"category": "anti-social-behaviour", "location_type": "Force", "location": {"latitude": "52.955971", "street": {"id": 2248319, "name": "On or near Rothley Avenue"}, "longitude": "-1.127585"}, "context": "", "outcome_status": null, "persistent_id": "", "id": 124992658, "location_subtype": "", "month": "2024-11"}, {"category": "anti-social-behaviour", "location_type": "Force", "location": {"latitude": "52.949344", "street": {"id": 2247084, "name": "On or near Parking Area"}, "longitude": "-1.147141"}, "context": "", "outcome_status": null, "persistent_id": "", "id": 124992695, "location_subtype": "", "month": "2024-11"}, {"category": "anti-social-behaviour", "location_type": "Force", "location": {"latitude": "52.953648", "street": {"id": 2246876, "name": "On or near Long Row"}, "longitude": "-1.149438"}, "context": "", "outcome_status": null, "persistent_id": "", "id": 124992701, "location_subtype": "", "month": "2024-11"}, {"category": "anti-social-behaviour", "location_type": "Force", "location": {"latitude": "52.951386", "street": {"id": 2247534, "name": "On or near Hollow Stone"}, "longitude": "-1.141087"}, "context": "", "outcome_status": null, "persistent_id": "", "id": 124992677, "location_subtype": "", "month": "2024-11"}, {"category": "anti-social-behaviour", "location_type": "Force", "location": {"latitude": "52.949344", "street": {"id": 2247084, "name": "On or near Parking Area"}, "longitude": "-1.147141"}, "context": "", "outcome_status": null, "persistent_id": "", "id": 124992676, "location_subtype": "", "month": "2024-11"}, {"category": "anti-social-behaviour", "location_type": "Force", "location": {"latitude": "52.960545", "street": {"id": 2247066, "name": "On or near Palmerston Gardens"}, "longitude": "-1.145982"}, "context": "", "outcome_status": null, "persistent_id": "", "id": 124992655, "location_subtype": "", "month": "2024-11"}, {"category": "anti-social-behaviour", "location_type": "Force", "location": {"latitude": "52.955678", "street": {"id": 2246897, "name": "On or near Trinity Square"}, "longitude": "-1.149219"}, "context": "", "outcome_status": null, "persistent_id": "", "id": 124992715, "location_subtype": "", "month": "2024-11"}, {"category": "anti-social-behaviour", "location_type": "Force", "location": {"latitude": "52.963680", "street": {"id": 2246823, "name": "On or near Egerton Street"}, "longitude": "-1.149375"}, "context": "", "outcome_status": null, "persistent_id": "", "id": 124992718, "location_subtype": "", "month": "2024-11"}, {"category": "anti-social-behaviour", "location_type": "Force", "location": {"latitude": "52.960451", "street": {"id": 2245423, "name": "On or near Ortzen Street"}, "longitude": "-1.168241"}, "context": "", "outcome_status": null, "persistent_id": "", "id": 124992809, "location_subtype": "", "month": "2024-11"}, {"category": "anti-social-behaviour", "location_type": "Force", "location": {"latitude": "52.963848", "street": {"id": 2247653, "name": "On or near Aster Road"}, "longitude": "-1.137714"}, "context": "", "outcome_status": null, "persistent_id": "", "id": 124992651, "location_subtype": "", "month": "2024-11"}, {"category": "bicycle-theft", "location_type": "Force", "location": {"latitude": "52.942819", "street": {"id": 2246191, "name": "On or near Phoenix Close"}, "longitude": "-1.157507"}, "context": "", "outcome_status": {"category": "Investigation complete; no suspect identified", "date": "2024-12"}, "persistent_id": "b5e18494f3198c9ced3e790d3d336aa2df3c17b82668eb5201a3c778ba2ca09b", "id": 124992032, "location_subtype": "", "month": "2024-11"}, {"category": "bicycle-theft", "location_type": "Force", "location": {"latitude": "52.949794", "street": {"id": 2247371, "name": "On or near Shortwood Close"}, "longitude": "-1.143485"}, "context": "", "outcome_status": {"category": "Investigation complete; no suspect identified", "date": "2024-11"}, "persistent_id": "3341660f7030094e3d12c25e1d7073a081f27b058274ea2032ac885cd000f2ff", "id": 124988379, "location_subtype": "", "month": "2024-11"}, {"category": "bicycle-theft", "location_type": "Force", "location": {"latitude": "52.946748", "street": {"id": 2245313, "name": "On or near Chippendale Street"}, "longitude": "-1.169084"}, "context": "", "outcome_status": {"category": "Investigation complete; no suspect identified", "date": "2024-11"}, "persistent_id": "82114daf089d238ac78ca3c925de4a04062c566ca98fc8bff11a6d8ea79af059", "id": 124985326, "location_subtype": "", "month": "2024-11"}, {"category": "bicycle-theft", "location_type": "Force", "location": {"latitude": "52.963385", "street": {"id": 2246048, "name": "On or near Balmoral Road"}, "longitude": "-1.158537"}, "context": "", "outcome_status": {"category": "Investigation complete; no suspect identified", "date": "2024-12"}, "persistent_id": "24b232a25d78497ea68b97b45cf8e794d2980c56d946c11034d06d362cbd9ea4", "id": 124990450, "location_subtype": "", "month": "2024-11"}, {"category": "bicycle-theft", "location_type": "Force", "location": {"latitude": "52.956436", "street": {"id": 2246621, "name": "On or near Further/higher Educational Building"}, "longitude": "-1.152077"}, "context": "", "outcome_status": {"category": "Investigation complete; no suspect identified", "date": "2024-11"}, "persistent_id": "ff199c7859f4ab3333a3a9e5bdfd49317796bcc1da416c7f009f1e7f0e322fa1", "id": 124988483, "location_subtype": "", "month": "2024-11"}, {"category": "bicycle-theft", "location_type": "Force", "location": {"latitude": "52.951740", "street": {"id": 2247420, "name": "On or near Further/higher Educational Building"}, "longitude": "-1.142866"}, "context": "", "outcome_status": {"category": "Investigation complete; no suspect identified", "date": "2024-12"}, "persistent_id": "376066747b99ec90232e1a44137862ac97c940eabcc8378e518af848e55bb822", "id": 124985190, "location_subtype": "", "month": "2024-11"}, {"category": "bicycle-theft", "location_type": "Force", "location": {"latitude": "52.962307", "street": {"id": 2247350, "name": "On or near Hartwell Street"}, "longitude": "-1.143462"}, "context": "", "outcome_status": {"category": "Unable to prosecute suspect", "date": "2024-11"}, "persistent_id": "6c9fc51267c70f6743d441c474dba2e4d55f33660273b0cc57dc6c5fad8bcdf6", "id": 124988403, "location_subtype": "", "month": "2024-11"}, {"category": "bicycle-theft", "location_type": "Force", "location": {"latitude": "52.957573", "street": {"id": 2245743, "name": "On or near Stoneleigh Street"}, "longitude": "-1.162952"}, "context": "", "outcome_status": {"category": "Investigation complete; no suspect identified", "date": "2024-11"}, "persistent_id": "ea6739c5e244ad31ac96c95028a8598976b3736d62b992dd186eebdd15f8dd2c", "id": 124989557, "location_subtype": "", "month": "2024-11"}, {"category": "bicycle-theft", "location_type": "Force", "location": {"latitude": "52.951183", "street": {"id": 2247450, "name": "On or near Short Hill"}, "longitude": "-1.141657"}, "context": "", "outcome_status": {"category": "Investigation complete; no suspect identified", "date": "2024-11"}, "persistent_id": "fdd1e913fb4b1b49674ff22197a07ebf9c43b646a3d2e7e572cfe0f429c38c94", "id": 124992308, "location_subtype": "", "month": "2024-11"}, {"category": "bicycle-theft", "location_type": "Force", "location": {"latitude": "52.956673", "street": {"id": 2245747, "name": "On or near Wood Street"}, "longitude": "-1.163981"}, "context": "", "outcome_status": {"category": "Investigation complete; no suspect identified", "date": "2024-12"}, "persistent_id": "3474ec41de1b64a3b2b7878f30f43b6b217afea9545ebf1bf365106b125a5710", "id": 124988041, "location_subtype": "", "month": "2024-11"}, {"category": "bicycle-theft", "location_type": "Force", "location": {"latitude": "52.956436", "street": {"id": 2246621, "name": "On or near Further/higher Educational Building"}, "longitude": "-1.152077"}, "context": "", "outcome_status": {"category": "Investigation complete; no suspect identified", "date": "2024-12"}, "persistent_id": "fbfbec02b3081981c87f972cd52038d016dda172bc2ffc9388fed465bc2d6bd1", "id": 124990197, "location_subtype": "", "month": "2024-11"}, {"category": "bicycle-theft", "location_type": "Force", "location": {"latitude": "52.954501", "street": {"id": 2246940, "name": "On or near Maypole Yard"}, "longitude": "-1.148096"}, "context": "", "outcome_status": {"category": "Investigation complete; no suspect identified", "date": "2024-11"}, "persistent_id": "07065f77380b9f247b5fef53f9d80b332f384d62e702e28cbca37ad68133ec15", "id": 124987919, "location_subtype": "", "month": "2024-11"}, {"category": "bicycle-theft", "location_type": "Force", "location": {"latitude": "52.966132", "street": {"id": 2246672, "name": "On or near Chestnut Grove"}, "longitude": "-1.151635"}, "context": "", "outcome_status": {"category": "Investigation complete; no suspect identified", "date": "2024-12"}, "persistent_id": "405341584b3037d7d5e78a9c3cad7f1287f5ab7e5701de612f0a8dc19122b749", "id": 124985554, "location_subtype": "", "month": "2024-11"}, {"category": "burglary", "location_type": "Force", "location": {"latitude": "52.952466", "street": {"id": 2246836, "name": "On or near Wheeler Gate"}, "longitude": "-1.150131"}, "context": "", "outcome_status": {"category": "Unable to prosecute suspect", "date": "2024-11"}, "persistent_id": "7aa9719e5281408376e3ee2a15d25fb3904198b56e62810f205ae524b0e62b65", "id": 124990499, "location_subtype": "", "month": "2024-11"}, {"category": "burglary", "location_type": "Force", "location": {"latitude": "52.963596", "street": {"id": 2246526, "name": "On or near Colville Street"}, "longitude": "-1.154066"}, "context": "", "outcome_status": {"category": "Investigation complete; no suspect identified", "date": "2024-11"}, "persistent_id": "847c61244ab261fc365f88998b3c04706e060c7a766bf025c481ab01ffc065dc", "id": 124984589, "location_subtype": "", "month": "2024-11"}, {"category": "burglary", "location_type": "Force", "location": {"latitude": "52.963472", "street": {"id": 2246513, "name": "On or near Tudor Grove"}, "longitude": "-1.154203"}, "context": "", "outcome_status": {"category": "Investigation complete; no suspect identified", "date": "2024-12"}, "persistent_id": "eeacf7fbc289dfc94934ab756e6a0e2534000ba58cda485e42225d1d07a76280", "id": 124987475, "location_subtype": "", "month": "2024-11"}, {"category": "burglary", "location_type": "Force", "location": {"latitude": "52.953842", "street": {"id": 2246586, "name": "On or near Angel Row"}, "longitude": "-1.152649"}, "context": "", "outcome_status": {"category": "Investigation complete; no suspect identified", "date": "2025-01"}, "persistent_id": "7521a4c210cc14cba5107341d5a25a8cfc90bb4b1a404386a3f56b23601fdb61", "id": 124987392, "location_subtype": "", "month": "2024-11"}, {"category": "burglary", "location_type": "Force", "location": {"latitude": "52.957912", "street": {"id": 2246880, "name": "On or near Peachey Street"}, "longitude": "-1.149845"}, "context": "", "outcome_status": {"category": "Under investigation", "date": "2024-11"}, "persistent_id": "604ac5634cdfa4a32f1d25eab9e9e44449ceea12fb5bdd3899b7dc033e748412", "id": 124990933, "location_subtype": "", "month": "2024-11"}, {"category": "burglary", "location_type": "Force", "location": {"latitude": "52.959177", "street": {"id": 2245911, "name": "On or near Oliver Close"}, "longitude": "-1.160852"}, "context": "", "outcome_status": {"category": "Investigation complete; no suspect identified", "date": "2024-12"}, "persistent_id": "befd52180c980510a5eedb2acd42a723da920ceae416d16b8039728d5490f304", "id": 124990870, "location_subtype": "", "month": "2024-11"}, {"category": "burglary", "location_type": "Force", "location": {"latitude": "52.951894", "street": {"id": 2246676, "name": "On or near Spaniel Row"}, "longitude": "-1.151749"}, "context": "", "outcome_status": {"category": "Investigation complete; no suspect identified", "date": "2024-12"}, "persistent_id": "f8e0e18f19c511332411efc179721f3bebde0c1f9338365134aa3e6b78015da4", "id": 124990821, "location_subtype": "", "month": "2024-11"}, {"category": "burglary", "location_type": "Force", "location": {"latitude": "52.953688", "street": {"id": 2247042, "name": "On or near High Street"}, "longitude": "-1.147502"}, "context": "", "outcome_status": {"category": "Unable to prosecute suspect", "date": "2024-11"}, "persistent_id": "ed263f5ee78d0b5d2a58fcd2d4470715dbe18a8a6cf6aad48745654c36c763cc", "id": 124990438, "location_subtype": "", "month": "2024-11"}, {"category": "burglary", "location_type": "Force", "location": {"latitude": "52.959193", "street": {"id": 2246528, "name": "On or near Dryden Street"}, "longitude": "-1.152961"}, "context": "", "outcome_status": {"category": "Investigation complete; no suspect identified", "date": "2024-12"}, "persistent_id": "3be7c4d52aaaa9757ac8fc7de7cac507fa2eca3e02b468dcd08ee492e94fbc22", "id": 124991131, "location_subtype": "", "month": "2024-11"}, {"category": "burglary", "location_type": "Force", "location": {"latitude": "52.960545", "street": {"id": 2247066, "name": "On or near Palmerston Gardens"}, "longitude": "-1.145982"}, "context": "", "outcome_status": {"category": "Investigation complete; no suspect identified", "date": "2024-12"}, "persistent_id": "24d55815eab7de57675492e23f53d3b201bbcb143e4b667087f505bc06dcf424", "id": 124984505, "location_subtype": "", "month": "2024-11"}, {"category": "burglary", "location_type": "Force", "location": {"latitude": "52.954476", "street": {"id": 2245191, "name": "On or near Kimbolton Avenue"}, "longitude": "-1.171243"}, "context": "", "outcome_status": {"category": "Investigation complete; no suspect identified", "date": "2024-11"}, "persistent_id": "848075a9c493d5af94aa9f739ff9d52922044df6536b161f182d77dd09bd8589", "id": 124991035, "location_subtype": "", "month": "2024-11"}, {"category": "burglary", "location_type": "Force", "location": {"latitude": "52.960546", "street": {"id": 2245243, "name": "On or near Ossington Street"}, "longitude": "-1.170293"}, "context": "", "outcome_status": {"category": "Unable to prosecute suspect", "date": "2024-12"}, "persistent_id": "4e8468067dbd1e72785fdc30d4a782b834ec3436bb9b392532b26966973a1be0", "id": 124984541, "location_subtype": "", "month": "2024-11"}, {"category": "burglary", "location_type": "Force", "location": {"latitude": "52.945508", "street": {"id": 2245995, "name": "On or near Tinkersway"}, "longitude": "-1.160119"}, "context": "", "outcome_status": {"category": "Investigation complete; no suspect identified", "date": "2024-11"}, "persistent_id": "e77941c2136b23e03e69fa22ecc98e8fec014907d52d1741692ecc05e7032b7e", "id": 124991019, "location_subtype": "", "month": "2024-11"}, {"category": "burglary", "location_type": "Force", "location": {"latitude": "52.961669", "street": {"id": 2245382, "name": "On or near Lake Street"}, "longitude": "-1.168872"}, "context": "", "outcome_status": {"category": "Under investigation", "date": "2024-11"}, "persistent_id": "933c4051525b44b7ac331f40f316b1f5d9d22d0940ca33b327f4f83ae638a4b8", "id": 124984719, "location_subtype": "", "month": "2024-11"}, {"category": "burglary", "location_type": "Force", "location": {"latitude": "52.953842", "street": {"id": 2246586, "name": "On or near Angel Row"}, "longitude": "-1.152649"}, "context": "", "outcome_status": {"category": "Investigation complete; no suspect identified", "date": "2024-11"}, "persistent_id": "4b10d4e447b34d3653e8e49582422ebff608071f1a776bec654b2f4a9743373a", "id": 124984504, "location_subtype": "", "month": "2024-11"}, {"category": "burglary", "location_type": "Force", "location": {"latitude": "52.954501", "street": {"id": 2246940, "name": "On or near Maypole Yard"}, "longitude": "-1.148096"}, "context": "", "outcome_status": {"category": "Investigation complete; no suspect identified", "date": "2024-12"}, "persistent_id": "86cf3b70b1a9894c105c5090384ba02e9d6c5174599009a591df3dd3423a9a49", "id": 124989356, "location_subtype": "", "month": "2024-11"}, {"category": "burglary", "location_type": "Force", "location": {"latitude": "52.955101", "street": {"id": 2245349, "name": "On or near Balfour Road"}, "longitude": "-1.169281"}, "context": "", "outcome_status": {"category": "Investigation complete; no suspect identified", "date": "2024-11"}, "persistent_id": "efafeb3f1ed1c6a0f8563e39eb80941cf1a983bd7d690ba25dc73c111ea882f8", "id": 124984484, "location_subtype": "", "month": "2024-11"}, {"category": "burglary", "location_type": "Force", "location": {"latitude": "52.959193", "street": {"id": 2246528, "name": "On or near Dryden Street"}, "longitude": "-1.152961"}, "context": "", "outcome_status": {"category": "Investigation complete; no suspect identified", "date": "2024-12"}, "persistent_id": "15884d6bdd6112c0c23fd3d82100801f12d411b71255c2c698dc4c9a82b37a90", "id": 124990731, "location_subtype": "", "month": "2024-11"}, {"category": "burglary", "location_type": "Force", "location": {"latitude": "52.955491", "street": {"id": 2247144, "name": "On or near Clare Street"}, "longitude": "-1.145725"}, "context": "", "outcome_status": {"category": "Investigation complete; no suspect identified", "date": "2025-01"}, "persistent_id": "ab40a68886badd20ab28dd29a88d71b0d3163da7ee887bff0e0128ab3d9d62ef", "id": 124990073, "location_subtype": "", "month": "2024-11"}, {"category": "burglary", "location_type": "Force", "location": {"latitude": "52.964061", "street": {"id": 2247625, "name": "On or near Primrose Close"}, "longitude": "-1.139943"}, "context": "", "outcome_status": {"category": "Investigation complete; no suspect identified", "date": "2024-12"}, "persistent_id": "aaa4efef06215ef5fe76e5c9b467277d4aa445cccf176205803a953601c7d047", "id": 124989443, "location_subtype": "", "month": "2024-11"}, {"category": "burglary", "location_type": "Force", "location": {"latitude": "52.950122", "street": {"id": 2247958, "name": "On or near Newark Crescent"}, "longitude": "-1.132941"}, "context": "", "outcome_status": {"category": "Investigation complete; no suspect identified", "date": "2024-12"}, "persistent_id": "109c7a8d7e1a5bab935dfe57fa0eac7323d459d004d6b15aae540f6366a90ffa", "id": 124989852, "location_subtype": "", "month": "2024-11"}, {"category": "burglary", "location_type": "Force", "location": {"latitude": "52.959611", "street": {"id": 2245454, "name": "On or near Sunbourne Court"}, "longitude": "-1.167632"}, "context": "", "outcome_status": {"category": "Investigation complete; no suspect identified", "date": "2024-12"}, "persistent_id": "3ee146de6e6c8b48efa02c75df326465f6be110e2c4bff75639ca5c96e5b7231", "id": 124985537, "location_subtype": "", "month": "2024-11"}, {"category": "burglary", "location_type": "Force", "location": {"latitude": "52.957205", "street": {"id": 2245497, "name": "On or near Highurst Street"}, "longitude": "-1.166800"}, "context": "", "outcome_status": {"category": "Under investigation", "date": "2024-11"}, "persistent_id": "85dafd86220c3e125dc31c5490a30c6befbd79b46d6cb78bec36c3d3bbf4ab09", "id": 124985928, "location_subtype": "", "month": "2024-11"}, {"category": "burglary", "location_type": "Force", "location": {"latitude": "52.951996", "street": {"id": 2247091, "name": "On or near Pepper Street"}, "longitude": "-1.147148"}, "context": "", "outcome_status": {"category": "Investigation complete; no suspect identified", "date": "2024-12"}, "persistent_id": "15786619806404009676fb9ded5b81b0c9d349786283962a5ca924967daa9430", "id": 124987144, "location_subtype": "", "month": "2024-11"}, {"category": "burglary", "location_type": "Force", "location": {"latitude": "52.957912", "street": {"id": 2246880, "name": "On or near Peachey Street"}, "longitude": "-1.149845"}, "context": "", "outcome_status": {"category": "Investigation complete; no suspect identified", "date": "2024-12"}, "persistent_id": "08c9ee4712528ad040ab77179a30694f9b1a5e1b6aa20ef751d2cc10f2d191c2", "id": 124990279, "location_subtype": "", "month": "2024-11"}, {"category": "burglary", "location_type": "Force", "location": {"latitude": "52.954396", "street": {"id": 2245514, "name": "On or near Western Terrace"}, "longitude": "-1.166199"}, "context": "", "outcome_status": {"category": "Investigation complete; no suspect identified", "date": "2024-12"}, "persistent_id": "1da837ed49060735db07f9d6a496fc6aaee9f64e62a8e96885700fcbda39953c", "id": 124987228, "location_subtype": "", "month": "2024-11"}, {"category": "burglary", "location_type": "Force", "location": {"latitude": "52.947369", "street": {"id": 2245312, "name": "On or near Park Road"}, "longitude": "-1.169146"}, "context": "", "outcome_status": {"category": "Investigation complete; no suspect identified", "date": "2024-11"}, "persistent_id": "287a99a96de172a36916115c5c07376b5bc8d7ed82fb52d2fdfcde38290a7216", "id": 124989245, "location_subtype": "", "month": "2024-11"}, {"category": "burglary", "location_type": "Force", "location": {"latitude": "52.955282", "street": {"id": 2245891, "name": "On or near Cottage Terrace"}, "longitude": "-1.160555"}, "context": "", "outcome_status": {"category": "Awaiting court outcome", "date": "2025-01"}, "persistent_id": "05b2336c4ded83be4fcda2a44a50260c823d122d548dd6ee2db6c1ebc4fb0a45", "id": 124990623, "location_subtype": "", "month": "2024-11"}, {"category": "burglary", "location_type": "Force", "location": {"latitude": "52.955678", "street": {"id": 2246897, "name": "On or near Trinity Square"}, "longitude": "-1.149219"}, "context": "", "outcome_status": {"category": "Awaiting court outcome", "date": "2024-12"}, "persistent_id": "c256df5cd5122996ae84c7e3464f6af92f972b290161f0475caca5575d05c14a", "id": 124988602, "location_subtype": "", "month": "2024-11"}, {"category": "burglary", "location_type": "Force", "location": {"latitude": "52.953179", "street": {"id": 2246892, "name": "On or near South Parade"}, "longitude": "-1.149253"}, "context": "", "outcome_status": {"category": "Awaiting court outcome", "date": "2024-11"}, "persistent_id": "56d5a716162fa817e6686e3c0c6387e8712440019e564b5b4f391c554df5c699", "id": 124988543, "location_subtype": "", "month": "2024-11"}, {"category": "burglary", "location_type": "Force", "location": {"latitude": "52.953323", "street": {"id": 2247469, "name": "On or near Woolpack Lane"}, "longitude": "-1.141734"}, "context": "", "outcome_status": {"category": "Unable to prosecute suspect", "date": "2025-01"}, "persistent_id": "e909ced136274d1a63038110476a0562ca3755a1ffbc2afdfcae3afb4d2f690d", "id": 124986412, "location_subtype": "", "month": "2024-11"}, {"category": "burglary", "location_type": "Force", "location": {"latitude": "52.954374", "street": {"id": 2246431, "name": "On or near Theme/adventure Park"}, "longitude": "-1.154231"}, "context": "", "outcome_status": {"category": "Investigation complete; no suspect identified", "date": "2025-01"}, "persistent_id": "5b907be05ff03c7d0237118882e40b926c599b4118aef3cbf1abd83de8a9502a", "id": 124992515, "location_subtype": "", "month": "2024-11"}, {"category": "burglary", "location_type": "Force", "location": {"latitude": "52.955231", "street": {"id": 2245397, "name": "On or near Douglas Road"}, "longitude": "-1.168549"}, "context": "", "outcome_status": {"category": "Investigation complete; no suspect identified", "date": "2024-11"}, "persistent_id": "8768b563a77c20ee9eeec8ce12cd429818cb91c3638252dc0c18db48138a4e66", "id": 124991201, "location_subtype": "", "month": "2024-11"}, {"category": "burglary", "location_type": "Force", "location": {"latitude": "52.945592", "street": {"id": 2246742, "name": "On or near Traffic Street"}, "longitude": "-1.150533"}, "context": "", "outcome_status": {"category": "Investigation complete; no suspect identified", "date": "2024-11"}, "persistent_id": "d16d8b80d62609ddc82fcdfcc7f9f83a4fa896db902f8e0be49ab8fbe460264f", "id": 124990978, "location_subtype": "", "month": "2024-11"}, {"category": "burglary", "location_type": "Force", "location": {"latitude": "52.958729", "street": {"id": 2245401, "name": "On or near Kapwood Close"}, "longitude": "-1.168735"}, "context": "", "outcome_status": {"category": "Investigation complete; no suspect identified", "date": "2024-11"}, "persistent_id": "b9381db832bd28d086607257aa6447a359f7b824cada0e9684f8b51189851889", "id": 124987949, "location_subtype": "", "month": "2024-11"}, {"category": "burglary", "location_type": "Force", "location": {"latitude": "52.957721", "street": {"id": 2247219, "name": "On or near St Marks Street"}, "longitude": "-1.144564"}, "context": "", "outcome_status": {"category": "Unable to prosecute suspect", "date": "2025-01"}, "persistent_id": "c5e61dec6a96de7161441898d8c7d2060aba5d0208ca8c86483a06ff6d599c19", "id": 124991810, "location_subtype": "", "month": "2024-11"}, {"category": "burglary", "location_type": "Force", "location": {"latitude": "52.954501", "street": {"id": 2246940, "name": "On or near Maypole Yard"}, "longitude": "-1.148096"}, "context": "", "outcome_status": {"category": "Under investigation", "date": "2024-11"}, "persistent_id": "86cf3b70b1a9894c105c5090384ba02e9d6c5174599009a591df3dd3423a9a49", "id": 124989355, "location_subtype": "", "month": "2024-11"}, {"category": "burglary", "location_type": "Force", "location": {"latitude": "52.951797", "street": {"id": 2246928, "name": "On or near Shopping Area"}, "longitude": "-1.148313"}, "context": "", "outcome_status": {"category": "Investigation complete; no suspect identified", "date": "2024-11"}, "persistent_id": "6573adb4b2372f74269a676981b129bf30835dc7f9961beeb350df381937885c", "id": 124987642, "location_subtype": "", "month": "2024-11"}, {"category": "burglary", "location_type": "Force", "location": {"latitude": "52.956257", "street": {"id": 2246539, "name": "On or near Nightclub"}, "longitude": "-1.153465"}, "context": "", "outcome_status": {"category": "Awaiting court outcome", "date": "2024-11"}, "persistent_id": "b8fed77d819d99f3c2fd9a18c926885b95e3fc846645e0e54a463cc2c41dfb60", "id": 124987613, "location_subtype": "", "month": "2024-11"}, {"category": "burglary", "location_type": "Force", "location": {"latitude": "52.955678", "street": {"id": 2246897, "name": "On or near Trinity Square"}, "longitude": "-1.149219"}, "context": "", "outcome_status": {"category": "Awaiting court outcome", "date": "2024-11"}, "persistent_id": "079eedf485917846676c6e8933c90435d370836451b21cfa746eca9598271991", "id": 124985414, "location_subtype": "", "month": "2024-11"}, {"category": "burglary", "location_type": "Force", "location": {"latitude": "52.956789", "street": {"id": 2245588, "name": "On or near Moorgate Street"}, "longitude": "-1.165170"}, "context": "", "outcome_status": {"category": "Investigation complete; no suspect identified", "date": "2024-11"}, "persistent_id": "03fc5ee81af23537b5c9cdf031b3910c4d8616592eaaf8dca23cc61e33c07476", "id": 124986341, "location_subtype": "", "month": "2024-11"}, {"category": "burglary", "location_type": "Force", "location": {"latitude": "52.956563", "street": {"id": 2247074, "name": "On or near Parking Area"}, "longitude": "-1.147326"}, "context": "", "outcome_status": {"category": "Investigation complete; no suspect identified", "date": "2024-12"}, "persistent_id": "fc5c6a3b5353555237a4b7c99c1e878f8305607e8f38b7033447b845d7eae3f5", "id": 124991611, "location_subtype": "", "month": "2024-11"}, {"category": "burglary", "location_type": "Force", "location": {"latitude": "52.955678", "street": {"id": 2246897, "name": "On or near Trinity Square"}, "longitude": "-1.149219"}, "context": "", "outcome_status": {"category": "Awaiting court outcome", "date": "2024-11"}, "persistent_id": "ecd653b67fd148b88196c51703c1ed6ea60fe25a869e42d67ad554ecc18ba408", "id": 124986130, "location_subtype": "", "month": "2024-11"}, {"category": "burglary", "location_type": "Force", "location": {"latitude": "52.951788", "street": {"id": 2247378, "name": "On or near Broadway"}, "longitude": "-1.143357"}, "context": "", "outcome_status": {"category": "Investigation complete; no suspect identified", "date": "2024-12"}, "persistent_id": "9cfcf02d183e826194b45a24ab1015c78707a7892e96b57fd4394acf9acd62a8", "id": 124991354, "location_subtype": "", "month": "2024-11"}, {"category": "burglary", "location_type": "Force", "location": {"latitude": "52.957109", "street": {"id": 2245193, "name": "On or near Garden Street"}, "longitude": "-1.171074"}, "context": "", "outcome_status": {"category": "Investigation complete; no suspect identified", "date": "2024-11"}, "persistent_id": "782d0ffaf6ad0cdd4743686a86024f3ce2398a0625db85394cce5a304cd03cf1", "id": 124985799, "location_subtype": "", "month": "2024-11"}, {"category": "burglary", "location_type": "Force", "location": {"latitude": "52.959193", "street": {"id": 2246528, "name": "On or near Dryden Street"}, "longitude": "-1.152961"}, "context": "", "outcome_status": {"category": "Investigation complete; no suspect identified", "date": "2024-12"}, "persistent_id": "36212c00958b669488a1223918fb7eceb10bbf09d4aec18921d80355a5c916dd", "id": 124991230, "location_subtype": "", "month": "2024-11"}, {"category": "burglary", "location_type": "Force", "location": {"latitude": "52.957965", "street": {"id": 2247370, "name": "On or near Curzon Street"}, "longitude": "-1.143428"}, "context": "", "outcome_status": {"category": "Investigation complete; no suspect identified", "date": "2024-11"}, "persistent_id": "afdcf6bae3a5ee24c14059a4bd1dd418093e4284a2b3bcf3f7ed8ec79f21f93b", "id": 124985233, "location_subtype": "", "month": "2024-11"}, {"category": "burglary", "location_type": "Force", "location": {"latitude": "52.948796", "street": {"id": 2247777, "name": "On or near Sneinton Hermitage"}, "longitude": "-1.133533"}, "context": "", "outcome_status": {"category": "Investigation complete; no suspect identified", "date": "2024-12"}, "persistent_id": "d3860141e56673ceebb801c4622c2ba9a1d87ffab6df4b01ff87fe5df63ad1e8", "id": 124991095, "location_subtype": "", "month": "2024-11"}, {"category": "burglary", "location_type": "Force", "location": {"latitude": "52.961195", "street": {"id": 2245539, "name": "On or near Forest Road West"}, "longitude": "-1.165338"}, "context": "", "outcome_status": {"category": "Awaiting court outcome", "date": "2024-11"}, "persistent_id": "0cd62baffc66104dc8eb911e130b3a0042f51bb0f51c787e67e37b3e63b6c2a1", "id": 124985001, "location_subtype": "", "month": "2024-11"}, {"category": "burglary", "location_type": "Force", "location": {"latitude": "52.958907", "street": {"id": 2245988, "name": "On or near Oliver Street"}, "longitude": "-1.160842"}, "context": "", "outcome_status": {"category": "Investigation complete; no suspect identified", "date": "2024-11"}, "persistent_id": "ff4a557bb33ef297b01ebf0c882e0ff4c04c7f85b2bf65a6ed54db130987d848", "id": 124984690, "location_subtype": "", "month": "2024-11"}, {"category": "burglary", "location_type": "Force", "location": {"latitude": "52.961821", "street": {"id": 2246756, "name": "On or near Frogmore Street"}, "longitude": "-1.150930"}, "context": "", "outcome_status": {"category": "Investigation complete; no suspect identified", "date": "2024-11"}, "persistent_id": "51ad4ab0dc833f7e210b11a53fa327a8bfd73d330f01a1d6e0799459b2812135", "id": 124984658, "location_subtype": "", "month": "2024-11"}, {"category": "criminal-damage-arson", "location_type": "Force", "location": {"latitude": "52.955678", "street": {"id": 2246897, "name": "On or near Trinity Square"}, "longitude": "-1.149219"}, "context": "", "outcome_status": {"category": "Investigation complete; no suspect identified", "date": "2024-12"}, "persistent_id": "d427bed0149daedcb14839cb512b35764bc7a46bd1ad26d3261c79b233b1a17b", "id": 124985814, "location_subtype": "", "month": "2024-11"}, {"category": "criminal-damage-arson", "location_type": "Force", "location": {"latitude": "52.945211", "street": {"id": 2246701, "name": "On or near Waterway Street West"}, "longitude": "-1.151300"}, "context": "", "outcome_status": {"category": "Awaiting court outcome", "date": "2024-11"}, "persistent_id": "9370e9d985de7a6a8acbefb7fd6e9c0285a3718a4a94716a71434768b340723d", "id": 124986032, "location_subtype": "", "month": "2024-11"}, {"category": "criminal-damage-arson", "location_type": "Force", "location": {"latitude": "52.949430", "street": {"id": 2247384, "name": "On or near Parking Area"}, "longitude": "-1.141647"}, "context": "", "outcome_status": {"category": "Investigation complete; no suspect identified", "date": "2024-11"}, "persistent_id": "d9aa9381f3e31b6ac85a7b04999c07d8589aefd8df7e915afe56629f1140fbcc", "id": 124988267, "location_subtype": "", "month": "2024-11"}, {"category": "criminal-damage-arson", "location_type": "Force", "location": {"latitude": "52.966702", "street": {"id": 2247270, "name": "On or near Plowright Street"}, "longitude": "-1.144640"}, "context": "", "outcome_status": {"category": "Under investigation", "date": "2024-11"}, "persistent_id": "e1b33809c0928e91e96c34f19f8ab6a5a2beb46bcbe742ba4bb64352b2913420", "id": 124992319, "location_subtype": "", "month": "2024-11"}, {"category": "criminal-damage-arson", "location_type": "Force", "location": {"latitude": "52.958737", "street": {"id": 2247051, "name": "On or near Cairns Street"}, "longitude": "-1.147075"}, "context": "", "outcome_status": {"category": "Investigation complete; no suspect identified", "date": "2024-11"}, "persistent_id": "f59b844216017ddeafd9c4c4225493c55a984406efeb3b431c17bc212a7e64ba", "id": 124985595, "location_subtype": "", "month": "2024-11"}, {"category": "criminal-damage-arson", "location_type": "Force", "location": {"latitude": "52.958737", "street": {"id": 2247051, "name": "On or near Cairns Street"}, "longitude": "-1.147075"}, "context": "", "outcome_status": {"category": "Investigation complete; no suspect identified", "date": "2024-12"}, "persistent_id": "d314d539c3d5d7bf67767adb397f4115c9b9e07901f39cbcbcb085312c0a70f2", "id": 124987687, "location_subtype": "", "month": "2024-11"}, {"category": "criminal-damage-arson", "location_type": "Force", "location": {"latitude": "52.955184", "street": {"id": 2246044, "name": "On or near Derby Street"}, "longitude": "-1.158130"}, "context": "", "outcome_status": {"category": "Investigation complete; no suspect identified", "date": "2024-12"}, "persistent_id": "c92a74de391dbd3ea101b78cfc8ec89686ce090280da4dbad8ef01c075596e0e", "id": 124990958, "location_subtype": "", "month": "2024-11"}, {"category": "criminal-damage-arson", "location_type": "Force", "location": {"latitude": "52.955856", "street": {"id": 2247369, "name": "On or near Beck Street"}, "longitude": "-1.142770"}, "context": "", "outcome_status": {"category": "Investigation complete; no suspect identified", "date": "2024-11"}, "persistent_id": "51e8711c1a5c81336e7b7a70c2635722cb7ce4e9dbe0e52b8f44b0d18ae577e4", "id": 124988013, "location_subtype": "", "month": "2024-11"}, {"category": "criminal-damage-arson", "location_type": "Force", "location": {"latitude": "52.949430", "street": {"id": 2247384, "name": "On or near Parking Area"}, "longitude": "-1.141647"}, "context": "", "outcome_status": {"category": "Awaiting court outcome", "date": "2024-11"}, "persistent_id": "365cf7342f19a249de0965fbd8f1623737ff832c3822d67384429c83833ba0a2", "id": 124987989, "location_subtype": "", "month": "2024-11"}, {"category": "criminal-damage-arson", "location_type": "Force", "location": {"latitude": "52.954396", "street": {"id": 2245514, "name": "On or near Western Terrace"}, "longitude": "-1.166199"}, "context": "", "outcome_status": {"category": "Under investigation", "date": "2024-11"}, "persistent_id": "36a0f694f05ff210ce40695e8704fb444874bc66719836f141c0bdd53de30ce1", "id": 124987423, "location_subtype": "", "month": "2024-11"}, {"category": "criminal-damage-arson", "location_type": "Force", "location": {"latitude": "52.955325", "street": {"id": 2246749, "name": "On or near Theatre/concert Hall"}, "longitude": "-1.151385"}, "context": "", "outcome_status": {"category": "Unable to prosecute suspect", "date": "2024-11"}, "persistent_id": "1b1fa6da7ea47539af47e6a96486811471e392084498e1c061fbd5d1c80337dd", "id": 124985016, "location_subtype": "", "month": "2024-11"}, {"category": "criminal-damage-arson", "location_type": "Force", "location": {"latitude": "52.958809", "street": {"id": 2246894, "name": "On or near Major Street"}, "longitude": "-1.149619"}, "context": "", "outcome_status": {"category": "Under investigation", "date": "2024-11"}, "persistent_id": "ea54066a8cbd91f3ae34cb8e8cc142fb705192a32b0bdb6dd5117b9327c8fc6b", "id": 124992445, "location_subtype": "", "month": "2024-11"}, {"category": "criminal-damage-arson", "location_type": "Force", "location": {"latitude": "52.954374", "street": {"id": 2246431, "name": "On or near Theme/adventure Park"}, "longitude": "-1.154231"}, "context": "", "outcome_status": {"category": "Investigation complete; no suspect identified", "date": "2024-11"}, "persistent_id": "f817805620512744c2187676ea23dffb20bee2ae2247772f298cc9816e2f6028", "id": 124984891, "location_subtype": "", "month": "2024-11"}, {"category": "criminal-damage-arson", "location_type": "Force", "location": {"latitude": "52.959023", "street": {"id": 2247106, "name": "On or near Huntingdon Street"}, "longitude": "-1.146846"}, "context": "", "outcome_status": {"category": "Investigation complete; no suspect identified", "date": "2024-11"}, "persistent_id": "389dcc627de40e2ba47d03d6dfb44fae94056f0a751da656e22c46795ebbd866", "id": 124989548, "location_subtype": "", "month": "2024-11"}, {"category": "criminal-damage-arson", "location_type": "Force", "location": {"latitude": "52.966853", "street": {"id": 2247411, "name": "On or near Linden Street"}, "longitude": "-1.141853"}, "context": "", "outcome_status": {"category": "Investigation complete; no suspect identified", "date": "2024-11"}, "persistent_id": "72f8d9949ccb21b0de5c165562a7fd1089d000dc48db41496159a455148414f3", "id": 124985243, "location_subtype": "", "month": "2024-11"}, {"category": "criminal-damage-arson", "location_type": "Force", "location": {"latitude": "52.951639", "street": {"id": 2247180, "name": "On or near Theatre/concert Hall"}, "longitude": "-1.145071"}, "context": "", "outcome_status": {"category": "Investigation complete; no suspect identified", "date": "2024-12"}, "persistent_id": "ecf9a7d019769e87916e5ae455745a4ee6cbd8eb13cd92451a146d1d59dd1887", "id": 124985551, "location_subtype": "", "month": "2024-11"}, {"category": "criminal-damage-arson", "location_type": "Force", "location": {"latitude": "52.954716", "street": {"id": 2247760, "name": "On or near Longden Street"}, "longitude": "-1.136720"}, "context": "", "outcome_status": {"category": "Investigation complete; no suspect identified", "date": "2024-11"}, "persistent_id": "d7052c4f863e4753a954a90acc043300d0bfebcfa54874a8e88b316010ef26f4", "id": 124991431, "location_subtype": "", "month": "2024-11"}, {"category": "criminal-damage-arson", "location_type": "Force", "location": {"latitude": "52.954489", "street": {"id": 2247142, "name": "On or near Lincoln Street"}, "longitude": "-1.146414"}, "context": "", "outcome_status": {"category": "Investigation complete; no suspect identified", "date": "2025-01"}, "persistent_id": "71254d5698b22b4dba793e74bbf57d8b3e91d3ce45d53b20026e8632e6230b6a", "id": 124992531, "location_subtype": "", "month": "2024-11"}, {"category": "criminal-damage-arson", "location_type": "Force", "location": {"latitude": "52.954885", "street": {"id": 2246738, "name": "On or near Upper Parliament Street"}, "longitude": "-1.151497"}, "context": "", "outcome_status": {"category": "Investigation complete; no suspect identified", "date": "2024-11"}, "persistent_id": "b1d5c555ce40a07c58745a44ae38c92b1c09b2c0f6bf5a09474c33848ac8d265", "id": 124987685, "location_subtype": "", "month": "2024-11"}, {"category": "criminal-damage-arson", "location_type": "Force", "location": {"latitude": "52.965787", "street": {"id": 2247582, "name": "On or near Heather Close"}, "longitude": "-1.139924"}, "context": "", "outcome_status": {"category": "Investigation complete; no suspect identified", "date": "2024-12"}, "persistent_id": "862c5a8b82dc8eefae8b9716044fefb5d3a3bf9b2b65a6055498fac45b7edeea", "id": 124991080, "location_subtype": "", "month": "2024-11"}, {"category": "criminal-damage-arson", "location_type": "Force", "location": {"latitude": "52.952145", "street": {"id": 2245083, "name": "On or near Welby Avenue"}, "longitude": "-1.172106"}, "context": "", "outcome_status": {"category": "Investigation complete; no suspect identified", "date": "2024-11"}, "persistent_id": "b5da92aace0e649f4570455f4804bc78c332089ee6bd49b7880b0561331ab820", "id": 124990176, "location_subtype": "", "month": "2024-11"}, {"category": "criminal-damage-arson", "location_type": "Force", "location": {"latitude": "52.952312", "street": {"id": 2247367, "name": "On or near Parking Area"}, "longitude": "-1.143644"}, "context": "", "outcome_status": {"category": "Investigation complete; no suspect identified", "date": "2024-11"}, "persistent_id": "6ffff5097c8ddf0c47a50b3c0e78d2eab02e9f461e4e66268d90d1a47af91114", "id": 124985148, "location_subtype": "", "month": "2024-11"}, {"category": "criminal-damage-arson", "location_type": "Force", "location": {"latitude": "52.953842", "street": {"id": 2246586, "name": "On or near Angel Row"}, "longitude": "-1.152649"}, "context": "", "outcome_status": {"category": "Investigation complete; no suspect identified", "date": "2024-11"}, "persistent_id": "8be83a12d5dbbc85b682f515a965fb198306ae0d1f233d991046abca8cfe1d8a", "id": 124987485, "location_subtype": "", "month": "2024-11"}, {"category": "criminal-damage-arson", "location_type": "Force", "location": {"latitude": "52.954577", "street": {"id": 2247368, "name": "On or near High Cross Street"}, "longitude": "-1.143659"}, "context": "", "outcome_status": {"category": "Investigation complete; no suspect identified", "date": "2024-11"}, "persistent_id": "4456fe8918e7e79a6a6c6f4bc56a0e1402d6529e328bdb60f9baeaff3d11823b", "id": 124990260, "location_subtype": "", "month": "2024-11"}, {"category": "criminal-damage-arson", "location_type": "Force", "location": {"latitude": "52.958706", "street": {"id": 2245052, "name": "On or near Leroy Wallace Avenue"}, "longitude": "-1.171981"}, "context": "", "outcome_status": {"category": "Investigation complete; no suspect identified", "date": "2024-11"}, "persistent_id": "f44bef1b814465e0b00da10928aa3c9a0817a86b961ea318e29fe6ed45e848cf", "id": 124985307, "location_subtype": "", "month": "2024-11"}, {"category": "criminal-damage-arson", "location_type": "Force", "location": {"latitude": "52.958695", "street": {"id": 2245464, "name": "On or near Parking Area"}, "longitude": "-1.167753"}, "context": "", "outcome_status": {"category": "Investigation complete; no suspect identified", "date": "2024-11"}, "persistent_id": "0848226721de3839f92947d78a631415957362c710f073608b9e258dbc4bad14", "id": 124987472, "location_subtype": "", "month": "2024-11"}, {"category": "criminal-damage-arson", "location_type": "Force", "location": {"latitude": "52.953842", "street": {"id": 2246586, "name": "On or near Angel Row"}, "longitude": "-1.152649"}, "context": "", "outcome_status": {"category": "Investigation complete; no suspect identified", "date": "2024-11"}, "persistent_id": "892d7390e9ed420d9b6fbfd1eba8c175e4b880a2849ebaf6f46eebc7edd3caac", "id": 124987467, "location_subtype": "", "month": "2024-11"}, {"category": "criminal-damage-arson", "location_type": "Force", "location": {"latitude": "52.952466", "street": {"id": 2246836, "name": "On or near Wheeler Gate"}, "longitude": "-1.150131"}, "context": "", "outcome_status": {"category": "Local resolution", "date": "2025-02"}, "persistent_id": "6c63c263804793f24f0dc562aad02b0ce88e24e6a4da4c89042aa4df73069659", "id": 124984821, "location_subtype": "", "month": "2024-11"}, {"category": "criminal-damage-arson", "location_type": "Force", "location": {"latitude": "52.957453", "street": {"id": 2246938, "name": "On or near Shopping Area"}, "longitude": "-1.148119"}, "context": "", "outcome_status": {"category": "Investigation complete; no suspect identified", "date": "2024-11"}, "persistent_id": "bd6288b2df5a3cd6b6c39e033ee140f3e1f618a790a34e82c95e53a4ab586424", "id": 124987422, "location_subtype": "", "month": "2024-11"}, {"category": "criminal-damage-arson", "location_type": "Force", "location": {"latitude": "52.944273", "street": {"id": 2247445, "name": "On or near Uppingham Gardens"}, "longitude": "-1.142121"}, "context": "", "outcome_status": {"category": "Investigation complete; no suspect identified", "date": "2024-11"}, "persistent_id": "a84b9dcecbf7029a6efa48a6f01113f85d727ac75f5c58a916315a3a5130ec9c", "id": 124984818, "location_subtype": "", "month": "2024-11"}, {"category": "criminal-damage-arson", "location_type": "Force", "location": {"latitude": "52.956549", "street": {"id": 2245511, "name": "On or near Althorpe Street"}, "longitude": "-1.166872"}, "context": "", "outcome_status": {"category": "Unable to prosecute suspect", "date": "2024-12"}, "persistent_id": "9c2ba39b35d01221e8a4517dcfaf33e507b2299297c539458a7af75aa168b191", "id": 124987444, "location_subtype": "", "month": "2024-11"}, {"category": "criminal-damage-arson", "location_type": "Force", "location": {"latitude": "52.950236", "street": {"id": 2247529, "name": "On or near Parking Area"}, "longitude": "-1.141214"}, "context": "", "outcome_status": {"category": "Investigation complete; no suspect identified", "date": "2024-11"}, "persistent_id": "07a1d5413878e569dd5501ca210c018dfd8af596158c4352e9efe8c60b5ad547", "id": 124987413, "location_subtype": "", "month": "2024-11"}, {"category": "criminal-damage-arson", "location_type": "Force", "location": {"latitude": "52.960545", "street": {"id": 2247066, "name": "On or near Palmerston Gardens"}, "longitude": "-1.145982"}, "context": "", "outcome_status": {"category": "Investigation complete; no suspect identified", "date": "2024-12"}, "persistent_id": "0b59dead822257bcda150e7e5c6eb724e845b9601d086a0fb092a3d1ecf5aedd", "id": 124984691, "location_subtype": "", "month": "2024-11"}, {"category": "criminal-damage-arson", "location_type": "Force", "location": {"latitude": "52.956845", "street": {"id": 2245540, "name": "On or near Wansbeck Close"}, "longitude": "-1.166747"}, "context": "", "outcome_status": {"category": "Unable to prosecute suspect", "date": "2024-11"}, "persistent_id": "0a5eff95b85b427b7233d108ef454af477a2dc65592743844e097e41798f7b7f", "id": 124987309, "location_subtype": "", "month": "2024-11"}, {"category": "criminal-damage-arson", "location_type": "Force", "location": {"latitude": "52.959382", "street": {"id": 2247851, "name": "On or near Dennett Close"}, "longitude": "-1.135599"}, "context": "", "outcome_status": {"category": "Investigation complete; no suspect identified", "date": "2024-12"}, "persistent_id": "e84aa9aa16bb11030d954d81956c438a25a596487bc7b4c4a1d050b500dd4e38", "id": 124488455, "location_subtype": "", "month": "2024-11"}, {"category": "criminal-damage-arson", "location_type": "Force", "location": {"latitude": "52.948001", "street": {"id": 2248207, "name": "On or near Gresley Drive"}, "longitude": "-1.129293"}, "context": "", "outcome_status": {"category": "Investigation complete; no suspect identified", "date": "2024-12"}, "persistent_id": "7e663859d304bd61d163853b6591759e8658e8381010ccc3dee4e10f121a0f83", "id": 124991130, "location_subtype": "", "month": "2024-11"}, {"category": "criminal-damage-arson", "location_type": "Force", "location": {"latitude": "52.955204", "street": {"id": 2248297, "name": "On or near Walton Avenue"}, "longitude": "-1.128493"}, "context": "", "outcome_status": {"category": "Investigation complete; no suspect identified", "date": "2024-11"}, "persistent_id": "bad0f2cd9a8592e6d24ec40292c1d1f4ed03c4be7936c216d5e81b6277f9cadd", "id": 124985401, "location_subtype": "", "month": "2024-11"}, {"category": "criminal-damage-arson", "location_type": "Force", "location": {"latitude": "52.954261", "street": {"id": 2247618, "name": "On or near Boston Street"}, "longitude": "-1.139661"}, "context": "", "outcome_status": {"category": "Investigation complete; no suspect identified", "date": "2025-01"}, "persistent_id": "b90bfdf0a0efa0e16761178b0d07a708c80cc5f5f07893ccc2669eb4972c7c7c", "id": 124989205, "location_subtype": "", "month": "2024-11"}, {"category": "criminal-damage-arson", "location_type": "Force", "location": {"latitude": "52.959178", "street": {"id": 2247072, "name": "On or near Watkin Street"}, "longitude": "-1.147141"}, "context": "", "outcome_status": {"category": "Investigation complete; no suspect identified", "date": "2024-12"}, "persistent_id": "a7ef209d2c74222f1bebb4c485fb2c317be74b253dc2f515531b8cb6f767c690", "id": 124988052, "location_subtype": "", "month": "2024-11"}, {"category": "criminal-damage-arson", "location_type": "Force", "location": {"latitude": "52.961341", "street": {"id": 2246577, "name": "On or near Annesley Grove"}, "longitude": "-1.152875"}, "context": "", "outcome_status": {"category": "Investigation complete; no suspect identified", "date": "2024-11"}, "persistent_id": "0f008e95a6c9eccc7c889f03580f42335201457127c05cbf310ae1b49701490d", "id": 124990460, "location_subtype": "", "month": "2024-11"}, {"category": "criminal-damage-arson", "location_type": "Force", "location": {"latitude": "52.946661", "street": {"id": 2247292, "name": "On or near Parking Area"}, "longitude": "-1.144157"}, "context": "", "outcome_status": {"category": "Unable to prosecute suspect", "date": "2024-11"}, "persistent_id": "149a20cd7767dd36efde1d895bbf7a94a9c8a8508a95ff63372392f92fc48f7b", "id": 124986672, "location_subtype": "", "month": "2024-11"}, {"category": "criminal-damage-arson", "location_type": "Force", "location": {"latitude": "52.949344", "street": {"id": 2247084, "name": "On or near Parking Area"}, "longitude": "-1.147141"}, "context": "", "outcome_status": {"category": "Investigation complete; no suspect identified", "date": "2024-11"}, "persistent_id": "b735076d6d46357e93a5ad8868c8fa2620ca0e1c4c52545419debf32b32257df", "id": 124986599, "location_subtype": "", "month": "2024-11"}, {"category": "criminal-damage-arson", "location_type": "Force", "location": {"latitude": "52.955287", "street": {"id": 2247452, "name": "On or near Petrol Station"}, "longitude": "-1.142275"}, "context": "", "outcome_status": {"category": "Investigation complete; no suspect identified", "date": "2024-11"}, "persistent_id": "10c56897f9bc2f31ef8be4d7bf4a654dc6e8f22d1d514921507bdaa792197e4c", "id": 124986586, "location_subtype": "", "month": "2024-11"}, {"category": "criminal-damage-arson", "location_type": "Force", "location": {"latitude": "52.961928", "street": {"id": 2247867, "name": "On or near Southampton Street"}, "longitude": "-1.134536"}, "context": "", "outcome_status": {"category": "Investigation complete; no suspect identified", "date": "2024-12"}, "persistent_id": "050d71edfbe9aa87dc778f0c5b4a2291f3e9f717a1caf13c19671a7b0dae576a", "id": 124987888, "location_subtype": "", "month": "2024-11"}, {"category": "criminal-damage-arson", "location_type": "Force", "location": {"latitude": "52.957208", "street": {"id": 2247402, "name": "On or near Parking Area"}, "longitude": "-1.143205"}, "context": "", "outcome_status": {"category": "Investigation complete; no suspect identified", "date": "2024-11"}, "persistent_id": "ab9db0b28667c5d49c8af3fd25472d1794d650afe5b88a6ee97eb4845fa165b4", "id": 124986473, "location_subtype": "", "month": "2024-11"}, {"category": "criminal-damage-arson", "location_type": "Force", "location": {"latitude": "52.958523", "street": {"id": 2248111, "name": "On or near Magson Close"}, "longitude": "-1.131180"}, "context": "", "outcome_status": {"category": "Investigation complete; no suspect identified", "date": "2024-11"}, "persistent_id": "689e6ae4a09de98d19b6e63f57cec517b3e2eb1274d89ec2a98ce29a6f5670f6", "id": 124986470, "location_subtype": "", "month": "2024-11"}, {"category": "criminal-damage-arson", "location_type": "Force", "location": {"latitude": "52.939463", "street": {"id": 2246647, "name": "On or near Sandays Close"}, "longitude": "-1.151963"}, "context": "", "outcome_status": {"category": "Investigation complete; no suspect identified", "date": "2024-11"}, "persistent_id": "28713777d25e8b24596f70dc1caa35b8dc6871c379bc3252cafeaf9102eb046d", "id": 124986449, "location_subtype": "", "month": "2024-11"}, {"category": "criminal-damage-arson", "location_type": "Force", "location": {"latitude": "52.960943", "street": {"id": 2245368, "name": "On or near Peveril Street"}, "longitude": "-1.169095"}, "context": "", "outcome_status": {"category": "Investigation complete; no suspect identified", "date": "2024-11"}, "persistent_id": "bd1e70dbaa8912b78799a3cf18091f581e5d679f84396f33586bfffe936ba451", "id": 124986405, "location_subtype": "", "month": "2024-11"}, {"category": "criminal-damage-arson", "location_type": "Force", "location": {"latitude": "52.953680", "street": {"id": 2247565, "name": "On or near Hockley"}, "longitude": "-1.140193"}, "context": "", "outcome_status": {"category": "Investigation complete; no suspect identified", "date": "2024-11"}, "persistent_id": "c2b6909b4db9bd54f576504e6cf334e1c4d9b796d858f27b61d6c44aeae18da0", "id": 124985111, "location_subtype": "", "month": "2024-11"}, {"category": "criminal-damage-arson", "location_type": "Force", "location": {"latitude": "52.952881", "street": {"id": 2246779, "name": "On or near Bus/coach Station"}, "longitude": "-1.150256"}, "context": "", "outcome_status": {"category": "Investigation complete; no suspect identified", "date": "2024-12"}, "persistent_id": "6dc4e473cb22ae6213d4d9ade400002ba5322e67657ee01018acfed3261f07d4", "id": 124991616, "location_subtype": "", "month": "2024-11"}, {"category": "criminal-damage-arson", "location_type": "Force", "location": {"latitude": "52.951165", "street": {"id": 2247644, "name": "On or near Fisher Gate"}, "longitude": "-1.139172"}, "context": "", "outcome_status": {"category": "Investigation complete; no suspect identified", "date": "2024-11"}, "persistent_id": "8b81f285d2921c72a0788972f25ccc90d1fa916caf6c278cc1935146a58f0f84", "id": 124986331, "location_subtype": "", "month": "2024-11"}, {"category": "criminal-damage-arson", "location_type": "Force", "location": {"latitude": "52.950178", "street": {"id": 2246607, "name": "On or near Further/higher Educational Building"}, "longitude": "-1.152006"}, "context": "", "outcome_status": {"category": "Investigation complete; no suspect identified", "date": "2025-01"}, "persistent_id": "0b76173ee6111e010c3ac95b54f109a5228ee1a70ab81cfcd51ead4548ca2652", "id": 124990409, "location_subtype": "", "month": "2024-11"}, {"category": "criminal-damage-arson", "location_type": "Force", "location": {"latitude": "52.953842", "street": {"id": 2246586, "name": "On or near Angel Row"}, "longitude": "-1.152649"}, "context": "", "outcome_status": {"category": "Investigation complete; no suspect identified", "date": "2024-11"}, "persistent_id": "85854082dd0b958220220cfba8c83e83075c1e3216aa0bd2f337ede25acc47d7", "id": 124985108, "location_subtype": "", "month": "2024-11"}, {"category": "criminal-damage-arson", "location_type": "Force", "location": {"latitude": "52.958110", "street": {"id": 2247758, "name": "On or near Lytton Close"}, "longitude": "-1.136146"}, "context": "", "outcome_status": {"category": "Investigation complete; no suspect identified", "date": "2024-11"}, "persistent_id": "16e7d018d20cb40ed556027cc51bd1083531740f12ee4e00e99c14a4a7509659", "id": 124986243, "location_subtype": "", "month": "2024-11"}, {"category": "criminal-damage-arson", "location_type": "Force", "location": {"latitude": "52.951797", "street": {"id": 2246928, "name": "On or near Shopping Area"}, "longitude": "-1.148313"}, "context": "", "outcome_status": {"category": "Investigation complete; no suspect identified", "date": "2024-11"}, "persistent_id": "11a7770add2935c92b6c08708d9bb1e2cb847852900e0067b4a45ecf9170e76c", "id": 124986136, "location_subtype": "", "month": "2024-11"}, {"category": "criminal-damage-arson", "location_type": "Force", "location": {"latitude": "52.962170", "street": {"id": 2246478, "name": "On or near Addison Street"}, "longitude": "-1.154481"}, "context": "", "outcome_status": {"category": "Investigation complete; no suspect identified", "date": "2024-11"}, "persistent_id": "9846215537f571d2b05d9bc8b7219e7554d65308aab9653660b333625234d99f", "id": 124984901, "location_subtype": "", "month": "2024-11"}, {"category": "criminal-damage-arson", "location_type": "Force", "location": {"latitude": "52.956874", "street": {"id": 2245727, "name": "On or near Holden Street"}, "longitude": "-1.164424"}, "context": "", "outcome_status": {"category": "Investigation complete; no suspect identified", "date": "2025-01"}, "persistent_id": "1483058001112ccff9b312e9d1e279a19fef33951f30ca6c67a49770ee7d4893", "id": 124987911, "location_subtype": "", "month": "2024-11"}, {"category": "criminal-damage-arson", "location_type": "Force", "location": {"latitude": "52.941922", "street": {"id": 2246404, "name": "On or near Lybster Mews"}, "longitude": "-1.155233"}, "context": "", "outcome_status": {"category": "Investigation complete; no suspect identified", "date": "2024-11"}, "persistent_id": "4ffec266641352d9f782d094a6cd0815e428eff5ea29bf987c541976eb654d55", "id": 124985090, "location_subtype": "", "month": "2024-11"}, {"category": "criminal-damage-arson", "location_type": "Force", "location": {"latitude": "52.960962", "street": {"id": 2247575, "name": "On or near Thomas Close"}, "longitude": "-1.140243"}, "context": "", "outcome_status": {"category": "Unable to prosecute suspect", "date": "2024-11"}, "persistent_id": "d2c0386e96eed9c038f41b7e51df811d6548d89b4f161caae9186acdc55a0bc3", "id": 124989003, "location_subtype": "", "month": "2024-11"}, {"category": "criminal-damage-arson", "location_type": "Force", "location": {"latitude": "52.956436", "street": {"id": 2246621, "name": "On or near Further/higher Educational Building"}, "longitude": "-1.152077"}, "context": "", "outcome_status": {"category": "Investigation complete; no suspect identified", "date": "2024-11"}, "persistent_id": "7556a8f6554b387614593897871791cf7bb8f73e57088f69e6db3c40b32bba09", "id": 124991293, "location_subtype": "", "month": "2024-11"}, {"category": "criminal-damage-arson", "location_type": "Force", "location": {"latitude": "52.956000", "street": {"id": 2247039, "name": "On or near Shopping Area"}, "longitude": "-1.147709"}, "context": "", "outcome_status": {"category": "Investigation complete; no suspect identified", "date": "2024-12"}, "persistent_id": "86948d85221839ed6c0f1ee6950090c25cb329be4b82976db8c8563bc531f073", "id": 124991321, "location_subtype": "", "month": "2024-11"}, {"category": "criminal-damage-arson", "location_type": "Force", "location": {"latitude": "52.957109", "street": {"id": 2245193, "name": "On or near Garden Street"}, "longitude": "-1.171074"}, "context": "", "outcome_status": {"category": "Unable to prosecute suspect", "date": "2024-11"}, "persistent_id": "686f8e779dc9b01b9c0c970b37686d39909def9cc7c6a77f268efebaa3d68a46", "id": 124989180, "location_subtype": "", "month": "2024-11"}, {"category": "criminal-damage-arson", "location_type": "Force", "location": {"latitude": "52.946449", "street": {"id": 2245763, "name": "On or near Supermarket"}, "longitude": "-1.162363"}, "context": "", "outcome_status": {"category": "Unable to prosecute suspect", "date": "2024-11"}, "persistent_id": "e9e14a44744998a931dad2317a1a6db5635c460bbfa329518181a26b061a6643", "id": 124989374, "location_subtype": "", "month": "2024-11"}, {"category": "criminal-damage-arson", "location_type": "Force", "location": {"latitude": "52.953842", "street": {"id": 2246586, "name": "On or near Angel Row"}, "longitude": "-1.152649"}, "context": "", "outcome_status": {"category": "Investigation complete; no suspect identified", "date": "2024-11"}, "persistent_id": "bbee1512092dc637171c6fa0af734e260c7a0da27a053b7b5d74e3dc54fea1ca", "id": 124986075, "location_subtype": "", "month": "2024-11"}, {"category": "criminal-damage-arson", "location_type": "Force", "location": {"latitude": "52.957132", "street": {"id": 2247709, "name": "On or near Campbell Street"}, "longitude": "-1.137713"}, "context": "", "outcome_status": {"category": "Awaiting court outcome", "date": "2025-01"}, "persistent_id": "c7b571287dc0f11e0183f00b421b1c728a2d5e48f96f104c4a96e0f220f81517", "id": 124989017, "location_subtype": "", "month": "2024-11"}, {"category": "criminal-damage-arson", "location_type": "Force", "location": {"latitude": "52.964061", "street": {"id": 2247625, "name": "On or near Primrose Close"}, "longitude": "-1.139943"}, "context": "", "outcome_status": {"category": "Investigation complete; no suspect identified", "date": "2025-01"}, "persistent_id": "b92885030ca55bdb05469dff6374114ce14a13ceef06e4c618ec4525add14384", "id": 124988717, "location_subtype": "", "month": "2024-11"}, {"category": "criminal-damage-arson", "location_type": "Force", "location": {"latitude": "52.955036", "street": {"id": 2247654, "name": "On or near Bedford Row"}, "longitude": "-1.138708"}, "context": "", "outcome_status": {"category": "Investigation complete; no suspect identified", "date": "2024-11"}, "persistent_id": "705d6703d82edf6ce8e20868b2f100070455d3b86c9fb443b20ff12ce75cfa07", "id": 124988941, "location_subtype": "", "month": "2024-11"}, {"category": "criminal-damage-arson", "location_type": "Force", "location": {"latitude": "52.959838", "street": {"id": 2245778, "name": "On or near Walter Street"}, "longitude": "-1.162849"}, "context": "", "outcome_status": {"category": "Awaiting court outcome", "date": "2025-01"}, "persistent_id": "ec0d4f1483a65f82d978056bb5e5e9cc5cd922b7bdfa18445d0a1b28791dc24c", "id": 124988168, "location_subtype": "", "month": "2024-11"}, {"category": "criminal-damage-arson", "location_type": "Force", "location": {"latitude": "52.950178", "street": {"id": 2246607, "name": "On or near Further/higher Educational Building"}, "longitude": "-1.152006"}, "context": "", "outcome_status": {"category": "Investigation complete; no suspect identified", "date": "2024-12"}, "persistent_id": "6c7df4c40dee79fe67245a2561328ef95c376125238beb3e38e530dded57f506", "id": 124986720, "location_subtype": "", "month": "2024-11"}, {"category": "criminal-damage-arson", "location_type": "Force", "location": {"latitude": "52.954704", "street": {"id": 2247486, "name": "On or near Lennox Street"}, "longitude": "-1.141260"}, "context": "", "outcome_status": {"category": "Investigation complete; no suspect identified", "date": "2024-11"}, "persistent_id": "0b81f4998025d64a55277d66c07a3433f5d3392fda1fee2153ee88ff1d0f6a11", "id": 124988796, "location_subtype": "", "month": "2024-11"}, {"category": "criminal-damage-arson", "location_type": "Force", "location": {"latitude": "52.947933", "street": {"id": 2245163, "name": "On or near Willoughby Street"}, "longitude": "-1.171368"}, "context": "", "outcome_status": {"category": "Investigation complete; no suspect identified", "date": "2024-11"}, "persistent_id": "5b09d1d7e380320ecfdb1ec8a5b2e7f629ed4e8e4a7e92e392193a739ea6a20d", "id": 124985066, "location_subtype": "", "month": "2024-11"}, {"category": "criminal-damage-arson", "location_type": "Force", "location": {"latitude": "52.952466", "street": {"id": 2246836, "name": "On or near Wheeler Gate"}, "longitude": "-1.150131"}, "context": "", "outcome_status": {"category": "Investigation complete; no suspect identified", "date": "2024-11"}, "persistent_id": "47027c46c19556d22c139261d23aa8aa7e7890fc7c97797b0879b5e7943123d3", "id": 124988514, "location_subtype": "", "month": "2024-11"}, {"category": "criminal-damage-arson", "location_type": "Force", "location": {"latitude": "52.956257", "street": {"id": 2246539, "name": "On or near Nightclub"}, "longitude": "-1.153465"}, "context": "", "outcome_status": {"category": "Local resolution", "date": "2025-01"}, "persistent_id": "566229fab64cdab16baf174a9acfd3a9d72acf030f8a412d482166718d2a9dc6", "id": 124986669, "location_subtype": "", "month": "2024-11"}, {"category": "criminal-damage-arson", "location_type": "Force", "location": {"latitude": "52.955978", "street": {"id": 2247850, "name": "On or near Lowdham Street"}, "longitude": "-1.134744"}, "context": "", "outcome_status": {"category": "Investigation complete; no suspect identified", "date": "2024-12"}, "persistent_id": "a1fb0d1ff996f5647023e77e5519deaab7e1ed100427b82c8d6ce707f3619f03", "id": 124992178, "location_subtype": "", "month": "2024-11"}, {"category": "criminal-damage-arson", "location_type": "Force", "location": {"latitude": "52.949794", "street": {"id": 2247371, "name": "On or near Shortwood Close"}, "longitude": "-1.143485"}, "context": "", "outcome_status": {"category": "Investigation complete; no suspect identified", "date": "2024-11"}, "persistent_id": "74cae9d874f1ccf13aab842bd8c2db6e32f5e72c010fecc49c062a2b78043bc4", "id": 124988509, "location_subtype": "", "month": "2024-11"}, {"category": "criminal-damage-arson", "location_type": "Force", "location": {"latitude": "52.962177", "street": {"id": 2245629, "name": "On or near Lawson Street"}, "longitude": "-1.164337"}, "context": "", "outcome_status": {"category": "Investigation complete; no suspect identified", "date": "2024-12"}, "persistent_id": "b7cecf01578d24b457fb8e564b11a729cabeaefa103a68c6952c7668d884b6c4", "id": 124990243, "location_subtype": "", "month": "2024-11"}, {"category": "criminal-damage-arson", "location_type": "Force", "location": {"latitude": "52.946983", "street": {"id": 2247110, "name": "On or near Nottingham"}, "longitude": "-1.146369"}, "context": "", "outcome_status": {"category": "Investigation complete; no suspect identified", "date": "2024-11"}, "persistent_id": "6afa77b311ff8e72e54b63bab356bfed5f9ce33114bedb68f547618182af9c13", "id": 124988428, "location_subtype": "", "month": "2024-11"}, {"category": "criminal-damage-arson", "location_type": "Force", "location": {"latitude": "52.960935", "street": {"id": 2245751, "name": "On or near Burns Street"}, "longitude": "-1.162827"}, "context": "", "outcome_status": {"category": "Investigation complete; no suspect identified", "date": "2024-12"}, "persistent_id": "da1656f0ce78a3491394ab7ab5a5a0da7e43ee467f397bc30b8cd594ce1887cf", "id": 124986281, "location_subtype": "", "month": "2024-11"}, {"category": "criminal-damage-arson", "location_type": "Force", "location": {"latitude": "52.946534", "street": {"id": 2245250, "name": "On or near Castle Gardens"}, "longitude": "-1.170591"}, "context": "", "outcome_status": {"category": "Investigation complete; no suspect identified", "date": "2024-11"}, "persistent_id": "fe8ee6b9fb8c05496e6d70873ce80740ca3a6c25054a498a09a4859971af3f33", "id": 124985725, "location_subtype": "", "month": "2024-11"}, {"category": "criminal-damage-arson", "location_type": "Force", "location": {"latitude": "52.957721", "street": {"id": 2247219, "name": "On or near St Marks Street"}, "longitude": "-1.144564"}, "context": "", "outcome_status": {"category": "Investigation complete; no suspect identified", "date": "2024-11"}, "persistent_id": "c80f430ed10489b6b1b2a5a12a00d7540efb94faede531ecfead01c683de427f", "id": 124988402, "location_subtype": "", "month": "2024-11"}, {"category": "criminal-damage-arson", "location_type": "Force", "location": {"latitude": "52.954489", "street": {"id": 2247142, "name": "On or near Lincoln Street"}, "longitude": "-1.146414"}, "context": "", "outcome_status": {"category": "Investigation complete; no suspect identified", "date": "2024-12"}, "persistent_id": "c94e51dbfabe664815e008dca01af78fdd9602190f99b7fe6b35b600def2f616", "id": 124986161, "location_subtype": "", "month": "2024-11"}, {"category": "criminal-damage-arson", "location_type": "Force", "location": {"latitude": "52.954311", "street": {"id": 2247128, "name": "On or near Thurland Street"}, "longitude": "-1.146626"}, "context": "", "outcome_status": {"category": "Investigation complete; no suspect identified", "date": "2024-11"}, "persistent_id": "f181270d636843ec6a30b1d1dbe2bef96d3ed5cd8b5acf67cda646cd97a5fd51", "id": 124989462, "location_subtype": "", "month": "2024-11"}, {"category": "drugs", "location_type": "Force", "location": {"latitude": "52.958432", "street": {"id": 2247317, "name": "On or near Booth Close"}, "longitude": "-1.143359"}, "context": "", "outcome_status": {"category": "Formal action is not in the public interest", "date": "2024-12"}, "persistent_id": "650a564b1ad3ffb8aeaf9ac40ee2b2f392a436ee594e209433041b6b2a915146", "id": 124988913, "location_subtype": "", "month": "2024-11"}, {"category": "drugs", "location_type": "Force", "location": {"latitude": "52.955400", "street": {"id": 2245776, "name": "On or near Elliott Street"}, "longitude": "-1.163202"}, "context": "", "outcome_status": {"category": "Awaiting court outcome", "date": "2025-01"}, "persistent_id": "011f26231c73df5f86b3a20a131ba83c1e51035abc79901854d6cb7ecf70d6f8", "id": 124989646, "location_subtype": "", "month": "2024-11"}, {"category": "drugs", "location_type": "Force", "location": {"latitude": "52.959177", "street": {"id": 2245911, "name": "On or near Oliver Close"}, "longitude": "-1.160852"}, "context": "", "outcome_status": {"category": "Under investigation", "date": "2024-11"}, "persistent_id": "68ff382afb09c7f0211aad69dbb8f22d87b0b4a131ae8fa5eaa66180ff528b3e", "id": 124989653, "location_subtype": "", "month": "2024-11"}, {"category": "drugs", "location_type": "Force", "location": {"latitude": "52.958907", "street": {"id": 2245988, "name": "On or near Oliver Street"}, "longitude": "-1.160842"}, "context": "", "outcome_status": {"category": "Investigation complete; no suspect identified", "date": "2025-01"}, "persistent_id": "cda7828bc1417f62865f4a750a3e325f6abc896c2d3a5a0fc91020662a2858c6", "id": 124989713, "location_subtype": "", "month": "2024-11"}, {"category": "drugs", "location_type": "Force", "location": {"latitude": "52.959177", "street": {"id": 2245911, "name": "On or near Oliver Close"}, "longitude": "-1.160852"}, "context": "", "outcome_status": {"category": "Under investigation", "date": "2024-11"}, "persistent_id": "6c3275f207302c1e213ed12d1f9bc000fe690390c203b46f8300f034a48bbaad", "id": 124989727, "location_subtype": "", "month": "2024-11"}, {"category": "drugs", "location_type": "Force", "location": {"latitude": "52.957132", "street": {"id": 2247709, "name": "On or near Campbell Street"}, "longitude": "-1.137713"}, "context": "", "outcome_status": {"category": "Unable to prosecute suspect", "date": "2024-12"}, "persistent_id": "9f3232da971d5624f6200830df0e30b0cb67066a526ef52755ca77d0750fcd21", "id": 124990053, "location_subtype": "", "month": "2024-11"}, {"category": "drugs", "location_type": "Force", "location": {"latitude": "52.963444", "street": {"id": 2245492, "name": "On or near Weston Avenue"}, "longitude": "-1.166873"}, "context": "", "outcome_status": {"category": "Offender given a caution", "date": "2024-12"}, "persistent_id": "4936614feac875483213d08bd9b64d3b1946c33036898797d914ec79fe1a4829", "id": 124990036, "location_subtype": "", "month": "2024-11"}, {"category": "drugs", "location_type": "Force", "location": {"latitude": "52.963444", "street": {"id": 2245492, "name": "On or near Weston Avenue"}, "longitude": "-1.166873"}, "context": "", "outcome_status": {"category": "Awaiting court outcome", "date": "2025-01"}, "persistent_id": "a3ba93f8596aa0ae3f077bcd0f8f51257d7724ba63a917c0e1e55184d9c492f1", "id": 124990041, "location_subtype": "", "month": "2024-11"}, {"category": "drugs", "location_type": "Force", "location": {"latitude": "52.943943", "street": {"id": 2247259, "name": "On or near Lammas Gardens"}, "longitude": "-1.143646"}, "context": "", "outcome_status": {"category": "Investigation complete; no suspect identified", "date": "2024-12"}, "persistent_id": "cf7954b0673be1ef5c0c3cedebca610c1e984caf9a917d6be46e75c0c021ee2a", "id": 124989432, "location_subtype": "", "month": "2024-11"}, {"category": "drugs", "location_type": "Force", "location": {"latitude": "52.954374", "street": {"id": 2246431, "name": "On or near Theme/adventure Park"}, "longitude": "-1.154231"}, "context": "", "outcome_status": {"category": "Under investigation", "date": "2024-11"}, "persistent_id": "10158ce120ce59adf9e37224bf5a10a8957265309448e0bb8508c0c7c9d7ca84", "id": 124990335, "location_subtype": "", "month": "2024-11"}, {"category": "drugs", "location_type": "Force", "location": {"latitude": "52.952881", "street": {"id": 2246779, "name": "On or near Bus/coach Station"}, "longitude": "-1.150256"}, "context": "", "outcome_status": {"category": "Awaiting court outcome", "date": "2024-11"}, "persistent_id": "5eecb4373e1f99bd99fb70b1a4a543ea669fcb3905cd85a7ed7f00c2499549fa", "id": 124990964, "location_subtype": "", "month": "2024-11"}, {"category": "drugs", "location_type": "Force", "location": {"latitude": "52.952776", "street": {"id": 2247173, "name": "On or near Fletcher Gate"}, "longitude": "-1.145615"}, "context": "", "outcome_status": {"category": "Unable to prosecute suspect", "date": "2024-11"}, "persistent_id": "e4fde55a7f68618d09cc29825ffdd076bc3f84300f6d243b26dae03cf170d477", "id": 124990439, "location_subtype": "", "month": "2024-11"}, {"category": "drugs", "location_type": "Force", "location": {"latitude": "52.946983", "street": {"id": 2247110, "name": "On or near Nottingham"}, "longitude": "-1.146369"}, "context": "", "outcome_status": {"category": "Offender given a caution", "date": "2024-12"}, "persistent_id": "0be3e2df967bf548ff4b35c561a1e126e4e7e84a672fd96e9a087c2cb2d3c42d", "id": 124992564, "location_subtype": "", "month": "2024-11"}, {"category": "drugs", "location_type": "Force", "location": {"latitude": "52.952466", "street": {"id": 2246836, "name": "On or near Wheeler Gate"}, "longitude": "-1.150131"}, "context": "", "outcome_status": {"category": "Awaiting court outcome", "date": "2024-11"}, "persistent_id": "c612fba04ca1201137cbb0387900b302a34004880c2eb669117f323aff40a10f", "id": 124989826, "location_subtype": "", "month": "2024-11"}, {"category": "drugs", "location_type": "Force", "location": {"latitude": "52.963243", "street": {"id": 2247793, "name": "On or near Dickinson Street"}, "longitude": "-1.136163"}, "context": "", "outcome_status": {"category": "Unable to prosecute suspect", "date": "2024-11"}, "persistent_id": "599e595093b9c7d90dfd6b4b524b61a96b7e6b65031106283a38c1478821b513", "id": 124989822, "location_subtype": "", "month": "2024-11"}, {"category": "drugs", "location_type": "Force", "location": {"latitude": "52.950793", "street": {"id": 2246851, "name": "On or near Stanford Street"}, "longitude": "-1.149896"}, "context": "", "outcome_status": {"category": "Awaiting court outcome", "date": "2024-11"}, "persistent_id": "366d3b083d7db41495b04eea5e95db55c3231d4e46979d454d004759d8005624", "id": 124989585, "location_subtype": "", "month": "2024-11"}, {"category": "drugs", "location_type": "Force", "location": {"latitude": "52.954381", "street": {"id": 2247257, "name": "On or near Old Lenton Street"}, "longitude": "-1.145107"}, "context": "", "outcome_status": {"category": "Under investigation", "date": "2024-11"}, "persistent_id": "167a95450388e72751722216bcf4c16f3447cde19fb4b9f8471ac53e57eb66c2", "id": 124992240, "location_subtype": "", "month": "2024-11"}, {"category": "drugs", "location_type": "Force", "location": {"latitude": "52.953857", "street": {"id": 2246257, "name": "On or near Theatre/concert Hall"}, "longitude": "-1.156117"}, "context": "", "outcome_status": {"category": "Awaiting court outcome", "date": "2025-01"}, "persistent_id": "1bb787689cf6953afa92e3c583e4e210c3f5762643984a8496caf508aab9998e", "id": 124989790, "location_subtype": "", "month": "2024-11"}, {"category": "drugs", "location_type": "Force", "location": {"latitude": "52.961162", "street": {"id": 2247035, "name": "On or near Sherwin Close"}, "longitude": "-1.147995"}, "context": "", "outcome_status": {"category": "Offender given a caution", "date": "2024-12"}, "persistent_id": "05a256182a59e87089abdf1c8b6b29b05b11dc35fd5dcf1cc0d32daae0b6daa2", "id": 124992248, "location_subtype": "", "month": "2024-11"}, {"category": "drugs", "location_type": "Force", "location": {"latitude": "52.954381", "street": {"id": 2247257, "name": "On or near Old Lenton Street"}, "longitude": "-1.145107"}, "context": "", "outcome_status": {"category": "Under investigation", "date": "2024-11"}, "persistent_id": "36eb5cc031fcd8a90010da7b570682241d5abb367aa4fe0278b64468d3a69d48", "id": 124992225, "location_subtype": "", "month": "2024-11"}, {"category": "drugs", "location_type": "Force", "location": {"latitude": "52.950511", "street": {"id": 2248082, "name": "On or near Manor Street"}, "longitude": "-1.130805"}, "context": "", "outcome_status": {"category": "Under investigation", "date": "2024-11"}, "persistent_id": "1ee195e37dc8be2f11c2f0842e2f8d9dc7ccacccb1f6eef0ea9486703a945674", "id": 124992210, "location_subtype": "", "month": "2024-11"}, {"category": "drugs", "location_type": "Force", "location": {"latitude": "52.952962", "street": {"id": 2247807, "name": "On or near Eyre Street"}, "longitude": "-1.136635"}, "context": "", "outcome_status": {"category": "Local resolution", "date": "2024-11"}, "persistent_id": "25f61794f52b40485a069f8b2014a2fb47480157d6d18d8dbc48dca61c713225", "id": 124988510, "location_subtype": "", "month": "2024-11"}, {"category": "drugs", "location_type": "Force", "location": {"latitude": "52.949949", "street": {"id": 2248151, "name": "On or near St Stephen's Avenue"}, "longitude": "-1.130251"}, "context": "", "outcome_status": {"category": "Local resolution", "date": "2025-02"}, "persistent_id": "1060c07d728f74048948bb7e14e6c4e0014db4901be4c86f5e0884fd1c3129bb", "id": 124992031, "location_subtype": "", "month": "2024-11"}, {"category": "drugs", "location_type": "Force", "location": {"latitude": "52.952844", "street": {"id": 2247404, "name": "On or near Ristes Place"}, "longitude": "-1.142651"}, "context": "", "outcome_status": {"category": "Offender given a caution", "date": "2024-11"}, "persistent_id": "7a78bb51573ca7bc98feb996094aa4503a65ecd0d92893519d53292a20d4b312", "id": 124988355, "location_subtype": "", "month": "2024-11"}, {"category": "drugs", "location_type": "Force", "location": {"latitude": "52.953842", "street": {"id": 2246586, "name": "On or near Angel Row"}, "longitude": "-1.152649"}, "context": "", "outcome_status": {"category": "Awaiting court outcome", "date": "2024-11"}, "persistent_id": "715d5a825d5b3cb92698e0be8030f1afeed9e54fcb3994e322d94e5affd32bd9", "id": 124988098, "location_subtype": "", "month": "2024-11"}, {"category": "drugs", "location_type": "Force", "location": {"latitude": "52.952466", "street": {"id": 2246836, "name": "On or near Wheeler Gate"}, "longitude": "-1.150131"}, "context": "", "outcome_status": {"category": "Offender given a drugs possession warning", "date": "2024-11"}, "persistent_id": "512bd67127de0031979d47c894c03910ba0b74365a6e0b70a654b11339a5ad08", "id": 124988085, "location_subtype": "", "month": "2024-11"}, {"category": "drugs", "location_type": "Force", "location": {"latitude": "52.957453", "street": {"id": 2246938, "name": "On or near Shopping Area"}, "longitude": "-1.148119"}, "context": "", "outcome_status": {"category": "Local resolution", "date": "2024-11"}, "persistent_id": "da5afca0dfae47ffd607f96055165bd1430d2571f998562a9382a766d343e266", "id": 124988081, "location_subtype": "", "month": "2024-11"}, {"category": "drugs", "location_type": "Force", "location": {"latitude": "52.955849", "street": {"id": 2246702, "name": "On or near Theatre/concert Hall"}, "longitude": "-1.151702"}, "context": "", "outcome_status": {"category": "Under investigation", "date": "2024-11"}, "persistent_id": "a44f7e966973624d72f6ca514beb4712b9d258b3196e3f8fb43ee808a26ababc", "id": 124992444, "location_subtype": "", "month": "2024-11"}, {"category": "drugs", "location_type": "Force", "location": {"latitude": "52.951463", "street": {"id": 2248122, "name": "On or near Perlethorpe Avenue"}, "longitude": "-1.130726"}, "context": "", "outcome_status": {"category": "Local resolution", "date": "2024-11"}, "persistent_id": "a67815c09a2155ee1aa0cc373cf1f8ffc8f5b95bf00624f427da57f2856d3c52", "id": 124987801, "location_subtype": "", "month": "2024-11"}, {"category": "drugs", "location_type": "Force", "location": {"latitude": "52.951463", "street": {"id": 2248122, "name": "On or near Perlethorpe Avenue"}, "longitude": "-1.130726"}, "context": "", "outcome_status": {"category": "Awaiting court outcome", "date": "2024-11"}, "persistent_id": "cb20bf0de8d52cef88f0cbfee0cc859041259d3a5dd56e22e028579246b216a8", "id": 124987797, "location_subtype": "", "month": "2024-11"}, {"category": "drugs", "location_type": "Force", "location": {"latitude": "52.953179", "street": {"id": 2246892, "name": "On or near South Parade"}, "longitude": "-1.149253"}, "context": "", "outcome_status": {"category": "Further action is not in the public interest", "date": "2024-11"}, "persistent_id": "a7c31d599a81d875e2bba8490b79f36fbd3818e6894c50c13b8cdbc9b895c466", "id": 124987745, "location_subtype": "", "month": "2024-11"}, {"category": "drugs", "location_type": "Force", "location": {"latitude": "52.959176", "street": {"id": 2245893, "name": "On or near Raleigh Street"}, "longitude": "-1.162057"}, "context": "", "outcome_status": {"category": "Awaiting court outcome", "date": "2024-11"}, "persistent_id": "bc7de194cd37c36b6933a1f87d902279ad7d0d1597c7a422fc2cb0561aa16d50", "id": 124987720, "location_subtype": "", "month": "2024-11"}, {"category": "drugs", "location_type": "Force", "location": {"latitude": "52.951582", "street": {"id": 2246408, "name": "On or near St James's Terrace"}, "longitude": "-1.154673"}, "context": "", "outcome_status": {"category": "Offender given penalty notice", "date": "2024-12"}, "persistent_id": "1263294c0355feb0e1c6211191a8cbab17b5aef5debb86e491cd63189a008e97", "id": 124992433, "location_subtype": "", "month": "2024-11"}, {"category": "drugs", "location_type": "Force", "location": {"latitude": "52.958274", "street": {"id": 2247743, "name": "On or near Hawkridge Gardens"}, "longitude": "-1.137676"}, "context": "", "outcome_status": {"category": "Under investigation", "date": "2024-11"}, "persistent_id": "20b1e6807fae1da4b570563b6968d3c0a2cc41851384a98c4c3be2e5e845d997", "id": 124992005, "location_subtype": "", "month": "2024-11"}, {"category": "drugs", "location_type": "Force", "location": {"latitude": "52.952881", "street": {"id": 2246779, "name": "On or near Bus/coach Station"}, "longitude": "-1.150256"}, "context": "", "outcome_status": {"category": "Unable to prosecute suspect", "date": "2025-02"}, "persistent_id": "13a05e932d0b45f2306fe279ca022c7ed43913e8fde6bd2ed9e0b502ee6b4123", "id": 124992014, "location_subtype": "", "month": "2024-11"}, {"category": "drugs", "location_type": "Force", "location": {"latitude": "52.953842", "street": {"id": 2246586, "name": "On or near Angel Row"}, "longitude": "-1.152649"}, "context": "", "outcome_status": {"category": "Awaiting court outcome", "date": "2024-11"}, "persistent_id": "9f666e6a650129bdda6166a043a7ae371098576b90217c7366fdae8b5ee3fb36", "id": 124987457, "location_subtype": "", "month": "2024-11"}, {"category": "drugs", "location_type": "Force", "location": {"latitude": "52.953648", "street": {"id": 2246876, "name": "On or near Long Row"}, "longitude": "-1.149438"}, "context": "", "outcome_status": {"category": "Unable to prosecute suspect", "date": "2024-11"}, "persistent_id": "cfc5183a73c290b2a2a28af3051bb5b01fef3c84a6e64ef436aa11dfffed2485", "id": 124987414, "location_subtype": "", "month": "2024-11"}, {"category": "drugs", "location_type": "Force", "location": {"latitude": "52.954480", "street": {"id": 2245254, "name": "On or near Derby Grove"}, "longitude": "-1.170484"}, "context": "", "outcome_status": {"category": "Investigation complete; no suspect identified", "date": "2024-11"}, "persistent_id": "068017a45cced586c200ba3e5814e9b6893618eb1398072356d1e6c479a39f45", "id": 124987357, "location_subtype": "", "month": "2024-11"}, {"category": "drugs", "location_type": "Force", "location": {"latitude": "52.947981", "street": {"id": 2246953, "name": "On or near Carrington Street"}, "longitude": "-1.147614"}, "context": "", "outcome_status": {"category": "Local resolution", "date": "2024-11"}, "persistent_id": "36d9f0ba6a3d959a1c06d25cc2fcfba5379baad6646c12414cd613bf71e98a32", "id": 124987280, "location_subtype": "", "month": "2024-11"}, {"category": "drugs", "location_type": "Force", "location": {"latitude": "52.950864", "street": {"id": 2246500, "name": "On or near Castle Place"}, "longitude": "-1.153556"}, "context": "", "outcome_status": {"category": "Awaiting court outcome", "date": "2024-11"}, "persistent_id": "fced84a6c4dc1fb5ee3ee9893518923b2995aad58850b8b6d1165cd68aa2f789", "id": 124987148, "location_subtype": "", "month": "2024-11"}, {"category": "drugs", "location_type": "Force", "location": {"latitude": "52.954374", "street": {"id": 2246431, "name": "On or near Theme/adventure Park"}, "longitude": "-1.154231"}, "context": "", "outcome_status": {"category": "Formal action is not in the public interest", "date": "2024-11"}, "persistent_id": "8932479f98c49f8e7b4db5fb00cf1660cd1e5942e61ad7349a768b5416332013", "id": 124987078, "location_subtype": "", "month": "2024-11"}, {"category": "drugs", "location_type": "Force", "location": {"latitude": "52.953479", "street": {"id": 2247838, "name": "On or near Bond Street"}, "longitude": "-1.136015"}, "context": "", "outcome_status": {"category": "Offender given a drugs possession warning", "date": "2024-11"}, "persistent_id": "b5972fdddf71058f28999925b8471fac0f8e3d0b6a0c63ba4271e01f4649b8c7", "id": 124986860, "location_subtype": "", "month": "2024-11"}, {"category": "drugs", "location_type": "Force", "location": {"latitude": "52.958241", "street": {"id": 2247177, "name": "On or near Supermarket"}, "longitude": "-1.145611"}, "context": "", "outcome_status": {"category": "Local resolution", "date": "2024-11"}, "persistent_id": "168e7e7b98baa01b0973c9d55d5e6394e81333549cf69cb30d4e0b0a9c31f5b7", "id": 124986761, "location_subtype": "", "month": "2024-11"}, {"category": "drugs", "location_type": "Force", "location": {"latitude": "52.953857", "street": {"id": 2246257, "name": "On or near Theatre/concert Hall"}, "longitude": "-1.156117"}, "context": "", "outcome_status": {"category": "Awaiting court outcome", "date": "2024-11"}, "persistent_id": "175c31402d2aa9984bd3572063c38c72150adcf5c2e32df7b6a4e60e8bce1e13", "id": 124986287, "location_subtype": "", "month": "2024-11"}, {"category": "drugs", "location_type": "Force", "location": {"latitude": "52.953842", "street": {"id": 2246586, "name": "On or near Angel Row"}, "longitude": "-1.152649"}, "context": "", "outcome_status": {"category": "Unable to prosecute suspect", "date": "2024-11"}, "persistent_id": "ef7155d3aa454753b6274edd7cb3e960a7349e338cabb27eecf2dc313a6c605d", "id": 124986076, "location_subtype": "", "month": "2024-11"}, {"category": "drugs", "location_type": "Force", "location": {"latitude": "52.941353", "street": {"id": 2246530, "name": "On or near Mickledon Close"}, "longitude": "-1.153563"}, "context": "", "outcome_status": {"category": "Investigation complete; no suspect identified", "date": "2024-12"}, "persistent_id": "b01d90f0488c1020f5b02f57d54c72aa54d4aae296c845456c4df93192dc0924", "id": 124991834, "location_subtype": "", "month": "2024-11"}, {"category": "drugs", "location_type": "Force", "location": {"latitude": "52.951898", "street": {"id": 2246646, "name": "On or near Friar Lane"}, "longitude": "-1.152345"}, "context": "", "outcome_status": {"category": "Awaiting court outcome", "date": "2024-11"},