[{"category": "anti-social-behaviour", "location_type": "Force", "location": {"latitude": "51.518456", "street": {"id": 1677599, "name": "On or near Percy Street"}, "longitude": "-0.133209"}, "context": "", "outcome_status": null, "persistent_id": "", "id": 123085350, "location_subtype": "", "month": "2024-04"}, {"category": "anti-social-behaviour", "location_type": "Force", "location": {"latitude": "51.503496", "street": {"id": 1681772, "name": "On or near Hatfields"}, "longitude": "-0.106473"}, "context": "", "outcome_status": null, "persistent_id": "", "id": 123085311, "location_subtype": "", "month": "2024-04"}, {"category": "anti-social-behaviour", "location_type": "Force", "location": {"latitude": "51.507725", "street": {"id": 1678750, "name": "On or near Corner House Street"}, "longitude": "-0.125708"}, "context": "", "outcome_status": null, "persistent_id": "", "id": 123084576, "location_subtype": "", "month": "2024-04"}, {"category": "anti-social-behaviour", "location_type": "Force", "location": {"latitude": "51.514408", "street": {"id": 1678779, "name": "On or near Neal Street"}, "longitude": "-0.125780"}, "context": "", "outcome_status": null, "persistent_id": "", "id": 123084567, "location_subtype": "", "month": "2024-04"}, {"category": "anti-social-behaviour", "location_type": "Force", "location": {"latitude": "51.513090", "street": {"id": 1677384, "name": "On or near Hopkins Street"}, "longitude": "-0.135043"}, "context": "", "outcome_status": null, "persistent_id": "", "id": 123084529, "location_subtype": "", "month": "2024-04"}, {"category": "anti-social-behaviour", "location_type": "Force", "location": {"latitude": "51.500396", "street": {"id": 1680975, "name": "On or near Baylis Road"}, "longitude": "-0.111082"}, "context": "", "outcome_status": null, "persistent_id": "", "id": 123084335, "location_subtype": "", "month": "2024-04"}, {"category": "anti-social-behaviour", "location_type": "Force", "location": {"latitude": "51.513753", "street": {"id": 1678851, "name": "On or near Shelton Street"}, "longitude": "-0.125331"}, "context": "", "outcome_status": null, "persistent_id": "", "id": 123084315, "location_subtype": "", "month": "2024-04"}, {"category": "anti-social-behaviour", "location_type": "Force", "location": {"latitude": "51.507623", "street": {"id": 1678103, "name": "On or near Cockspur Street"}, "longitude": "-0.130006"}, "context": "", "outcome_status": null, "persistent_id": "", "id": 123084106, "location_subtype": "", "month": "2024-04"}, {"category": "anti-social-behaviour", "location_type": "Force", "location": {"latitude": "51.506720", "street": {"id": 1675553, "name": "On or near Curzon Street"}, "longitude": "-0.147883"}, "context": "", "outcome_status": null, "persistent_id": "", "id": 123083795, "location_subtype": "", "month": "2024-04"}, {"category": "anti-social-behaviour", "location_type": "Force", "location": {"latitude": "51.498908", "street": {"id": 1677674, "name": "On or near Dacre Street"}, "longitude": "-0.132712"}, "context": "", "outcome_status": null, "persistent_id": "", "id": 123083626, "location_subtype": "", "month": "2024-04"}, {"category": "anti-social-behaviour", "location_type": "Force", "location": {"latitude": "51.513601", "street": {"id": 1677939, "name": "On or near Frith Street"}, "longitude": "-0.131534"}, "context": "", "outcome_status": null, "persistent_id": "", "id": 123082955, "location_subtype": "", "month": "2024-04"}, {"category": "anti-social-behaviour", "location_type": "Force", "location": {"latitude": "51.507097", "street": {"id": 1677926, "name": "On or near Parking Area"}, "longitude": "-0.130864"}, "context": "", "outcome_status": null, "persistent_id": "", "id": 123082563, "location_subtype": "", "month": "2024-04"}, {"category": "anti-social-behaviour", "location_type": "Force", "location": {"latitude": "51.506985", "street": {"id": 1678839, "name": "On or near Northumberland Avenue"}, "longitude": "-0.124975"}, "context": "", "outcome_status": null, "persistent_id": "", "id": 123082176, "location_subtype": "", "month": "2024-04"}, {"category": "anti-social-behaviour", "location_type": "Force", "location": {"latitude": "51.510953", "street": {"id": 1677692, "name": "On or near Nightclub"}, "longitude": "-0.133012"}, "context": "", "outcome_status": null, "persistent_id": "", "id": 123081973, "location_subtype": "", "month": "2024-04"}, {"category": "anti-social-behaviour", "location_type": "Force", "location": {"latitude": "51.513970", "street": {"id": 1677442, "name": "On or near Wardour Street"}, "longitude": "-0.134387"}, "context": "", "outcome_status": null, "persistent_id": "", "id": 123081896, "location_subtype": "", "month": "2024-04"}, {"category": "anti-social-behaviour", "location_type": "Force", "location": {"latitude": "51.501151", "street": {"id": 1678482, "name": "On or near Great George Street"}, "longitude": "-0.127908"}, "context": "", "outcome_status": null, "persistent_id": "", "id": 123081809, "location_subtype": "", "month": "2024-04"}, {"category": "anti-social-behaviour", "location_type": "Force", "location": {"latitude": "51.512855", "street": {"id": 1678860, "name": "On or near B402"}, "longitude": "-0.124820"}, "context": "", "outcome_status": null, "persistent_id": "", "id": 123081574, "location_subtype": "", "month": "2024-04"}, {"category": "anti-social-behaviour", "location_type": "Force", "location": {"latitude": "51.511623", "street": {"id": 1678738, "name": "On or near Rose Street"}, "longitude": "-0.125951"}, "context": "", "outcome_status": null, "persistent_id": "", "id": 123081533, "location_subtype": "", "month": "2024-04"}, {"category": "anti-social-behaviour", "location_type": "Force", "location": {"latitude": "51.507394", "street": {"id": 1678399, "name": "On or near Charing Cross"}, "longitude": "-0.128042"}, "context": "", "outcome_status": null, "persistent_id": "", "id": 123081500, "location_subtype": "", "month": "2024-04"}, {"category": "anti-social-behaviour", "location_type": "Force", "location": {"latitude": "51.513970", "street": {"id": 1677442, "name": "On or near Wardour Street"}, "longitude": "-0.134387"}, "context": "", "outcome_status": null, "persistent_id": "", "id": 123081481, "location_subtype": "", "month": "2024-04"}, {"category": "anti-social-behaviour", "location_type": "Force", "location": {"latitude": "51.500396", "street": {"id": 1680975, "name": "On or near Baylis Road"}, "longitude": "-0.111082"}, "context": "", "outcome_status": null, "persistent_id": "", "id": 123080494, "location_subtype": "", "month": "2024-04"}, {"category": "anti-social-behaviour", "location_type": "Force", "location": {"latitude": "51.500978", "street": {"id": 1678704, "name": "On or near Bridge Street"}, "longitude": "-0.125524"}, "context": "", "outcome_status": null, "persistent_id": "", "id": 123079767, "location_subtype": "", "month": "2024-04"}, {"category": "anti-social-behaviour", "location_type": "Force", "location": {"latitude": "51.513052", "street": {"id": 1677758, "name": "On or near Bourchier Street"}, "longitude": "-0.132681"}, "context": "", "outcome_status": null, "persistent_id": "", "id": 123079970, "location_subtype": "", "month": "2024-04"}, {"category": "anti-social-behaviour", "location_type": "Force", "location": {"latitude": "51.510900", "street": {"id": 1678414, "name": "On or near Theatre/concert Hall"}, "longitude": "-0.127984"}, "context": "", "outcome_status": null, "persistent_id": "", "id": 123080062, "location_subtype": "", "month": "2024-04"}, {"category": "anti-social-behaviour", "location_type": "Force", "location": {"latitude": "51.514537", "street": {"id": 1678431, "name": "On or near St Giles Passage"}, "longitude": "-0.128196"}, "context": "", "outcome_status": null, "persistent_id": "", "id": 123080470, "location_subtype": "", "month": "2024-04"}, {"category": "anti-social-behaviour", "location_type": "Force", "location": {"latitude": "51.515580", "street": {"id": 1677445, "name": "On or near Great Chapel Street"}, "longitude": "-0.134437"}, "context": "", "outcome_status": null, "persistent_id": "", "id": 123080476, "location_subtype": "", "month": "2024-04"}, {"category": "anti-social-behaviour", "location_type": "Force", "location": {"latitude": "51.500211", "street": {"id": 1678547, "name": "On or near A302"}, "longitude": "-0.126492"}, "context": "", "outcome_status": null, "persistent_id": "", "id": 123093266, "location_subtype": "", "month": "2024-04"}, {"category": "anti-social-behaviour", "location_type": "Force", "location": {"latitude": "51.514365", "street": {"id": 1675924, "name": "On or near Princes Street"}, "longitude": "-0.143408"}, "context": "", "outcome_status": null, "persistent_id": "", "id": 123094162, "location_subtype": "", "month": "2024-04"}, {"category": "anti-social-behaviour", "location_type": "Force", "location": {"latitude": "51.511022", "street": {"id": 1679585, "name": "On or near Strand"}, "longitude": "-0.119880"}, "context": "", "outcome_status": null, "persistent_id": "", "id": 123080830, "location_subtype": "", "month": "2024-04"}, {"category": "anti-social-behaviour", "location_type": "Force", "location": {"latitude": "51.511623", "street": {"id": 1678738, "name": "On or near Rose Street"}, "longitude": "-0.125951"}, "context": "", "outcome_status": null, "persistent_id": "", "id": 123082376, "location_subtype": "", "month": "2024-04"}, {"category": "anti-social-behaviour", "location_type": "Force", "location": {"latitude": "51.518456", "street": {"id": 1677599, "name": "On or near Percy Street"}, "longitude": "-0.133209"}, "context": "", "outcome_status": null, "persistent_id": "", "id": 123083446, "location_subtype": "", "month": "2024-04"}, {"category": "anti-social-behaviour", "location_type": "Force", "location": {"latitude": "51.500978", "street": {"id": 1678704, "name": "On or near Bridge Street"}, "longitude": "-0.125524"}, "context": "", "outcome_status": null, "persistent_id": "", "id": 117855487, "location_subtype": "", "month": "2024-04"}, {"category": "anti-social-behaviour", "location_type": "Force", "location": {"latitude": "51.508087", "street": {"id": 1678961, "name": "On or near Nightclub"}, "longitude": "-0.124122"}, "context": "", "outcome_status": null, "persistent_id": "", "id": 123057820, "location_subtype": "", "month": "2024-04"}, {"category": "anti-social-behaviour", "location_type": "Force", "location": {"latitude": "51.507330", "street": {"id": 1677936, "name": "On or near Warwick House Street"}, "longitude": "-0.130768"}, "context": "", "outcome_status": null, "persistent_id": "", "id": 123057977, "location_subtype": "", "month": "2024-04"}, {"category": "anti-social-behaviour", "location_type": "Force", "location": {"latitude": "51.511623", "street": {"id": 1678738, "name": "On or near Rose Street"}, "longitude": "-0.125951"}, "context": "", "outcome_status": null, "persistent_id": "", "id": 123058223, "location_subtype": "", "month": "2024-04"}, {"category": "anti-social-behaviour", "location_type": "Force", "location": {"latitude": "51.511623", "street": {"id": 1678738, "name": "On or near Rose Street"}, "longitude": "-0.125951"}, "context": "", "outcome_status": null, "persistent_id": "", "id": 123058268, "location_subtype": "", "month": "2024-04"}, {"category": "anti-social-behaviour", "location_type": "Force", "location": {"latitude": "51.516820", "street": {"id": 1678501, "name": "On or near Dyott Street"}, "longitude": "-0.127583"}, "context": "", "outcome_status": null, "persistent_id": "", "id": 123058322, "location_subtype": "", "month": "2024-04"}, {"category": "anti-social-behaviour", "location_type": "Force", "location": {"latitude": "51.495936", "street": {"id": 1676456, "name": "On or near Carlisle Place"}, "longitude": "-0.141491"}, "context": "", "outcome_status": null, "persistent_id": "", "id": 123058349, "location_subtype": "", "month": "2024-04"}, {"category": "anti-social-behaviour", "location_type": "Force", "location": {"latitude": "51.511783", "street": {"id": 1678199, "name": "On or near Nightclub"}, "longitude": "-0.129778"}, "context": "", "outcome_status": null, "persistent_id": "", "id": 123058427, "location_subtype": "", "month": "2024-04"}, {"category": "anti-social-behaviour", "location_type": "Force", "location": {"latitude": "51.510468", "street": {"id": 1678029, "name": "On or near Leicester Square"}, "longitude": "-0.130769"}, "context": "", "outcome_status": null, "persistent_id": "", "id": 123058439, "location_subtype": "", "month": "2024-04"}, {"category": "anti-social-behaviour", "location_type": "Force", "location": {"latitude": "51.500683", "street": {"id": 1680877, "name": "On or near Launcelot Street"}, "longitude": "-0.112194"}, "context": "", "outcome_status": null, "persistent_id": "", "id": 123058685, "location_subtype": "", "month": "2024-04"}, {"category": "anti-social-behaviour", "location_type": "Force", "location": {"latitude": "51.495129", "street": {"id": 1676936, "name": "On or near Francis Street"}, "longitude": "-0.138240"}, "context": "", "outcome_status": null, "persistent_id": "", "id": 123058883, "location_subtype": "", "month": "2024-04"}, {"category": "anti-social-behaviour", "location_type": "Force", "location": {"latitude": "51.511022", "street": {"id": 1679585, "name": "On or near Strand"}, "longitude": "-0.119880"}, "context": "", "outcome_status": null, "persistent_id": "", "id": 123058897, "location_subtype": "", "month": "2024-04"}, {"category": "anti-social-behaviour", "location_type": "Force", "location": {"latitude": "51.516820", "street": {"id": 1678501, "name": "On or near Dyott Street"}, "longitude": "-0.127583"}, "context": "", "outcome_status": null, "persistent_id": "", "id": 123059085, "location_subtype": "", "month": "2024-04"}, {"category": "anti-social-behaviour", "location_type": "Force", "location": {"latitude": "51.495129", "street": {"id": 1676936, "name": "On or near Francis Street"}, "longitude": "-0.138240"}, "context": "", "outcome_status": null, "persistent_id": "", "id": 123059232, "location_subtype": "", "month": "2024-04"}, {"category": "anti-social-behaviour", "location_type": "Force", "location": {"latitude": "51.508351", "street": {"id": 1681422, "name": "On or near Conference/exhibition Centre"}, "longitude": "-0.108355"}, "context": "", "outcome_status": null, "persistent_id": "", "id": 123059406, "location_subtype": "", "month": "2024-04"}, {"category": "anti-social-behaviour", "location_type": "Force", "location": {"latitude": "51.514286", "street": {"id": 1677663, "name": "On or near Chapone Place"}, "longitude": "-0.132818"}, "context": "", "outcome_status": null, "persistent_id": "", "id": 123059412, "location_subtype": "", "month": "2024-04"}, {"category": "anti-social-behaviour", "location_type": "Force", "location": {"latitude": "51.514286", "street": {"id": 1677663, "name": "On or near Chapone Place"}, "longitude": "-0.132818"}, "context": "", "outcome_status": null, "persistent_id": "", "id": 123059414, "location_subtype": "", "month": "2024-04"}, {"category": "anti-social-behaviour", "location_type": "Force", "location": {"latitude": "51.496941", "street": {"id": 1677903, "name": "On or near Conference/exhibition Centre"}, "longitude": "-0.130617"}, "context": "", "outcome_status": null, "persistent_id": "", "id": 123085850, "location_subtype": "", "month": "2024-04"}, {"category": "anti-social-behaviour", "location_type": "Force", "location": {"latitude": "51.496466", "street": {"id": 1676405, "name": "On or near Shopping Area"}, "longitude": "-0.141499"}, "context": "", "outcome_status": null, "persistent_id": "", "id": 123086254, "location_subtype": "", "month": "2024-04"}, {"category": "anti-social-behaviour", "location_type": "Force", "location": {"latitude": "51.516341", "street": {"id": 1679597, "name": "On or near Nightclub"}, "longitude": "-0.120151"}, "context": "", "outcome_status": null, "persistent_id": "", "id": 123086388, "location_subtype": "", "month": "2024-04"}, {"category": "anti-social-behaviour", "location_type": "Force", "location": {"latitude": "51.514684", "street": {"id": 1676465, "name": "On or near Argyll Street"}, "longitude": "-0.140844"}, "context": "", "outcome_status": null, "persistent_id": "", "id": 123086958, "location_subtype": "", "month": "2024-04"}, {"category": "anti-social-behaviour", "location_type": "Force", "location": {"latitude": "51.499488", "street": {"id": 1679222, "name": "On or near Hospital"}, "longitude": "-0.118410"}, "context": "", "outcome_status": null, "persistent_id": "", "id": 123087073, "location_subtype": "", "month": "2024-04"}, {"category": "anti-social-behaviour", "location_type": "Force", "location": {"latitude": "51.518130", "street": {"id": 1676977, "name": "On or near Parking Area"}, "longitude": "-0.137604"}, "context": "", "outcome_status": null, "persistent_id": "", "id": 123087344, "location_subtype": "", "month": "2024-04"}, {"category": "anti-social-behaviour", "location_type": "Force", "location": {"latitude": "51.507115", "street": {"id": 1676040, "name": "On or near Bolton Street"}, "longitude": "-0.144408"}, "context": "", "outcome_status": null, "persistent_id": "", "id": 123087384, "location_subtype": "", "month": "2024-04"}, {"category": "anti-social-behaviour", "location_type": "Force", "location": {"latitude": "51.494954", "street": {"id": 1677131, "name": "On or near Greencoat Place"}, "longitude": "-0.136864"}, "context": "", "outcome_status": null, "persistent_id": "", "id": 123087405, "location_subtype": "", "month": "2024-04"}, {"category": "anti-social-behaviour", "location_type": "Force", "location": {"latitude": "51.499692", "street": {"id": 1680405, "name": "On or near Westminster Bridge Road"}, "longitude": "-0.114266"}, "context": "", "outcome_status": null, "persistent_id": "", "id": 123087473, "location_subtype": "", "month": "2024-04"}, {"category": "anti-social-behaviour", "location_type": "Force", "location": {"latitude": "51.514684", "street": {"id": 1676465, "name": "On or near Argyll Street"}, "longitude": "-0.140844"}, "context": "", "outcome_status": null, "persistent_id": "", "id": 123088237, "location_subtype": "", "month": "2024-04"}, {"category": "anti-social-behaviour", "location_type": "Force", "location": {"latitude": "51.511312", "street": {"id": 1677127, "name": "On or near Lower James Street"}, "longitude": "-0.136326"}, "context": "", "outcome_status": null, "persistent_id": "", "id": 123088296, "location_subtype": "", "month": "2024-04"}, {"category": "anti-social-behaviour", "location_type": "Force", "location": {"latitude": "51.501941", "street": {"id": 1680853, "name": "On or near Lower Road"}, "longitude": "-0.112127"}, "context": "", "outcome_status": null, "persistent_id": "", "id": 123088496, "location_subtype": "", "month": "2024-04"}, {"category": "anti-social-behaviour", "location_type": "Force", "location": {"latitude": "51.516820", "street": {"id": 1678501, "name": "On or near Dyott Street"}, "longitude": "-0.127583"}, "context": "", "outcome_status": null, "persistent_id": "", "id": 123088529, "location_subtype": "", "month": "2024-04"}, {"category": "anti-social-behaviour", "location_type": "Force", "location": {"latitude": "51.495286", "street": {"id": 1677480, "name": "On or near Greycoat Street"}, "longitude": "-0.134574"}, "context": "", "outcome_status": null, "persistent_id": "", "id": 123088772, "location_subtype": "", "month": "2024-04"}, {"category": "anti-social-behaviour", "location_type": "Force", "location": {"latitude": "51.500978", "street": {"id": 1678704, "name": "On or near Bridge Street"}, "longitude": "-0.125524"}, "context": "", "outcome_status": null, "persistent_id": "", "id": 123089073, "location_subtype": "", "month": "2024-04"}, {"category": "anti-social-behaviour", "location_type": "Force", "location": {"latitude": "51.515088", "street": {"id": 1676649, "name": "On or near Hills Place"}, "longitude": "-0.140222"}, "context": "", "outcome_status": null, "persistent_id": "", "id": 123090946, "location_subtype": "", "month": "2024-04"}, {"category": "anti-social-behaviour", "location_type": "Force", "location": {"latitude": "51.511312", "street": {"id": 1677127, "name": "On or near Lower James Street"}, "longitude": "-0.136326"}, "context": "", "outcome_status": null, "persistent_id": "", "id": 123089414, "location_subtype": "", "month": "2024-04"}, {"category": "anti-social-behaviour", "location_type": "Force", "location": {"latitude": "51.501941", "street": {"id": 1680853, "name": "On or near Lower Road"}, "longitude": "-0.112127"}, "context": "", "outcome_status": null, "persistent_id": "", "id": 123089662, "location_subtype": "", "month": "2024-04"}, {"category": "anti-social-behaviour", "location_type": "Force", "location": {"latitude": "51.514684", "street": {"id": 1676465, "name": "On or near Argyll Street"}, "longitude": "-0.140844"}, "context": "", "outcome_status": null, "persistent_id": "", "id": 123089721, "location_subtype": "", "month": "2024-04"}, {"category": "anti-social-behaviour", "location_type": "Force", "location": {"latitude": "51.516623", "street": {"id": 1677604, "name": "On or near Nightclub"}, "longitude": "-0.132976"}, "context": "", "outcome_status": null, "persistent_id": "", "id": 123090482, "location_subtype": "", "month": "2024-04"}, {"category": "anti-social-behaviour", "location_type": "Force", "location": {"latitude": "51.515598", "street": {"id": 1678536, "name": "On or near St Giles High Street"}, "longitude": "-0.127633"}, "context": "", "outcome_status": null, "persistent_id": "", "id": 123090880, "location_subtype": "", "month": "2024-04"}, {"category": "anti-social-behaviour", "location_type": "Force", "location": {"latitude": "51.514012", "street": {"id": 1677997, "name": "On or near Nightclub"}, "longitude": "-0.131078"}, "context": "", "outcome_status": null, "persistent_id": "", "id": 123091074, "location_subtype": "", "month": "2024-04"}, {"category": "anti-social-behaviour", "location_type": "Force", "location": {"latitude": "51.514684", "street": {"id": 1676465, "name": "On or near Argyll Street"}, "longitude": "-0.140844"}, "context": "", "outcome_status": null, "persistent_id": "", "id": 123091084, "location_subtype": "", "month": "2024-04"}, {"category": "anti-social-behaviour", "location_type": "Force", "location": {"latitude": "51.515088", "street": {"id": 1676649, "name": "On or near Hills Place"}, "longitude": "-0.140222"}, "context": "", "outcome_status": null, "persistent_id": "", "id": 123091172, "location_subtype": "", "month": "2024-04"}, {"category": "anti-social-behaviour", "location_type": "Force", "location": {"latitude": "51.516275", "street": {"id": 1678661, "name": "On or near Theatre/concert Hall"}, "longitude": "-0.126121"}, "context": "", "outcome_status": null, "persistent_id": "", "id": 123091204, "location_subtype": "", "month": "2024-04"}, {"category": "anti-social-behaviour", "location_type": "Force", "location": {"latitude": "51.512059", "street": {"id": 1679743, "name": "On or near A301"}, "longitude": "-0.118929"}, "context": "", "outcome_status": null, "persistent_id": "", "id": 123091207, "location_subtype": "", "month": "2024-04"}, {"category": "anti-social-behaviour", "location_type": "Force", "location": {"latitude": "51.496320", "street": {"id": 1676802, "name": "On or near Thirleby Road"}, "longitude": "-0.138508"}, "context": "", "outcome_status": null, "persistent_id": "", "id": 123091781, "location_subtype": "", "month": "2024-04"}, {"category": "anti-social-behaviour", "location_type": "Force", "location": {"latitude": "51.516751", "street": {"id": 1677076, "name": "On or near Eastcastle Street"}, "longitude": "-0.137401"}, "context": "", "outcome_status": null, "persistent_id": "", "id": 123091920, "location_subtype": "", "month": "2024-04"}, {"category": "anti-social-behaviour", "location_type": "Force", "location": {"latitude": "51.507199", "street": {"id": 1680647, "name": "On or near Parking Area"}, "longitude": "-0.113625"}, "context": "", "outcome_status": null, "persistent_id": "", "id": 123091935, "location_subtype": "", "month": "2024-04"}, {"category": "anti-social-behaviour", "location_type": "Force", "location": {"latitude": "51.518106", "street": {"id": 1680014, "name": "On or near Race Track"}, "longitude": "-0.116951"}, "context": "", "outcome_status": null, "persistent_id": "", "id": 123092196, "location_subtype": "", "month": "2024-04"}, {"category": "anti-social-behaviour", "location_type": "Force", "location": {"latitude": "51.506797", "street": {"id": 1675807, "name": "On or near Half Moon Street"}, "longitude": "-0.145963"}, "context": "", "outcome_status": null, "persistent_id": "", "id": 123092602, "location_subtype": "", "month": "2024-04"}, {"category": "anti-social-behaviour", "location_type": "Force", "location": {"latitude": "51.514582", "street": {"id": 1678863, "name": "On or near Shorts Gardens"}, "longitude": "-0.125441"}, "context": "", "outcome_status": null, "persistent_id": "", "id": 123092655, "location_subtype": "", "month": "2024-04"}, {"category": "anti-social-behaviour", "location_type": "Force", "location": {"latitude": "51.516351", "street": {"id": 1679201, "name": "On or near Stukeley Street"}, "longitude": "-0.122976"}, "context": "", "outcome_status": null, "persistent_id": "", "id": 123059639, "location_subtype": "", "month": "2024-04"}, {"category": "anti-social-behaviour", "location_type": "Force", "location": {"latitude": "51.517114", "street": {"id": 1679776, "name": "On or near Gate Street"}, "longitude": "-0.119009"}, "context": "", "outcome_status": null, "persistent_id": "", "id": 123059758, "location_subtype": "", "month": "2024-04"}, {"category": "anti-social-behaviour", "location_type": "Force", "location": {"latitude": "51.511574", "street": {"id": 1678643, "name": "On or near Garrick Street"}, "longitude": "-0.126271"}, "context": "", "outcome_status": null, "persistent_id": "", "id": 123059810, "location_subtype": "", "month": "2024-04"}, {"category": "anti-social-behaviour", "location_type": "Force", "location": {"latitude": "51.511574", "street": {"id": 1678643, "name": "On or near Garrick Street"}, "longitude": "-0.126271"}, "context": "", "outcome_status": null, "persistent_id": "", "id": 123059849, "location_subtype": "", "month": "2024-04"}, {"category": "anti-social-behaviour", "location_type": "Force", "location": {"latitude": "51.512449", "street": {"id": 1680063, "name": "On or near Surrey Street"}, "longitude": "-0.115772"}, "context": "", "outcome_status": null, "persistent_id": "", "id": 123059880, "location_subtype": "", "month": "2024-04"}, {"category": "anti-social-behaviour", "location_type": "Force", "location": {"latitude": "51.509491", "street": {"id": 1678539, "name": "On or near William Iv Street"}, "longitude": "-0.125924"}, "context": "", "outcome_status": null, "persistent_id": "", "id": 123059944, "location_subtype": "", "month": "2024-04"}, {"category": "anti-social-behaviour", "location_type": "Force", "location": {"latitude": "51.515088", "street": {"id": 1676649, "name": "On or near Hills Place"}, "longitude": "-0.140222"}, "context": "", "outcome_status": null, "persistent_id": "", "id": 123059977, "location_subtype": "", "month": "2024-04"}, {"category": "anti-social-behaviour", "location_type": "Force", "location": {"latitude": "51.520325", "street": {"id": 1677263, "name": "On or near Tottenham Street"}, "longitude": "-0.135929"}, "context": "", "outcome_status": null, "persistent_id": "", "id": 123060050, "location_subtype": "", "month": "2024-04"}, {"category": "anti-social-behaviour", "location_type": "Force", "location": {"latitude": "51.509786", "street": {"id": 1678937, "name": "On or near Police Station"}, "longitude": "-0.124658"}, "context": "", "outcome_status": null, "persistent_id": "", "id": 123060310, "location_subtype": "", "month": "2024-04"}, {"category": "anti-social-behaviour", "location_type": "Force", "location": {"latitude": "51.516058", "street": {"id": 1676584, "name": "On or near Market Place"}, "longitude": "-0.140154"}, "context": "", "outcome_status": null, "persistent_id": "", "id": 123060108, "location_subtype": "", "month": "2024-04"}, {"category": "anti-social-behaviour", "location_type": "Force", "location": {"latitude": "51.503196", "street": {"id": 1678183, "name": "On or near Downing Street"}, "longitude": "-0.127032"}, "context": "", "outcome_status": null, "persistent_id": "", "id": 123060123, "location_subtype": "", "month": "2024-04"}, {"category": "anti-social-behaviour", "location_type": "Force", "location": {"latitude": "51.515753", "street": {"id": 1676083, "name": "On or near John Prince's Street"}, "longitude": "-0.143092"}, "context": "", "outcome_status": null, "persistent_id": "", "id": 123060258, "location_subtype": "", "month": "2024-04"}, {"category": "anti-social-behaviour", "location_type": "Force", "location": {"latitude": "51.514185", "street": {"id": 1677307, "name": "On or near Berwick Street"}, "longitude": "-0.135459"}, "context": "", "outcome_status": null, "persistent_id": "", "id": 123060442, "location_subtype": "", "month": "2024-04"}, {"category": "anti-social-behaviour", "location_type": "Force", "location": {"latitude": "51.501941", "street": {"id": 1680853, "name": "On or near Lower Road"}, "longitude": "-0.112127"}, "context": "", "outcome_status": null, "persistent_id": "", "id": 123060622, "location_subtype": "", "month": "2024-04"}, {"category": "anti-social-behaviour", "location_type": "Force", "location": {"latitude": "51.496941", "street": {"id": 1677903, "name": "On or near Conference/exhibition Centre"}, "longitude": "-0.130617"}, "context": "", "outcome_status": null, "persistent_id": "", "id": 123060857, "location_subtype": "", "month": "2024-04"}, {"category": "anti-social-behaviour", "location_type": "Force", "location": {"latitude": "51.509786", "street": {"id": 1678937, "name": "On or near Police Station"}, "longitude": "-0.124658"}, "context": "", "outcome_status": null, "persistent_id": "", "id": 123061003, "location_subtype": "", "month": "2024-04"}, {"category": "anti-social-behaviour", "location_type": "Force", "location": {"latitude": "51.503196", "street": {"id": 1678183, "name": "On or near Downing Street"}, "longitude": "-0.127032"}, "context": "", "outcome_status": null, "persistent_id": "", "id": 123061151, "location_subtype": "", "month": "2024-04"}, {"category": "anti-social-behaviour", "location_type": "Force", "location": {"latitude": "51.514523", "street": {"id": 1678276, "name": "On or near Theatre/concert Hall"}, "longitude": "-0.129580"}, "context": "", "outcome_status": null, "persistent_id": "", "id": 123061149, "location_subtype": "", "month": "2024-04"}, {"category": "anti-social-behaviour", "location_type": "Force", "location": {"latitude": "51.511623", "street": {"id": 1678738, "name": "On or near Rose Street"}, "longitude": "-0.125951"}, "context": "", "outcome_status": null, "persistent_id": "", "id": 123061220, "location_subtype": "", "month": "2024-04"}, {"category": "anti-social-behaviour", "location_type": "Force", "location": {"latitude": "51.511623", "street": {"id": 1678738, "name": "On or near Rose Street"}, "longitude": "-0.125951"}, "context": "", "outcome_status": null, "persistent_id": "", "id": 123061221, "location_subtype": "", "month": "2024-04"}, {"category": "anti-social-behaviour", "location_type": "Force", "location": {"latitude": "51.506334", "street": {"id": 1677193, "name": "On or near Conference/exhibition Centre"}, "longitude": "-0.136010"}, "context": "", "outcome_status": null, "persistent_id": "", "id": 123061475, "location_subtype": "", "month": "2024-04"}, {"category": "anti-social-behaviour", "location_type": "Force", "location": {"latitude": "51.516668", "street": {"id": 1676419, "name": "On or near Margaret Street"}, "longitude": "-0.141210"}, "context": "", "outcome_status": null, "persistent_id": "", "id": 123061545, "location_subtype": "", "month": "2024-04"}, {"category": "anti-social-behaviour", "location_type": "Force", "location": {"latitude": "51.514408", "street": {"id": 1678779, "name": "On or near Neal Street"}, "longitude": "-0.125780"}, "context": "", "outcome_status": null, "persistent_id": "", "id": 123070411, "location_subtype": "", "month": "2024-04"}, {"category": "anti-social-behaviour", "location_type": "Force", "location": {"latitude": "51.511790", "street": {"id": 1677815, "name": "On or near Dansey Place"}, "longitude": "-0.131925"}, "context": "", "outcome_status": null, "persistent_id": "", "id": 123070478, "location_subtype": "", "month": "2024-04"}, {"category": "anti-social-behaviour", "location_type": "Force", "location": {"latitude": "51.512802", "street": {"id": 1679061, "name": "On or near James Street"}, "longitude": "-0.123770"}, "context": "", "outcome_status": null, "persistent_id": "", "id": 123070511, "location_subtype": "", "month": "2024-04"}, {"category": "anti-social-behaviour", "location_type": "Force", "location": {"latitude": "51.510942", "street": {"id": 1677925, "name": "On or near Leicester Street"}, "longitude": "-0.131196"}, "context": "", "outcome_status": null, "persistent_id": "", "id": 123070933, "location_subtype": "", "month": "2024-04"}, {"category": "anti-social-behaviour", "location_type": "Force", "location": {"latitude": "51.514684", "street": {"id": 1676465, "name": "On or near Argyll Street"}, "longitude": "-0.140844"}, "context": "", "outcome_status": null, "persistent_id": "", "id": 123071356, "location_subtype": "", "month": "2024-04"}, {"category": "anti-social-behaviour", "location_type": "Force", "location": {"latitude": "51.514064", "street": {"id": 1679774, "name": "On or near Kean Street"}, "longitude": "-0.118890"}, "context": "", "outcome_status": null, "persistent_id": "", "id": 123071560, "location_subtype": "", "month": "2024-04"}, {"category": "anti-social-behaviour", "location_type": "Force", "location": {"latitude": "51.518130", "street": {"id": 1676977, "name": "On or near Parking Area"}, "longitude": "-0.137604"}, "context": "", "outcome_status": null, "persistent_id": "", "id": 123071579, "location_subtype": "", "month": "2024-04"}, {"category": "anti-social-behaviour", "location_type": "Force", "location": {"latitude": "51.513970", "street": {"id": 1677442, "name": "On or near Wardour Street"}, "longitude": "-0.134387"}, "context": "", "outcome_status": null, "persistent_id": "", "id": 123071660, "location_subtype": "", "month": "2024-04"}, {"category": "anti-social-behaviour", "location_type": "Force", "location": {"latitude": "51.516001", "street": {"id": 1679229, "name": "On or near Macklin Street"}, "longitude": "-0.122471"}, "context": "", "outcome_status": null, "persistent_id": "", "id": 123071848, "location_subtype": "", "month": "2024-04"}, {"category": "anti-social-behaviour", "location_type": "Force", "location": {"latitude": "51.518106", "street": {"id": 1680014, "name": "On or near Race Track"}, "longitude": "-0.116951"}, "context": "", "outcome_status": null, "persistent_id": "", "id": 123071976, "location_subtype": "", "month": "2024-04"}, {"category": "anti-social-behaviour", "location_type": "Force", "location": {"latitude": "51.504717", "street": {"id": 1675503, "name": "On or near Down Street Mews"}, "longitude": "-0.148022"}, "context": "", "outcome_status": null, "persistent_id": "", "id": 123072083, "location_subtype": "", "month": "2024-04"}, {"category": "anti-social-behaviour", "location_type": "Force", "location": {"latitude": "51.507182", "street": {"id": 1678986, "name": "On or near Craven Street"}, "longitude": "-0.124332"}, "context": "", "outcome_status": null, "persistent_id": "", "id": 123072275, "location_subtype": "", "month": "2024-04"}, {"category": "anti-social-behaviour", "location_type": "Force", "location": {"latitude": "51.507623", "street": {"id": 1678103, "name": "On or near Cockspur Street"}, "longitude": "-0.130006"}, "context": "", "outcome_status": null, "persistent_id": "", "id": 123072447, "location_subtype": "", "month": "2024-04"}, {"category": "anti-social-behaviour", "location_type": "Force", "location": {"latitude": "51.511783", "street": {"id": 1678199, "name": "On or near Nightclub"}, "longitude": "-0.129778"}, "context": "", "outcome_status": null, "persistent_id": "", "id": 123072473, "location_subtype": "", "month": "2024-04"}, {"category": "anti-social-behaviour", "location_type": "Force", "location": {"latitude": "51.512300", "street": {"id": 1678389, "name": "On or near Theatre/concert Hall"}, "longitude": "-0.128388"}, "context": "", "outcome_status": null, "persistent_id": "", "id": 123072911, "location_subtype": "", "month": "2024-04"}, {"category": "anti-social-behaviour", "location_type": "Force", "location": {"latitude": "51.518130", "street": {"id": 1676977, "name": "On or near Parking Area"}, "longitude": "-0.137604"}, "context": "", "outcome_status": null, "persistent_id": "", "id": 123072934, "location_subtype": "", "month": "2024-04"}, {"category": "anti-social-behaviour", "location_type": "Force", "location": {"latitude": "51.513205", "street": {"id": 1678985, "name": "On or near Long Acre"}, "longitude": "-0.124229"}, "context": "", "outcome_status": null, "persistent_id": "", "id": 123073047, "location_subtype": "", "month": "2024-04"}, {"category": "anti-social-behaviour", "location_type": "Force", "location": {"latitude": "51.493697", "street": {"id": 1677645, "name": "On or near Fynes Street"}, "longitude": "-0.133011"}, "context": "", "outcome_status": null, "persistent_id": "", "id": 123073182, "location_subtype": "", "month": "2024-04"}, {"category": "anti-social-behaviour", "location_type": "Force", "location": {"latitude": "51.504717", "street": {"id": 1675503, "name": "On or near Down Street Mews"}, "longitude": "-0.148022"}, "context": "", "outcome_status": null, "persistent_id": "", "id": 123073281, "location_subtype": "", "month": "2024-04"}, {"category": "anti-social-behaviour", "location_type": "Force", "location": {"latitude": "51.516751", "street": {"id": 1677076, "name": "On or near Eastcastle Street"}, "longitude": "-0.137401"}, "context": "", "outcome_status": null, "persistent_id": "", "id": 123073430, "location_subtype": "", "month": "2024-04"}, {"category": "anti-social-behaviour", "location_type": "Force", "location": {"latitude": "51.511475", "street": {"id": 1679551, "name": "On or near Burleigh Street"}, "longitude": "-0.120625"}, "context": "", "outcome_status": null, "persistent_id": "", "id": 123073595, "location_subtype": "", "month": "2024-04"}, {"category": "anti-social-behaviour", "location_type": "Force", "location": {"latitude": "51.510513", "street": {"id": 1678829, "name": "On or near Bedford Court"}, "longitude": "-0.125161"}, "context": "", "outcome_status": null, "persistent_id": "", "id": 123073612, "location_subtype": "", "month": "2024-04"}, {"category": "anti-social-behaviour", "location_type": "Force", "location": {"latitude": "51.508094", "street": {"id": 1681636, "name": "On or near Upper Ground"}, "longitude": "-0.106685"}, "context": "", "outcome_status": null, "persistent_id": "", "id": 123073624, "location_subtype": "", "month": "2024-04"}, {"category": "anti-social-behaviour", "location_type": "Force", "location": {"latitude": "51.496508", "street": {"id": 1676664, "name": "On or near Ambrosden Avenue"}, "longitude": "-0.139610"}, "context": "", "outcome_status": null, "persistent_id": "", "id": 123073722, "location_subtype": "", "month": "2024-04"}, {"category": "anti-social-behaviour", "location_type": "Force", "location": {"latitude": "51.515004", "street": {"id": 1678816, "name": "On or near B401"}, "longitude": "-0.125352"}, "context": "", "outcome_status": null, "persistent_id": "", "id": 123073933, "location_subtype": "", "month": "2024-04"}, {"category": "anti-social-behaviour", "location_type": "Force", "location": {"latitude": "51.506736", "street": {"id": 1678642, "name": "On or near Craig's Court"}, "longitude": "-0.126800"}, "context": "", "outcome_status": null, "persistent_id": "", "id": 123073997, "location_subtype": "", "month": "2024-04"}, {"category": "anti-social-behaviour", "location_type": "Force", "location": {"latitude": "51.495936", "street": {"id": 1676456, "name": "On or near Carlisle Place"}, "longitude": "-0.141491"}, "context": "", "outcome_status": null, "persistent_id": "", "id": 123063057, "location_subtype": "", "month": "2024-04"}, {"category": "anti-social-behaviour", "location_type": "Force", "location": {"latitude": "51.512789", "street": {"id": 1677293, "name": "On or near Ingestre Place"}, "longitude": "-0.135372"}, "context": "", "outcome_status": null, "persistent_id": "", "id": 123063269, "location_subtype": "", "month": "2024-04"}, {"category": "anti-social-behaviour", "location_type": "Force", "location": {"latitude": "51.516295", "street": {"id": 1678131, "name": "On or near Conference/exhibition Centre"}, "longitude": "-0.129487"}, "context": "", "outcome_status": null, "persistent_id": "", "id": 123068721, "location_subtype": "", "month": "2024-04"}, {"category": "anti-social-behaviour", "location_type": "Force", "location": {"latitude": "51.496508", "street": {"id": 1676664, "name": "On or near Ambrosden Avenue"}, "longitude": "-0.139610"}, "context": "", "outcome_status": null, "persistent_id": "", "id": 123079461, "location_subtype": "", "month": "2024-04"}, {"category": "anti-social-behaviour", "location_type": "Force", "location": {"latitude": "51.496508", "street": {"id": 1676664, "name": "On or near Ambrosden Avenue"}, "longitude": "-0.139610"}, "context": "", "outcome_status": null, "persistent_id": "", "id": 123069615, "location_subtype": "", "month": "2024-04"}, {"category": "anti-social-behaviour", "location_type": "Force", "location": {"latitude": "51.499488", "street": {"id": 1679222, "name": "On or near Hospital"}, "longitude": "-0.118410"}, "context": "", "outcome_status": null, "persistent_id": "", "id": 123069357, "location_subtype": "", "month": "2024-04"}, {"category": "anti-social-behaviour", "location_type": "Force", "location": {"latitude": "51.496940", "street": {"id": 1678535, "name": "On or near Lord North Street"}, "longitude": "-0.127159"}, "context": "", "outcome_status": null, "persistent_id": "", "id": 123069457, "location_subtype": "", "month": "2024-04"}, {"category": "anti-social-behaviour", "location_type": "Force", "location": {"latitude": "51.505921", "street": {"id": 1681295, "name": "On or near Aquinas Street"}, "longitude": "-0.109067"}, "context": "", "outcome_status": null, "persistent_id": "", "id": 123070298, "location_subtype": "", "month": "2024-04"}, {"category": "anti-social-behaviour", "location_type": "Force", "location": {"latitude": "51.507938", "street": {"id": 1678191, "name": "On or near Trafalgar Square"}, "longitude": "-0.128898"}, "context": "", "outcome_status": null, "persistent_id": "", "id": 123070431, "location_subtype": "", "month": "2024-04"}, {"category": "anti-social-behaviour", "location_type": "Force", "location": {"latitude": "51.509962", "street": {"id": 1676943, "name": "On or near Nightclub"}, "longitude": "-0.137952"}, "context": "", "outcome_status": null, "persistent_id": "", "id": 123070728, "location_subtype": "", "month": "2024-04"}, {"category": "anti-social-behaviour", "location_type": "Force", "location": {"latitude": "51.519470", "street": {"id": 1676720, "name": "On or near Candover Street"}, "longitude": "-0.139842"}, "context": "", "outcome_status": null, "persistent_id": "", "id": 123071238, "location_subtype": "", "month": "2024-04"}, {"category": "anti-social-behaviour", "location_type": "Force", "location": {"latitude": "51.513370", "street": {"id": 1676871, "name": "On or near Newburgh Street"}, "longitude": "-0.138519"}, "context": "", "outcome_status": null, "persistent_id": "", "id": 123071852, "location_subtype": "", "month": "2024-04"}, {"category": "anti-social-behaviour", "location_type": "Force", "location": {"latitude": "51.496941", "street": {"id": 1677903, "name": "On or near Conference/exhibition Centre"}, "longitude": "-0.130617"}, "context": "", "outcome_status": null, "persistent_id": "", "id": 123071858, "location_subtype": "", "month": "2024-04"}, {"category": "anti-social-behaviour", "location_type": "Force", "location": {"latitude": "51.506736", "street": {"id": 1678642, "name": "On or near Craig's Court"}, "longitude": "-0.126800"}, "context": "", "outcome_status": null, "persistent_id": "", "id": 123072285, "location_subtype": "", "month": "2024-04"}, {"category": "anti-social-behaviour", "location_type": "Force", "location": {"latitude": "51.517596", "street": {"id": 1677320, "name": "On or near Newman Street"}, "longitude": "-0.135680"}, "context": "", "outcome_status": null, "persistent_id": "", "id": 123072312, "location_subtype": "", "month": "2024-04"}, {"category": "anti-social-behaviour", "location_type": "Force", "location": {"latitude": "51.510953", "street": {"id": 1677692, "name": "On or near Nightclub"}, "longitude": "-0.133012"}, "context": "", "outcome_status": null, "persistent_id": "", "id": 123072501, "location_subtype": "", "month": "2024-04"}, {"category": "anti-social-behaviour", "location_type": "Force", "location": {"latitude": "51.515753", "street": {"id": 1676083, "name": "On or near John Prince's Street"}, "longitude": "-0.143092"}, "context": "", "outcome_status": null, "persistent_id": "", "id": 123073249, "location_subtype": "", "month": "2024-04"}, {"category": "anti-social-behaviour", "location_type": "Force", "location": {"latitude": "51.515684", "street": {"id": 1677259, "name": "On or near Nightclub"}, "longitude": "-0.135874"}, "context": "", "outcome_status": null, "persistent_id": "", "id": 123079037, "location_subtype": "", "month": "2024-04"}, {"category": "anti-social-behaviour", "location_type": "Force", "location": {"latitude": "51.502349", "street": {"id": 1675393, "name": "On or near Constitution Hill"}, "longitude": "-0.146144"}, "context": "", "outcome_status": null, "persistent_id": "", "id": 123079263, "location_subtype": "", "month": "2024-04"}, {"category": "anti-social-behaviour", "location_type": "Force", "location": {"latitude": "51.519933", "street": {"id": 1677494, "name": "On or near Shopping Area"}, "longitude": "-0.133899"}, "context": "", "outcome_status": null, "persistent_id": "", "id": 123091213, "location_subtype": "", "month": "2024-04"}, {"category": "anti-social-behaviour", "location_type": "Force", "location": {"latitude": "51.517954", "street": {"id": 1676402, "name": "On or near Little Titchfield Street"}, "longitude": "-0.141777"}, "context": "", "outcome_status": null, "persistent_id": "", "id": 123091508, "location_subtype": "", "month": "2024-04"}, {"category": "anti-social-behaviour", "location_type": "Force", "location": {"latitude": "51.496320", "street": {"id": 1676802, "name": "On or near Thirleby Road"}, "longitude": "-0.138508"}, "context": "", "outcome_status": null, "persistent_id": "", "id": 123091620, "location_subtype": "", "month": "2024-04"}, {"category": "anti-social-behaviour", "location_type": "Force", "location": {"latitude": "51.498746", "street": {"id": 1677103, "name": "On or near Vandon Street"}, "longitude": "-0.136666"}, "context": "", "outcome_status": null, "persistent_id": "", "id": 123091625, "location_subtype": "", "month": "2024-04"}, {"category": "anti-social-behaviour", "location_type": "Force", "location": {"latitude": "51.512495", "street": {"id": 1676635, "name": "On or near Nightclub"}, "longitude": "-0.138915"}, "context": "", "outcome_status": null, "persistent_id": "", "id": 123091628, "location_subtype": "", "month": "2024-04"}, {"category": "anti-social-behaviour", "location_type": "Force", "location": {"latitude": "51.516820", "street": {"id": 1678501, "name": "On or near Dyott Street"}, "longitude": "-0.127583"}, "context": "", "outcome_status": null, "persistent_id": "", "id": 123094259, "location_subtype": "", "month": "2024-04"}, {"category": "anti-social-behaviour", "location_type": "Force", "location": {"latitude": "51.508401", "street": {"id": 1676325, "name": "On or near Dover Street"}, "longitude": "-0.142195"}, "context": "", "outcome_status": null, "persistent_id": "", "id": 123085574, "location_subtype": "", "month": "2024-04"}, {"category": "anti-social-behaviour", "location_type": "Force", "location": {"latitude": "51.515088", "street": {"id": 1676649, "name": "On or near Hills Place"}, "longitude": "-0.140222"}, "context": "", "outcome_status": null, "persistent_id": "", "id": 123085370, "location_subtype": "", "month": "2024-04"}, {"category": "anti-social-behaviour", "location_type": "Force", "location": {"latitude": "51.511534", "street": {"id": 1678076, "name": "On or near Lisle Street"}, "longitude": "-0.130495"}, "context": "", "outcome_status": null, "persistent_id": "", "id": 123088251, "location_subtype": "", "month": "2024-04"}, {"category": "anti-social-behaviour", "location_type": "Force", "location": {"latitude": "51.504066", "street": {"id": 1681189, "name": "On or near Theatre/concert Hall"}, "longitude": "-0.110037"}, "context": "", "outcome_status": null, "persistent_id": "", "id": 123088046, "location_subtype": "", "month": "2024-04"}, {"category": "anti-social-behaviour", "location_type": "Force", "location": {"latitude": "51.499246", "street": {"id": 1676803, "name": "On or near Buckingham Gate"}, "longitude": "-0.138706"}, "context": "", "outcome_status": null, "persistent_id": "", "id": 123087937, "location_subtype": "", "month": "2024-04"}, {"category": "anti-social-behaviour", "location_type": "Force", "location": {"latitude": "51.507623", "street": {"id": 1678103, "name": "On or near Cockspur Street"}, "longitude": "-0.130006"}, "context": "", "outcome_status": null, "persistent_id": "", "id": 123063170, "location_subtype": "", "month": "2024-04"}, {"category": "anti-social-behaviour", "location_type": "Force", "location": {"latitude": "51.507623", "street": {"id": 1678103, "name": "On or near Cockspur Street"}, "longitude": "-0.130006"}, "context": "", "outcome_status": null, "persistent_id": "", "id": 123063416, "location_subtype": "", "month": "2024-04"}, {"category": "anti-social-behaviour", "location_type": "Force", "location": {"latitude": "51.513205", "street": {"id": 1678985, "name": "On or near Long Acre"}, "longitude": "-0.124229"}, "context": "", "outcome_status": null, "persistent_id": "", "id": 123063716, "location_subtype": "", "month": "2024-04"}, {"category": "anti-social-behaviour", "location_type": "Force", "location": {"latitude": "51.498553", "street": {"id": 1677378, "name": "On or near Caxton Street"}, "longitude": "-0.135291"}, "context": "", "outcome_status": null, "persistent_id": "", "id": 123077085, "location_subtype": "", "month": "2024-04"}, {"category": "anti-social-behaviour", "location_type": "Force", "location": {"latitude": "51.507623", "street": {"id": 1678103, "name": "On or near Cockspur Street"}, "longitude": "-0.130006"}, "context": "", "outcome_status": null, "persistent_id": "", "id": 123070081, "location_subtype": "", "month": "2024-04"}, {"category": "anti-social-behaviour", "location_type": "Force", "location": {"latitude": "51.508964", "street": {"id": 1679195, "name": "On or near Lower Robert Street"}, "longitude": "-0.122761"}, "context": "", "outcome_status": null, "persistent_id": "", "id": 123063622, "location_subtype": "", "month": "2024-04"}, {"category": "anti-social-behaviour", "location_type": "Force", "location": {"latitude": "51.519375", "street": {"id": 1677066, "name": "On or near Goodge Place"}, "longitude": "-0.136689"}, "context": "", "outcome_status": null, "persistent_id": "", "id": 123063877, "location_subtype": "", "month": "2024-04"}, {"category": "anti-social-behaviour", "location_type": "Force", "location": {"latitude": "51.515753", "street": {"id": 1676083, "name": "On or near John Prince's Street"}, "longitude": "-0.143092"}, "context": "", "outcome_status": null, "persistent_id": "", "id": 123064074, "location_subtype": "", "month": "2024-04"}, {"category": "anti-social-behaviour", "location_type": "Force", "location": {"latitude": "51.498746", "street": {"id": 1677103, "name": "On or near Vandon Street"}, "longitude": "-0.136666"}, "context": "", "outcome_status": null, "persistent_id": "", "id": 123076108, "location_subtype": "", "month": "2024-04"}, {"category": "anti-social-behaviour", "location_type": "Force", "location": {"latitude": "51.516341", "street": {"id": 1679597, "name": "On or near Nightclub"}, "longitude": "-0.120151"}, "context": "", "outcome_status": null, "persistent_id": "", "id": 123076083, "location_subtype": "", "month": "2024-04"}, {"category": "anti-social-behaviour", "location_type": "Force", "location": {"latitude": "51.497497", "street": {"id": 1677447, "name": "On or near Strutton Ground"}, "longitude": "-0.133922"}, "context": "", "outcome_status": null, "persistent_id": "", "id": 123064118, "location_subtype": "", "month": "2024-04"}, {"category": "anti-social-behaviour", "location_type": "Force", "location": {"latitude": "51.511022", "street": {"id": 1679585, "name": "On or near Strand"}, "longitude": "-0.119880"}, "context": "", "outcome_status": null, "persistent_id": "", "id": 123070856, "location_subtype": "", "month": "2024-04"}, {"category": "anti-social-behaviour", "location_type": "Force", "location": {"latitude": "51.506632", "street": {"id": 1678507, "name": "On or near Theatre/concert Hall"}, "longitude": "-0.127640"}, "context": "", "outcome_status": null, "persistent_id": "", "id": 123064403, "location_subtype": "", "month": "2024-04"}, {"category": "anti-social-behaviour", "location_type": "Force", "location": {"latitude": "51.516875", "street": {"id": 1676380, "name": "On or near Nightclub"}, "longitude": "-0.141807"}, "context": "", "outcome_status": null, "persistent_id": "", "id": 123070637, "location_subtype": "", "month": "2024-04"}, {"category": "anti-social-behaviour", "location_type": "Force", "location": {"latitude": "51.503496", "street": {"id": 1681772, "name": "On or near Hatfields"}, "longitude": "-0.106473"}, "context": "", "outcome_status": null, "persistent_id": "", "id": 123064479, "location_subtype": "", "month": "2024-04"}, {"category": "anti-social-behaviour", "location_type": "Force", "location": {"latitude": "51.512136", "street": {"id": 1675419, "name": "On or near Davies Street"}, "longitude": "-0.148081"}, "context": "", "outcome_status": null, "persistent_id": "", "id": 123064503, "location_subtype": "", "month": "2024-04"}, {"category": "anti-social-behaviour", "location_type": "Force", "location": {"latitude": "51.506707", "street": {"id": 1680245, "name": "On or near Theatre/concert Hall"}, "longitude": "-0.116009"}, "context": "", "outcome_status": null, "persistent_id": "", "id": 123064632, "location_subtype": "", "month": "2024-04"}, {"category": "anti-social-behaviour", "location_type": "Force", "location": {"latitude": "51.516295", "street": {"id": 1678131, "name": "On or near Conference/exhibition Centre"}, "longitude": "-0.129487"}, "context": "", "outcome_status": null, "persistent_id": "", "id": 123064685, "location_subtype": "", "month": "2024-04"}, {"category": "anti-social-behaviour", "location_type": "Force", "location": {"latitude": "51.507097", "street": {"id": 1677926, "name": "On or near Parking Area"}, "longitude": "-0.130864"}, "context": "", "outcome_status": null, "persistent_id": "", "id": 123070326, "location_subtype": "", "month": "2024-04"}, {"category": "anti-social-behaviour", "location_type": "Force", "location": {"latitude": "51.516295", "street": {"id": 1678131, "name": "On or near Conference/exhibition Centre"}, "longitude": "-0.129487"}, "context": "", "outcome_status": null, "persistent_id": "", "id": 123064687, "location_subtype": "", "month": "2024-04"}, {"category": "anti-social-behaviour", "location_type": "Force", "location": {"latitude": "51.509251", "street": {"id": 1677545, "name": "On or near St James's Market"}, "longitude": "-0.133398"}, "context": "", "outcome_status": null, "persistent_id": "", "id": 123065051, "location_subtype": "", "month": "2024-04"}, {"category": "anti-social-behaviour", "location_type": "Force", "location": {"latitude": "51.515004", "street": {"id": 1678816, "name": "On or near B401"}, "longitude": "-0.125352"}, "context": "", "outcome_status": null, "persistent_id": "", "id": 123070263, "location_subtype": "", "month": "2024-04"}, {"category": "anti-social-behaviour", "location_type": "Force", "location": {"latitude": "51.521410", "street": {"id": 1677709, "name": "On or near Ridgmount Gardens"}, "longitude": "-0.132368"}, "context": "", "outcome_status": null, "persistent_id": "", "id": 123065159, "location_subtype": "", "month": "2024-04"}, {"category": "anti-social-behaviour", "location_type": "Force", "location": {"latitude": "51.498553", "street": {"id": 1677378, "name": "On or near Caxton Street"}, "longitude": "-0.135291"}, "context": "", "outcome_status": null, "persistent_id": "", "id": 123070018, "location_subtype": "", "month": "2024-04"}, {"category": "anti-social-behaviour", "location_type": "Force", "location": {"latitude": "51.513205", "street": {"id": 1678985, "name": "On or near Long Acre"}, "longitude": "-0.124229"}, "context": "", "outcome_status": null, "persistent_id": "", "id": 123069726, "location_subtype": "", "month": "2024-04"}, {"category": "anti-social-behaviour", "location_type": "Force", "location": {"latitude": "51.518043", "street": {"id": 1679235, "name": "On or near Further/higher Educational Building"}, "longitude": "-0.122651"}, "context": "", "outcome_status": null, "persistent_id": "", "id": 123065444, "location_subtype": "", "month": "2024-04"}, {"category": "anti-social-behaviour", "location_type": "Force", "location": {"latitude": "51.516785", "street": {"id": 1678562, "name": "On or near Theatre/concert Hall"}, "longitude": "-0.126532"}, "context": "", "outcome_status": null, "persistent_id": "", "id": 123065464, "location_subtype": "", "month": "2024-04"}, {"category": "anti-social-behaviour", "location_type": "Force", "location": {"latitude": "51.497534", "street": {"id": 1677829, "name": "On or near Old Pye Street"}, "longitude": "-0.132307"}, "context": "", "outcome_status": null, "persistent_id": "", "id": 123065550, "location_subtype": "", "month": "2024-04"}, {"category": "anti-social-behaviour", "location_type": "Force", "location": {"latitude": "51.507097", "street": {"id": 1677926, "name": "On or near Parking Area"}, "longitude": "-0.130864"}, "context": "", "outcome_status": null, "persistent_id": "", "id": 123065633, "location_subtype": "", "month": "2024-04"}, {"category": "anti-social-behaviour", "location_type": "Force", "location": {"latitude": "51.515939", "street": {"id": 1677739, "name": "On or near Soho Street"}, "longitude": "-0.132693"}, "context": "", "outcome_status": null, "persistent_id": "", "id": 123065881, "location_subtype": "", "month": "2024-04"}, {"category": "anti-social-behaviour", "location_type": "Force", "location": {"latitude": "51.511022", "street": {"id": 1679585, "name": "On or near Strand"}, "longitude": "-0.119880"}, "context": "", "outcome_status": null, "persistent_id": "", "id": 123066095, "location_subtype": "", "month": "2024-04"}, {"category": "anti-social-behaviour", "location_type": "Force", "location": {"latitude": "51.514704", "street": {"id": 1678048, "name": "On or near Manette Street"}, "longitude": "-0.130826"}, "context": "", "outcome_status": null, "persistent_id": "", "id": 123066295, "location_subtype": "", "month": "2024-04"}, {"category": "anti-social-behaviour", "location_type": "Force", "location": {"latitude": "51.510103", "street": {"id": 1678840, "name": "On or near Chandos Place"}, "longitude": "-0.124818"}, "context": "", "outcome_status": null, "persistent_id": "", "id": 123066739, "location_subtype": "", "month": "2024-04"}, {"category": "anti-social-behaviour", "location_type": "Force", "location": {"latitude": "51.498553", "street": {"id": 1677378, "name": "On or near Caxton Street"}, "longitude": "-0.135291"}, "context": "", "outcome_status": null, "persistent_id": "", "id": 123067737, "location_subtype": "", "month": "2024-04"}, {"category": "anti-social-behaviour", "location_type": "Force", "location": {"latitude": "51.512339", "street": {"id": 1677616, "name": "On or near Nightclub"}, "longitude": "-0.133618"}, "context": "", "outcome_status": null, "persistent_id": "", "id": 123067739, "location_subtype": "", "month": "2024-04"}, {"category": "anti-social-behaviour", "location_type": "Force", "location": {"latitude": "51.512855", "street": {"id": 1678860, "name": "On or near B402"}, "longitude": "-0.124820"}, "context": "", "outcome_status": null, "persistent_id": "", "id": 123068347, "location_subtype": "", "month": "2024-04"}, {"category": "anti-social-behaviour", "location_type": "Force", "location": {"latitude": "51.496940", "street": {"id": 1678535, "name": "On or near Lord North Street"}, "longitude": "-0.127159"}, "context": "", "outcome_status": null, "persistent_id": "", "id": 123068352, "location_subtype": "", "month": "2024-04"}, {"category": "anti-social-behaviour", "location_type": "Force", "location": {"latitude": "51.505035", "street": {"id": 1680614, "name": "On or near Further/higher Educational Building"}, "longitude": "-0.112677"}, "context": "", "outcome_status": null, "persistent_id": "", "id": 123068387, "location_subtype": "", "month": "2024-04"}, {"category": "anti-social-behaviour", "location_type": "Force", "location": {"latitude": "51.510152", "street": {"id": 1677738, "name": "On or near Theatre/concert Hall"}, "longitude": "-0.132382"}, "context": "", "outcome_status": null, "persistent_id": "", "id": 123068709, "location_subtype": "", "month": "2024-04"}, {"category": "anti-social-behaviour", "location_type": "Force", "location": {"latitude": "51.518456", "street": {"id": 1677599, "name": "On or near Percy Street"}, "longitude": "-0.133209"}, "context": "", "outcome_status": null, "persistent_id": "", "id": 123069116, "location_subtype": "", "month": "2024-04"}, {"category": "anti-social-behaviour", "location_type": "Force", "location": {"latitude": "51.510953", "street": {"id": 1677692, "name": "On or near Nightclub"}, "longitude": "-0.133012"}, "context": "", "outcome_status": null, "persistent_id": "", "id": 123069566, "location_subtype": "", "month": "2024-04"}, {"category": "anti-social-behaviour", "location_type": "Force", "location": {"latitude": "51.507938", "street": {"id": 1678191, "name": "On or near Trafalgar Square"}, "longitude": "-0.128898"}, "context": "", "outcome_status": null, "persistent_id": "", "id": 123069748, "location_subtype": "", "month": "2024-04"}, {"category": "anti-social-behaviour", "location_type": "Force", "location": {"latitude": "51.512770", "street": {"id": 1679877, "name": "On or near Kingsway Tunnel"}, "longitude": "-0.118367"}, "context": "", "outcome_status": null, "persistent_id": "", "id": 123074278, "location_subtype": "", "month": "2024-04"}, {"category": "anti-social-behaviour", "location_type": "Force", "location": {"latitude": "51.507623", "street": {"id": 1678103, "name": "On or near Cockspur Street"}, "longitude": "-0.130006"}, "context": "", "outcome_status": null, "persistent_id": "", "id": 123074384, "location_subtype": "", "month": "2024-04"}, {"category": "anti-social-behaviour", "location_type": "Force", "location": {"latitude": "51.499816", "street": {"id": 1680770, "name": "On or near Murphy Street"}, "longitude": "-0.112489"}, "context": "", "outcome_status": null, "persistent_id": "", "id": 123074404, "location_subtype": "", "month": "2024-04"}, {"category": "anti-social-behaviour", "location_type": "Force", "location": {"latitude": "51.516275", "street": {"id": 1678661, "name": "On or near Theatre/concert Hall"}, "longitude": "-0.126121"}, "context": "", "outcome_status": null, "persistent_id": "", "id": 123074649, "location_subtype": "", "month": "2024-04"}, {"category": "anti-social-behaviour", "location_type": "Force", "location": {"latitude": "51.498335", "street": {"id": 1677860, "name": "On or near Abbey Orchard Street"}, "longitude": "-0.131193"}, "context": "", "outcome_status": null, "persistent_id": "", "id": 123074834, "location_subtype": "", "month": "2024-04"}, {"category": "anti-social-behaviour", "location_type": "Force", "location": {"latitude": "51.513370", "street": {"id": 1676871, "name": "On or near Newburgh Street"}, "longitude": "-0.138519"}, "context": "", "outcome_status": null, "persistent_id": "", "id": 123075086, "location_subtype": "", "month": "2024-04"}, {"category": "anti-social-behaviour", "location_type": "Force", "location": {"latitude": "51.515753", "street": {"id": 1676083, "name": "On or near John Prince's Street"}, "longitude": "-0.143092"}, "context": "", "outcome_status": null, "persistent_id": "", "id": 123075088, "location_subtype": "", "month": "2024-04"}, {"category": "anti-social-behaviour", "location_type": "Force", "location": {"latitude": "51.495936", "street": {"id": 1676456, "name": "On or near Carlisle Place"}, "longitude": "-0.141491"}, "context": "", "outcome_status": null, "persistent_id": "", "id": 123075106, "location_subtype": "", "month": "2024-04"}, {"category": "anti-social-behaviour", "location_type": "Force", "location": {"latitude": "51.511783", "street": {"id": 1678199, "name": "On or near Nightclub"}, "longitude": "-0.129778"}, "context": "", "outcome_status": null, "persistent_id": "", "id": 123075108, "location_subtype": "", "month": "2024-04"}, {"category": "anti-social-behaviour", "location_type": "Force", "location": {"latitude": "51.511623", "street": {"id": 1678738, "name": "On or near Rose Street"}, "longitude": "-0.125951"}, "context": "", "outcome_status": null, "persistent_id": "", "id": 123075321, "location_subtype": "", "month": "2024-04"}, {"category": "anti-social-behaviour", "location_type": "Force", "location": {"latitude": "51.517845", "street": {"id": 1679284, "name": "On or near Further/higher Educational Building"}, "longitude": "-0.121977"}, "context": "", "outcome_status": null, "persistent_id": "", "id": 123075422, "location_subtype": "", "month": "2024-04"}, {"category": "anti-social-behaviour", "location_type": "Force", "location": {"latitude": "51.513075", "street": {"id": 1679850, "name": "On or near Theatre/concert Hall"}, "longitude": "-0.118888"}, "context": "", "outcome_status": null, "persistent_id": "", "id": 123075457, "location_subtype": "", "month": "2024-04"}, {"category": "anti-social-behaviour", "location_type": "Force", "location": {"latitude": "51.521458", "street": {"id": 1678167, "name": "On or near Malet Street"}, "longitude": "-0.130305"}, "context": "", "outcome_status": null, "persistent_id": "", "id": 123075472, "location_subtype": "", "month": "2024-04"}, {"category": "anti-social-behaviour", "location_type": "Force", "location": {"latitude": "51.500978", "street": {"id": 1678704, "name": "On or near Bridge Street"}, "longitude": "-0.125524"}, "context": "", "outcome_status": null, "persistent_id": "", "id": 123075560, "location_subtype": "", "month": "2024-04"}, {"category": "anti-social-behaviour", "location_type": "Force", "location": {"latitude": "51.496941", "street": {"id": 1677903, "name": "On or near Conference/exhibition Centre"}, "longitude": "-0.130617"}, "context": "", "outcome_status": null, "persistent_id": "", "id": 123075677, "location_subtype": "", "month": "2024-04"}, {"category": "anti-social-behaviour", "location_type": "Force", "location": {"latitude": "51.511137", "street": {"id": 1678783, "name": "On or near New Row"}, "longitude": "-0.125914"}, "context": "", "outcome_status": null, "persistent_id": "", "id": 123075844, "location_subtype": "", "month": "2024-04"}, {"category": "anti-social-behaviour", "location_type": "Force", "location": {"latitude": "51.515939", "street": {"id": 1677739, "name": "On or near Soho Street"}, "longitude": "-0.132693"}, "context": "", "outcome_status": null, "persistent_id": "", "id": 123075871, "location_subtype": "", "month": "2024-04"}, {"category": "anti-social-behaviour", "location_type": "Force", "location": {"latitude": "51.496320", "street": {"id": 1676802, "name": "On or near Thirleby Road"}, "longitude": "-0.138508"}, "context": "", "outcome_status": null, "persistent_id": "", "id": 123075896, "location_subtype": "", "month": "2024-04"}, {"category": "anti-social-behaviour", "location_type": "Force", "location": {"latitude": "51.509786", "street": {"id": 1678937, "name": "On or near Police Station"}, "longitude": "-0.124658"}, "context": "", "outcome_status": null, "persistent_id": "", "id": 123059915, "location_subtype": "", "month": "2024-04"}, {"category": "anti-social-behaviour", "location_type": "Force", "location": {"latitude": "51.495591", "street": {"id": 1677126, "name": "On or near Greencoat Row"}, "longitude": "-0.136794"}, "context": "", "outcome_status": null, "persistent_id": "", "id": 123059985, "location_subtype": "", "month": "2024-04"}, {"category": "anti-social-behaviour", "location_type": "Force", "location": {"latitude": "51.509158", "street": {"id": 1677370, "name": "On or near Theatre/concert Hall"}, "longitude": "-0.134930"}, "context": "", "outcome_status": null, "persistent_id": "", "id": 123060031, "location_subtype": "", "month": "2024-04"}, {"category": "anti-social-behaviour", "location_type": "Force", "location": {"latitude": "51.511301", "street": {"id": 1680089, "name": "On or near Conference/exhibition Centre"}, "longitude": "-0.115963"}, "context": "", "outcome_status": null, "persistent_id": "", "id": 123060036, "location_subtype": "", "month": "2024-04"}, {"category": "anti-social-behaviour", "location_type": "Force", "location": {"latitude": "51.509491", "street": {"id": 1678539, "name": "On or near William Iv Street"}, "longitude": "-0.125924"}, "context": "", "outcome_status": null, "persistent_id": "", "id": 123059983, "location_subtype": "", "month": "2024-04"}, {"category": "anti-social-behaviour", "location_type": "Force", "location": {"latitude": "51.508964", "street": {"id": 1679195, "name": "On or near Lower Robert Street"}, "longitude": "-0.122761"}, "context": "", "outcome_status": null, "persistent_id": "", "id": 123059697, "location_subtype": "", "month": "2024-04"}, {"category": "anti-social-behaviour", "location_type": "Force", "location": {"latitude": "51.499692", "street": {"id": 1681105, "name": "On or near Greenham Close"}, "longitude": "-0.110391"}, "context": "", "outcome_status": null, "persistent_id": "", "id": 123059660, "location_subtype": "", "month": "2024-04"}, {"category": "anti-social-behaviour", "location_type": "Force", "location": {"latitude": "51.503196", "street": {"id": 1678183, "name": "On or near Downing Street"}, "longitude": "-0.127032"}, "context": "", "outcome_status": null, "persistent_id": "", "id": 123059557, "location_subtype": "", "month": "2024-04"}, {"category": "anti-social-behaviour", "location_type": "Force", "location": {"latitude": "51.514537", "street": {"id": 1678431, "name": "On or near St Giles Passage"}, "longitude": "-0.128196"}, "context": "", "outcome_status": null, "persistent_id": "", "id": 123092327, "location_subtype": "", "month": "2024-04"}, {"category": "anti-social-behaviour", "location_type": "Force", "location": {"latitude": "51.498746", "street": {"id": 1677103, "name": "On or near Vandon Street"}, "longitude": "-0.136666"}, "context": "", "outcome_status": null, "persistent_id": "", "id": 123092146, "location_subtype": "", "month": "2024-04"}, {"category": "anti-social-behaviour", "location_type": "Force", "location": {"latitude": "51.511623", "street": {"id": 1678738, "name": "On or near Rose Street"}, "longitude": "-0.125951"}, "context": "", "outcome_status": null, "persistent_id": "", "id": 123091817, "location_subtype": "", "month": "2024-04"}, {"category": "anti-social-behaviour", "location_type": "Force", "location": {"latitude": "51.516058", "street": {"id": 1676584, "name": "On or near Market Place"}, "longitude": "-0.140154"}, "context": "", "outcome_status": null, "persistent_id": "", "id": 123091811, "location_subtype": "", "month": "2024-04"}, {"category": "anti-social-behaviour", "location_type": "Force", "location": {"latitude": "51.518456", "street": {"id": 1677599, "name": "On or near Percy Street"}, "longitude": "-0.133209"}, "context": "", "outcome_status": null, "persistent_id": "", "id": 123091735, "location_subtype": "", "month": "2024-04"}, {"category": "anti-social-behaviour", "location_type": "Force", "location": {"latitude": "51.516568", "street": {"id": 1679291, "name": "On or near Newton Street"}, "longitude": "-0.121381"}, "context": "", "outcome_status": null, "persistent_id": "", "id": 123091729, "location_subtype": "", "month": "2024-04"}, {"category": "anti-social-behaviour", "location_type": "Force", "location": {"latitude": "51.514010", "street": {"id": 1678889, "name": "On or near Parking Area"}, "longitude": "-0.124528"}, "context": "", "outcome_status": null, "persistent_id": "", "id": 123091719, "location_subtype": "", "month": "2024-04"}, {"category": "anti-social-behaviour", "location_type": "Force", "location": {"latitude": "51.499894", "street": {"id": 1677725, "name": "On or near Shopping Area"}, "longitude": "-0.132899"}, "context": "", "outcome_status": null, "persistent_id": "", "id": 123092893, "location_subtype": "", "month": "2024-04"}, {"category": "anti-social-behaviour", "location_type": "Force", "location": {"latitude": "51.514286", "street": {"id": 1677663, "name": "On or near Chapone Place"}, "longitude": "-0.132818"}, "context": "", "outcome_status": null, "persistent_id": "", "id": 123091123, "location_subtype": "", "month": "2024-04"}, {"category": "anti-social-behaviour", "location_type": "Force", "location": {"latitude": "51.512300", "street": {"id": 1678389, "name": "On or near Theatre/concert Hall"}, "longitude": "-0.128388"}, "context": "", "outcome_status": null, "persistent_id": "", "id": 123092863, "location_subtype": "", "month": "2024-04"}, {"category": "anti-social-behaviour", "location_type": "Force", "location": {"latitude": "51.496508", "street": {"id": 1676664, "name": "On or near Ambrosden Avenue"}, "longitude": "-0.139610"}, "context": "", "outcome_status": null, "persistent_id": "", "id": 123090554, "location_subtype": "", "month": "2024-04"}, {"category": "anti-social-behaviour", "location_type": "Force", "location": {"latitude": "51.503044", "street": {"id": 1681631, "name": "On or near The Cut"}, "longitude": "-0.107428"}, "context": "", "outcome_status": null, "persistent_id": "", "id": 123090446, "location_subtype": "", "month": "2024-04"}, {"category": "anti-social-behaviour", "location_type": "Force", "location": {"latitude": "51.513057", "street": {"id": 1675886, "name": "On or near Shopping Area"}, "longitude": "-0.144844"}, "context": "", "outcome_status": null, "persistent_id": "", "id": 123090263, "location_subtype": "", "month": "2024-04"}, {"category": "anti-social-behaviour", "location_type": "Force", "location": {"latitude": "51.510623", "street": {"id": 1678627, "name": "On or near St Martin's Lane"}, "longitude": "-0.126987"}, "context": "", "outcome_status": null, "persistent_id": "", "id": 123090254, "location_subtype": "", "month": "2024-04"}, {"category": "anti-social-behaviour", "location_type": "Force", "location": {"latitude": "51.497540", "street": {"id": 1677294, "name": "On or near Victoria Street"}, "longitude": "-0.135490"}, "context": "", "outcome_status": null, "persistent_id": "", "id": 123090070, "location_subtype": "", "month": "2024-04"}, {"category": "anti-social-behaviour", "location_type": "Force", "location": {"latitude": "51.511534", "street": {"id": 1678076, "name": "On or near Lisle Street"}, "longitude": "-0.130495"}, "context": "", "outcome_status": null, "persistent_id": "", "id": 123089924, "location_subtype": "", "month": "2024-04"}, {"category": "anti-social-behaviour", "location_type": "Force", "location": {"latitude": "51.508964", "street": {"id": 1679195, "name": "On or near Lower Robert Street"}, "longitude": "-0.122761"}, "context": "", "outcome_status": null, "persistent_id": "", "id": 123089572, "location_subtype": "", "month": "2024-04"}, {"category": "anti-social-behaviour", "location_type": "Force", "location": {"latitude": "51.500608", "street": {"id": 1681635, "name": "On or near Gray Street"}, "longitude": "-0.108091"}, "context": "", "outcome_status": null, "persistent_id": "", "id": 123089563, "location_subtype": "", "month": "2024-04"}, {"category": "anti-social-behaviour", "location_type": "Force", "location": {"latitude": "51.501162", "street": {"id": 1680084, "name": "On or near Addington Street"}, "longitude": "-0.116252"}, "context": "", "outcome_status": null, "persistent_id": "", "id": 123089268, "location_subtype": "", "month": "2024-04"}, {"category": "anti-social-behaviour", "location_type": "Force", "location": {"latitude": "51.496949", "street": {"id": 1677316, "name": "On or near Artillery Row"}, "longitude": "-0.135630"}, "context": "", "outcome_status": null, "persistent_id": "", "id": 123089202, "location_subtype": "", "month": "2024-04"}, {"category": "anti-social-behaviour", "location_type": "Force", "location": {"latitude": "51.510520", "street": {"id": 1677019, "name": "On or near Glasshouse Street"}, "longitude": "-0.137439"}, "context": "", "outcome_status": null, "persistent_id": "", "id": 123089013, "location_subtype": "", "month": "2024-04"}, {"category": "anti-social-behaviour", "location_type": "Force", "location": {"latitude": "51.497497", "street": {"id": 1677447, "name": "On or near Strutton Ground"}, "longitude": "-0.133922"}, "context": "", "outcome_status": null, "persistent_id": "", "id": 123088194, "location_subtype": "", "month": "2024-04"}, {"category": "anti-social-behaviour", "location_type": "Force", "location": {"latitude": "51.515449", "street": {"id": 1679081, "name": "On or near Drury Lane"}, "longitude": "-0.123373"}, "context": "", "outcome_status": null, "persistent_id": "", "id": 123071481, "location_subtype": "", "month": "2024-04"}, {"category": "anti-social-behaviour", "location_type": "Force", "location": {"latitude": "51.509097", "street": {"id": 1675613, "name": "On or near Nightclub"}, "longitude": "-0.146936"}, "context": "", "outcome_status": null, "persistent_id": "", "id": 123074871, "location_subtype": "", "month": "2024-04"}, {"category": "anti-social-behaviour", "location_type": "Force", "location": {"latitude": "51.515753", "street": {"id": 1676083, "name": "On or near John Prince's Street"}, "longitude": "-0.143092"}, "context": "", "outcome_status": null, "persistent_id": "", "id": 123076862, "location_subtype": "", "month": "2024-04"}, {"category": "anti-social-behaviour", "location_type": "Force", "location": {"latitude": "51.512780", "street": {"id": 1677484, "name": "On or near Peter Street"}, "longitude": "-0.134234"}, "context": "", "outcome_status": null, "persistent_id": "", "id": 123057549, "location_subtype": "", "month": "2024-04"}, {"category": "anti-social-behaviour", "location_type": "Force", "location": {"latitude": "51.510953", "street": {"id": 1677692, "name": "On or near Nightclub"}, "longitude": "-0.133012"}, "context": "", "outcome_status": null, "persistent_id": "", "id": 123057709, "location_subtype": "", "month": "2024-04"}, {"category": "anti-social-behaviour", "location_type": "Force", "location": {"latitude": "51.499041", "street": {"id": 1677349, "name": "On or near Palmer Street"}, "longitude": "-0.135429"}, "context": "", "outcome_status": null, "persistent_id": "", "id": 123090682, "location_subtype": "", "month": "2024-04"}, {"category": "anti-social-behaviour", "location_type": "Force", "location": {"latitude": "51.506136", "street": {"id": 1680093, "name": "On or near Parking Area"}, "longitude": "-0.115773"}, "context": "", "outcome_status": null, "persistent_id": "", "id": 123060086, "location_subtype": "", "month": "2024-04"}, {"category": "anti-social-behaviour", "location_type": "Force", "location": {"latitude": "51.496941", "street": {"id": 1677903, "name": "On or near Conference/exhibition Centre"}, "longitude": "-0.130617"}, "context": "", "outcome_status": null, "persistent_id": "", "id": 123079565, "location_subtype": "", "month": "2024-04"}, {"category": "anti-social-behaviour", "location_type": "Force", "location": {"latitude": "51.513150", "street": {"id": 1676870, "name": "On or near Carnaby Street"}, "longitude": "-0.138845"}, "context": "", "outcome_status": null, "persistent_id": "", "id": 123079612, "location_subtype": "", "month": "2024-04"}, {"category": "anti-social-behaviour", "location_type": "Force", "location": {"latitude": "51.516001", "street": {"id": 1679229, "name": "On or near Macklin Street"}, "longitude": "-0.122471"}, "context": "", "outcome_status": null, "persistent_id": "", "id": 123077447, "location_subtype": "", "month": "2024-04"}, {"category": "anti-social-behaviour", "location_type": "Force", "location": {"latitude": "51.511783", "street": {"id": 1678199, "name": "On or near Nightclub"}, "longitude": "-0.129778"}, "context": "", "outcome_status": null, "persistent_id": "", "id": 123087279, "location_subtype": "", "month": "2024-04"}, {"category": "anti-social-behaviour", "location_type": "Force", "location": {"latitude": "51.512059", "street": {"id": 1679743, "name": "On or near A301"}, "longitude": "-0.118929"}, "context": "", "outcome_status": null, "persistent_id": "", "id": 123091231, "location_subtype": "", "month": "2024-04"}, {"category": "anti-social-behaviour", "location_type": "Force", "location": {"latitude": "51.517114", "street": {"id": 1679776, "name": "On or near Gate Street"}, "longitude": "-0.119009"}, "context": "", "outcome_status": null, "persistent_id": "", "id": 123092235, "location_subtype": "", "month": "2024-04"}, {"category": "anti-social-behaviour", "location_type": "Force", "location": {"latitude": "51.512764", "street": {"id": 1677421, "name": "On or near Further/higher Educational Building"}, "longitude": "-0.134892"}, "context": "", "outcome_status": null, "persistent_id": "", "id": 123092637, "location_subtype": "", "month": "2024-04"}, {"category": "anti-social-behaviour", "location_type": "Force", "location": {"latitude": "51.496941", "street": {"id": 1677903, "name": "On or near Conference/exhibition Centre"}, "longitude": "-0.130617"}, "context": "", "outcome_status": null, "persistent_id": "", "id": 123093429, "location_subtype": "", "month": "2024-04"}, {"category": "anti-social-behaviour", "location_type": "Force", "location": {"latitude": "51.510953", "street": {"id": 1677692, "name": "On or near Nightclub"}, "longitude": "-0.133012"}, "context": "", "outcome_status": null, "persistent_id": "", "id": 123060220, "location_subtype": "", "month": "2024-04"}, {"category": "anti-social-behaviour", "location_type": "Force", "location": {"latitude": "51.503496", "street": {"id": 1681772, "name": "On or near Hatfields"}, "longitude": "-0.106473"}, "context": "", "outcome_status": null, "persistent_id": "", "id": 123087255, "location_subtype": "", "month": "2024-04"}, {"category": "anti-social-behaviour", "location_type": "Force", "location": {"latitude": "51.512449", "street": {"id": 1680063, "name": "On or near Surrey Street"}, "longitude": "-0.115772"}, "context": "", "outcome_status": null, "persistent_id": "", "id": 123060405, "location_subtype": "", "month": "2024-04"}, {"category": "anti-social-behaviour", "location_type": "Force", "location": {"latitude": "51.512300", "street": {"id": 1678389, "name": "On or near Theatre/concert Hall"}, "longitude": "-0.128388"}, "context": "", "outcome_status": null, "persistent_id": "", "id": 123087251, "location_subtype": "", "month": "2024-04"}, {"category": "anti-social-behaviour", "location_type": "Force", "location": {"latitude": "51.506541", "street": {"id": 1675916, "name": "On or near Ashburton Place"}, "longitude": "-0.144533"}, "context": "", "outcome_status": null, "persistent_id": "", "id": 123083763, "location_subtype": "", "month": "2024-04"}, {"category": "anti-social-behaviour", "location_type": "Force", "location": {"latitude": "51.519378", "street": {"id": 1677300, "name": "On or near Goodge Street"}, "longitude": "-0.135737"}, "context": "", "outcome_status": null, "persistent_id": "", "id": 123083670, "location_subtype": "", "month": "2024-04"}, {"category": "anti-social-behaviour", "location_type": "Force", "location": {"latitude": "51.513205", "street": {"id": 1678985, "name": "On or near Long Acre"}, "longitude": "-0.124229"}, "context": "", "outcome_status": null, "persistent_id": "", "id": 123087241, "location_subtype": "", "month": "2024-04"}, {"category": "anti-social-behaviour", "location_type": "Force", "location": {"latitude": "51.508450", "street": {"id": 1676091, "name": "On or near Nightclub"}, "longitude": "-0.143266"}, "context": "", "outcome_status": null, "persistent_id": "", "id": 123086702, "location_subtype": "", "month": "2024-04"}, {"category": "anti-social-behaviour", "location_type": "Force", "location": {"latitude": "51.513288", "street": {"id": 1675603, "name": "On or near South Molton Lane"}, "longitude": "-0.147530"}, "context": "", "outcome_status": null, "persistent_id": "", "id": 123086548, "location_subtype": "", "month": "2024-04"}, {"category": "anti-social-behaviour", "location_type": "Force", "location": {"latitude": "51.516875", "street": {"id": 1676380, "name": "On or near Nightclub"}, "longitude": "-0.141807"}, "context": "", "outcome_status": null, "persistent_id": "", "id": 123086332, "location_subtype": "", "month": "2024-04"}, {"category": "anti-social-behaviour", "location_type": "Force", "location": {"latitude": "51.513288", "street": {"id": 1675603, "name": "On or near South Molton Lane"}, "longitude": "-0.147530"}, "context": "", "outcome_status": null, "persistent_id": "", "id": 123086020, "location_subtype": "", "month": "2024-04"}, {"category": "anti-social-behaviour", "location_type": "Force", "location": {"latitude": "51.511790", "street": {"id": 1677744, "name": "On or near A401"}, "longitude": "-0.132459"}, "context": "", "outcome_status": null, "persistent_id": "", "id": 123085786, "location_subtype": "", "month": "2024-04"}, {"category": "anti-social-behaviour", "location_type": "Force", "location": {"latitude": "51.506797", "street": {"id": 1675807, "name": "On or near Half Moon Street"}, "longitude": "-0.145963"}, "context": "", "outcome_status": null, "persistent_id": "", "id": 123059469, "location_subtype": "", "month": "2024-04"}, {"category": "anti-social-behaviour", "location_type": "Force", "location": {"latitude": "51.512339", "street": {"id": 1677616, "name": "On or near Nightclub"}, "longitude": "-0.133618"}, "context": "", "outcome_status": null, "persistent_id": "", "id": 123060423, "location_subtype": "", "month": "2024-04"}, {"category": "anti-social-behaviour", "location_type": "Force", "location": {"latitude": "51.520101", "street": {"id": 1677055, "name": "On or near Tottenham Mews"}, "longitude": "-0.137092"}, "context": "", "outcome_status": null, "persistent_id": "", "id": 123059378, "location_subtype": "", "month": "2024-04"}, {"category": "anti-social-behaviour", "location_type": "Force", "location": {"latitude": "51.507911", "street": {"id": 1676686, "name": "On or near Conference/exhibition Centre"}, "longitude": "-0.139635"}, "context": "", "outcome_status": null, "persistent_id": "", "id": 123060458, "location_subtype": "", "month": "2024-04"}, {"category": "anti-social-behaviour", "location_type": "Force", "location": {"latitude": "51.496238", "street": {"id": 1678531, "name": "On or near Smith Square"}, "longitude": "-0.127130"}, "context": "", "outcome_status": null, "persistent_id": "", "id": 123072358, "location_subtype": "", "month": "2024-04"}, {"category": "anti-social-behaviour", "location_type": "Force", "location": {"latitude": "51.519680", "street": {"id": 1678626, "name": "On or near Montague Street"}, "longitude": "-0.125347"}, "context": "", "outcome_status": null, "persistent_id": "", "id": 123073203, "location_subtype": "", "month": "2024-04"}, {"category": "anti-social-behaviour", "location_type": "Force", "location": {"latitude": "51.496466", "street": {"id": 1676405, "name": "On or near Shopping Area"}, "longitude": "-0.141499"}, "context": "", "outcome_status": null, "persistent_id": "", "id": 123079082, "location_subtype": "", "month": "2024-04"}, {"category": "anti-social-behaviour", "location_type": "Force", "location": {"latitude": "51.498553", "street": {"id": 1677378, "name": "On or near Caxton Street"}, "longitude": "-0.135291"}, "context": "", "outcome_status": null, "persistent_id": "", "id": 123079085, "location_subtype": "", "month": "2024-04"}, {"category": "anti-social-behaviour", "location_type": "Force", "location": {"latitude": "51.501941", "street": {"id": 1680853, "name": "On or near Lower Road"}, "longitude": "-0.112127"}, "context": "", "outcome_status": null, "persistent_id": "", "id": 123059103, "location_subtype": "", "month": "2024-04"}, {"category": "anti-social-behaviour", "location_type": "Force", "location": {"latitude": "51.495936", "street": {"id": 1676456, "name": "On or near Carlisle Place"}, "longitude": "-0.141491"}, "context": "", "outcome_status": null, "persistent_id": "", "id": 123060634, "location_subtype": "", "month": "2024-04"}, {"category": "anti-social-behaviour", "location_type": "Force", "location": {"latitude": "51.517516", "street": {"id": 1677426, "name": "On or near Gresse Street"}, "longitude": "-0.134012"}, "context": "", "outcome_status": null, "persistent_id": "", "id": 123059036, "location_subtype": "", "month": "2024-04"}, {"category": "anti-social-behaviour", "location_type": "Force", "location": {"latitude": "51.516275", "street": {"id": 1678661, "name": "On or near Theatre/concert Hall"}, "longitude": "-0.126121"}, "context": "", "outcome_status": null, "persistent_id": "", "id": 123058929, "location_subtype": "", "month": "2024-04"}, {"category": "anti-social-behaviour", "location_type": "Force", "location": {"latitude": "51.517742", "street": {"id": 1678770, "name": "On or near Little Russell Street"}, "longitude": "-0.125614"}, "context": "", "outcome_status": null, "persistent_id": "", "id": 123058919, "location_subtype": "", "month": "2024-04"}, {"category": "anti-social-behaviour", "location_type": "Force", "location": {"latitude": "51.516351", "street": {"id": 1679201, "name": "On or near Stukeley Street"}, "longitude": "-0.122976"}, "context": "", "outcome_status": null, "persistent_id": "", "id": 123058656, "location_subtype": "", "month": "2024-04"}, {"category": "anti-social-behaviour", "location_type": "Force", "location": {"latitude": "51.513052", "street": {"id": 1677758, "name": "On or near Bourchier Street"}, "longitude": "-0.132681"}, "context": "", "outcome_status": null, "persistent_id": "", "id": 123058516, "location_subtype": "", "month": "2024-04"}, {"category": "anti-social-behaviour", "location_type": "Force", "location": {"latitude": "51.508964", "street": {"id": 1679195, "name": "On or near Lower Robert Street"}, "longitude": "-0.122761"}, "context": "", "outcome_status": null, "persistent_id": "", "id": 123058347, "location_subtype": "", "month": "2024-04"}, {"category": "anti-social-behaviour", "location_type": "Force", "location": {"latitude": "51.496508", "street": {"id": 1676664, "name": "On or near Ambrosden Avenue"}, "longitude": "-0.139610"}, "context": "", "outcome_status": null, "persistent_id": "", "id": 123058156, "location_subtype": "", "month": "2024-04"}, {"category": "anti-social-behaviour", "location_type": "Force", "location": {"latitude": "51.519378", "street": {"id": 1677300, "name": "On or near Goodge Street"}, "longitude": "-0.135737"}, "context": "", "outcome_status": null, "persistent_id": "", "id": 123058114, "location_subtype": "", "month": "2024-04"}, {"category": "anti-social-behaviour", "location_type": "Force", "location": {"latitude": "51.516275", "street": {"id": 1678661, "name": "On or near Theatre/concert Hall"}, "longitude": "-0.126121"}, "context": "", "outcome_status": null, "persistent_id": "", "id": 123057999, "location_subtype": "", "month": "2024-04"}, {"category": "anti-social-behaviour", "location_type": "Force", "location": {"latitude": "51.507182", "street": {"id": 1678986, "name": "On or near Craven Street"}, "longitude": "-0.124332"}, "context": "", "outcome_status": null, "persistent_id": "", "id": 123057967, "location_subtype": "", "month": "2024-04"}, {"category": "anti-social-behaviour", "location_type": "Force", "location": {"latitude": "51.510468", "street": {"id": 1678029, "name": "On or near Leicester Square"}, "longitude": "-0.130769"}, "context": "", "outcome_status": null, "persistent_id": "", "id": 123057886, "location_subtype": "", "month": "2024-04"}, {"category": "anti-social-behaviour", "location_type": "Force", "location": {"latitude": "51.511856", "street": {"id": 1678534, "name": "On or near Great Newport Street"}, "longitude": "-0.127570"}, "context": "", "outcome_status": null, "persistent_id": "", "id": 123057830, "location_subtype": "", "month": "2024-04"}, {"category": "anti-social-behaviour", "location_type": "Force", "location": {"latitude": "51.515004", "street": {"id": 1678816, "name": "On or near B401"}, "longitude": "-0.125352"}, "context": "", "outcome_status": null, "persistent_id": "", "id": 123057636, "location_subtype": "", "month": "2024-04"}, {"category": "anti-social-behaviour", "location_type": "Force", "location": {"latitude": "51.506334", "street": {"id": 1677193, "name": "On or near Conference/exhibition Centre"}, "longitude": "-0.136010"}, "context": "", "outcome_status": null, "persistent_id": "", "id": 123057261, "location_subtype": "", "month": "2024-04"}, {"category": "anti-social-behaviour", "location_type": "Force", "location": {"latitude": "51.508087", "street": {"id": 1678961, "name": "On or near Nightclub"}, "longitude": "-0.124122"}, "context": "", "outcome_status": null, "persistent_id": "", "id": 123057076, "location_subtype": "", "month": "2024-04"}, {"category": "anti-social-behaviour", "location_type": "Force", "location": {"latitude": "51.516671", "street": {"id": 1679494, "name": "On or near Nightclub"}, "longitude": "-0.120512"}, "context": "", "outcome_status": null, "persistent_id": "", "id": 123056835, "location_subtype": "", "month": "2024-04"}, {"category": "anti-social-behaviour", "location_type": "Force", "location": {"latitude": "51.517954", "street": {"id": 1676402, "name": "On or near Little Titchfield Street"}, "longitude": "-0.141777"}, "context": "", "outcome_status": null, "persistent_id": "", "id": 123056831, "location_subtype": "", "month": "2024-04"}, {"category": "anti-social-behaviour", "location_type": "Force", "location": {"latitude": "51.517741", "street": {"id": 1676209, "name": "On or near Langham Place"}, "longitude": "-0.143126"}, "context": "", "outcome_status": null, "persistent_id": "", "id": 123056733, "location_subtype": "", "month": "2024-04"}, {"category": "anti-social-behaviour", "location_type": "Force", "location": {"latitude": "51.517741", "street": {"id": 1676209, "name": "On or near Langham Place"}, "longitude": "-0.143126"}, "context": "", "outcome_status": null, "persistent_id": "", "id": 123056667, "location_subtype": "", "month": "2024-04"}, {"category": "anti-social-behaviour", "location_type": "Force", "location": {"latitude": "51.520325", "street": {"id": 1677263, "name": "On or near Tottenham Street"}, "longitude": "-0.135929"}, "context": "", "outcome_status": null, "persistent_id": "", "id": 123056649, "location_subtype": "", "month": "2024-04"}, {"category": "anti-social-behaviour", "location_type": "Force", "location": {"latitude": "51.510345", "street": {"id": 1679211, "name": "On or near Theatre/concert Hall"}, "longitude": "-0.122502"}, "context": "", "outcome_status": null, "persistent_id": "", "id": 123056538, "location_subtype": "", "month": "2024-04"}, {"category": "anti-social-behaviour", "location_type": "Force", "location": {"latitude": "51.498595", "street": {"id": 1680677, "name": "On or near Newnham Terrace"}, "longitude": "-0.113202"}, "context": "", "outcome_status": null, "persistent_id": "", "id": 123056253, "location_subtype": "", "month": "2024-04"}, {"category": "anti-social-behaviour", "location_type": "Force", "location": {"latitude": "51.512449", "street": {"id": 1680063, "name": "On or near Surrey Street"}, "longitude": "-0.115772"}, "context": "", "outcome_status": null, "persistent_id": "", "id": 123056094, "location_subtype": "", "month": "2024-04"}, {"category": "anti-social-behaviour", "location_type": "Force", "location": {"latitude": "51.517319", "street": {"id": 1678533, "name": "On or near Streatham Street"}, "longitude": "-0.127274"}, "context": "", "outcome_status": null, "persistent_id": "", "id": 123055452, "location_subtype": "", "month": "2024-04"}, {"category": "anti-social-behaviour", "location_type": "Force", "location": {"latitude": "51.506236", "street": {"id": 1676347, "name": "On or near Parking Area"}, "longitude": "-0.141322"}, "context": "", "outcome_status": null, "persistent_id": "", "id": 123055368, "location_subtype": "", "month": "2024-04"}, {"category": "anti-social-behaviour", "location_type": "Force", "location": {"latitude": "51.496940", "street": {"id": 1678535, "name": "On or near Lord North Street"}, "longitude": "-0.127159"}, "context": "", "outcome_status": null, "persistent_id": "", "id": 123055225, "location_subtype": "", "month": "2024-04"}, {"category": "anti-social-behaviour", "location_type": "Force", "location": {"latitude": "51.502888", "street": {"id": 1679979, "name": "On or near Chicheley Street"}, "longitude": "-0.117319"}, "context": "", "outcome_status": null, "persistent_id": "", "id": 123055216, "location_subtype": "", "month": "2024-04"}, {"category": "anti-social-behaviour", "location_type": "Force", "location": {"latitude": "51.514903", "street": {"id": 1680610, "name": "On or near Carey Street"}, "longitude": "-0.113494"}, "context": "", "outcome_status": null, "persistent_id": "", "id": 123055101, "location_subtype": "", "month": "2024-04"}, {"category": "anti-social-behaviour", "location_type": "Force", "location": {"latitude": "51.513205", "street": {"id": 1678985, "name": "On or near Long Acre"}, "longitude": "-0.124229"}, "context": "", "outcome_status": null, "persistent_id": "", "id": 123055094, "location_subtype": "", "month": "2024-04"}, {"category": "anti-social-behaviour", "location_type": "Force", "location": {"latitude": "51.519609", "street": {"id": 1676738, "name": "On or near Foley Street"}, "longitude": "-0.139548"}, "context": "", "outcome_status": null, "persistent_id": "", "id": 123072258, "location_subtype": "", "month": "2024-04"}, {"category": "anti-social-behaviour", "location_type": "Force", "location": {"latitude": "51.510729", "street": {"id": 1677342, "name": "On or near Denman Street"}, "longitude": "-0.135283"}, "context": "", "outcome_status": null, "persistent_id": "", "id": 123054766, "location_subtype": "", "month": "2024-04"}, {"category": "anti-social-behaviour", "location_type": "Force", "location": {"latitude": "51.517803", "street": {"id": 1677586, "name": "On or near Percy Mews"}, "longitude": "-0.133971"}, "context": "", "outcome_status": null, "persistent_id": "", "id": 123054586, "location_subtype": "", "month": "2024-04"},