[{"category": "anti-social-behaviour", "location_type": "Force", "location": {"latitude": "51.513310", "street": {"id": 1679459, "name": "On or near Theatre/concert Hall"}, "longitude": "-0.120741"}, "context": "", "outcome_status": null, "persistent_id": "", "id": 122759753, "location_subtype": "", "month": "2024-06"}, {"category": "anti-social-behaviour", "location_type": "Force", "location": {"latitude": "51.504479", "street": {"id": 1675130, "name": "On or near Grantham Place"}, "longitude": "-0.149487"}, "context": "", "outcome_status": null, "persistent_id": "", "id": 122738093, "location_subtype": "", "month": "2024-06"}, {"category": "anti-social-behaviour", "location_type": "Force", "location": {"latitude": "51.512339", "street": {"id": 1677616, "name": "On or near Nightclub"}, "longitude": "-0.133618"}, "context": "", "outcome_status": null, "persistent_id": "", "id": 122738710, "location_subtype": "", "month": "2024-06"}, {"category": "anti-social-behaviour", "location_type": "Force", "location": {"latitude": "51.513575", "street": {"id": 1676335, "name": "On or near Pollen Street"}, "longitude": "-0.142373"}, "context": "", "outcome_status": null, "persistent_id": "", "id": 122739316, "location_subtype": "", "month": "2024-06"}, {"category": "anti-social-behaviour", "location_type": "Force", "location": {"latitude": "51.512078", "street": {"id": 1676378, "name": "On or near New Burlington Place"}, "longitude": "-0.141526"}, "context": "", "outcome_status": null, "persistent_id": "", "id": 122739870, "location_subtype": "", "month": "2024-06"}, {"category": "anti-social-behaviour", "location_type": "Force", "location": {"latitude": "51.514247", "street": {"id": 1676736, "name": "On or near Great Marlborough Street"}, "longitude": "-0.139406"}, "context": "", "outcome_status": null, "persistent_id": "", "id": 122739896, "location_subtype": "", "month": "2024-06"}, {"category": "anti-social-behaviour", "location_type": "Force", "location": {"latitude": "51.512544", "street": {"id": 1675804, "name": "On or near Avery Row"}, "longitude": "-0.145989"}, "context": "", "outcome_status": null, "persistent_id": "", "id": 122739936, "location_subtype": "", "month": "2024-06"}, {"category": "anti-social-behaviour", "location_type": "Force", "location": {"latitude": "51.515753", "street": {"id": 1676083, "name": "On or near John Prince's Street"}, "longitude": "-0.143092"}, "context": "", "outcome_status": null, "persistent_id": "", "id": 122740220, "location_subtype": "", "month": "2024-06"}, {"category": "anti-social-behaviour", "location_type": "Force", "location": {"latitude": "51.506632", "street": {"id": 1678507, "name": "On or near Theatre/concert Hall"}, "longitude": "-0.127640"}, "context": "", "outcome_status": null, "persistent_id": "", "id": 122740953, "location_subtype": "", "month": "2024-06"}, {"category": "anti-social-behaviour", "location_type": "Force", "location": {"latitude": "51.494818", "street": {"id": 1679973, "name": "On or near Pratt Walk"}, "longitude": "-0.117089"}, "context": "", "outcome_status": null, "persistent_id": "", "id": 122740965, "location_subtype": "", "month": "2024-06"}, {"category": "anti-social-behaviour", "location_type": "Force", "location": {"latitude": "51.507234", "street": {"id": 1678092, "name": "On or near Cockspur Court"}, "longitude": "-0.129821"}, "context": "", "outcome_status": null, "persistent_id": "", "id": 122741065, "location_subtype": "", "month": "2024-06"}, {"category": "anti-social-behaviour", "location_type": "Force", "location": {"latitude": "51.516001", "street": {"id": 1679229, "name": "On or near Macklin Street"}, "longitude": "-0.122471"}, "context": "", "outcome_status": null, "persistent_id": "", "id": 122741091, "location_subtype": "", "month": "2024-06"}, {"category": "anti-social-behaviour", "location_type": "Force", "location": {"latitude": "51.508401", "street": {"id": 1676325, "name": "On or near Dover Street"}, "longitude": "-0.142195"}, "context": "", "outcome_status": null, "persistent_id": "", "id": 122741115, "location_subtype": "", "month": "2024-06"}, {"category": "anti-social-behaviour", "location_type": "Force", "location": {"latitude": "51.507970", "street": {"id": 1677656, "name": "On or near Charles Ii Street"}, "longitude": "-0.133162"}, "context": "", "outcome_status": null, "persistent_id": "", "id": 122741684, "location_subtype": "", "month": "2024-06"}, {"category": "anti-social-behaviour", "location_type": "Force", "location": {"latitude": "51.513477", "street": {"id": 1679579, "name": "On or near Theatre/concert Hall"}, "longitude": "-0.119880"}, "context": "", "outcome_status": null, "persistent_id": "", "id": 122741921, "location_subtype": "", "month": "2024-06"}, {"category": "anti-social-behaviour", "location_type": "Force", "location": {"latitude": "51.507623", "street": {"id": 1678103, "name": "On or near Cockspur Street"}, "longitude": "-0.130006"}, "context": "", "outcome_status": null, "persistent_id": "", "id": 122742053, "location_subtype": "", "month": "2024-06"}, {"category": "anti-social-behaviour", "location_type": "Force", "location": {"latitude": "51.519933", "street": {"id": 1677494, "name": "On or near Shopping Area"}, "longitude": "-0.133899"}, "context": "", "outcome_status": null, "persistent_id": "", "id": 122742249, "location_subtype": "", "month": "2024-06"}, {"category": "anti-social-behaviour", "location_type": "Force", "location": {"latitude": "51.512059", "street": {"id": 1679743, "name": "On or near A301"}, "longitude": "-0.118929"}, "context": "", "outcome_status": null, "persistent_id": "", "id": 122742616, "location_subtype": "", "month": "2024-06"}, {"category": "anti-social-behaviour", "location_type": "Force", "location": {"latitude": "51.505432", "street": {"id": 1681498, "name": "On or near Hatfields"}, "longitude": "-0.106680"}, "context": "", "outcome_status": null, "persistent_id": "", "id": 122742736, "location_subtype": "", "month": "2024-06"}, {"category": "anti-social-behaviour", "location_type": "Force", "location": {"latitude": "51.503496", "street": {"id": 1681772, "name": "On or near Hatfields"}, "longitude": "-0.106473"}, "context": "", "outcome_status": null, "persistent_id": "", "id": 122742846, "location_subtype": "", "month": "2024-06"}, {"category": "anti-social-behaviour", "location_type": "Force", "location": {"latitude": "51.513477", "street": {"id": 1679579, "name": "On or near Theatre/concert Hall"}, "longitude": "-0.119880"}, "context": "", "outcome_status": null, "persistent_id": "", "id": 122743248, "location_subtype": "", "month": "2024-06"}, {"category": "anti-social-behaviour", "location_type": "Force", "location": {"latitude": "51.517845", "street": {"id": 1679284, "name": "On or near Further/higher Educational Building"}, "longitude": "-0.121977"}, "context": "", "outcome_status": null, "persistent_id": "", "id": 122743129, "location_subtype": "", "month": "2024-06"}, {"category": "anti-social-behaviour", "location_type": "Force", "location": {"latitude": "51.513057", "street": {"id": 1675886, "name": "On or near Shopping Area"}, "longitude": "-0.144844"}, "context": "", "outcome_status": null, "persistent_id": "", "id": 122743171, "location_subtype": "", "month": "2024-06"}, {"category": "anti-social-behaviour", "location_type": "Force", "location": {"latitude": "51.513724", "street": {"id": 1490731, "name": "On or near Fleet Street"}, "longitude": "-0.111756"}, "context": "", "outcome_status": null, "persistent_id": "", "id": 122743179, "location_subtype": "", "month": "2024-06"}, {"category": "anti-social-behaviour", "location_type": "Force", "location": {"latitude": "51.510345", "street": {"id": 1679211, "name": "On or near Theatre/concert Hall"}, "longitude": "-0.122502"}, "context": "", "outcome_status": null, "persistent_id": "", "id": 122743225, "location_subtype": "", "month": "2024-06"}, {"category": "anti-social-behaviour", "location_type": "Force", "location": {"latitude": "51.510952", "street": {"id": 1677471, "name": "On or near Great Windmill Street"}, "longitude": "-0.134064"}, "context": "", "outcome_status": null, "persistent_id": "", "id": 122744679, "location_subtype": "", "month": "2024-06"}, {"category": "anti-social-behaviour", "location_type": "Force", "location": {"latitude": "51.514112", "street": {"id": 1677546, "name": "On or near Richmond Buildings"}, "longitude": "-0.133690"}, "context": "", "outcome_status": null, "persistent_id": "", "id": 122745315, "location_subtype": "", "month": "2024-06"}, {"category": "anti-social-behaviour", "location_type": "Force", "location": {"latitude": "51.515004", "street": {"id": 1678816, "name": "On or near B401"}, "longitude": "-0.125352"}, "context": "", "outcome_status": null, "persistent_id": "", "id": 122744977, "location_subtype": "", "month": "2024-06"}, {"category": "anti-social-behaviour", "location_type": "Force", "location": {"latitude": "51.517727", "street": {"id": 1678383, "name": "On or near Further/higher Educational Building"}, "longitude": "-0.128612"}, "context": "", "outcome_status": null, "persistent_id": "", "id": 122745397, "location_subtype": "", "month": "2024-06"}, {"category": "anti-social-behaviour", "location_type": "Force", "location": {"latitude": "51.511312", "street": {"id": 1677127, "name": "On or near Lower James Street"}, "longitude": "-0.136326"}, "context": "", "outcome_status": null, "persistent_id": "", "id": 122745799, "location_subtype": "", "month": "2024-06"}, {"category": "anti-social-behaviour", "location_type": "Force", "location": {"latitude": "51.515939", "street": {"id": 1677739, "name": "On or near Soho Street"}, "longitude": "-0.132693"}, "context": "", "outcome_status": null, "persistent_id": "", "id": 122745806, "location_subtype": "", "month": "2024-06"}, {"category": "anti-social-behaviour", "location_type": "Force", "location": {"latitude": "51.511783", "street": {"id": 1678199, "name": "On or near Nightclub"}, "longitude": "-0.129778"}, "context": "", "outcome_status": null, "persistent_id": "", "id": 122745814, "location_subtype": "", "month": "2024-06"}, {"category": "anti-social-behaviour", "location_type": "Force", "location": {"latitude": "51.515939", "street": {"id": 1677739, "name": "On or near Soho Street"}, "longitude": "-0.132693"}, "context": "", "outcome_status": null, "persistent_id": "", "id": 122746105, "location_subtype": "", "month": "2024-06"}, {"category": "anti-social-behaviour", "location_type": "Force", "location": {"latitude": "51.510345", "street": {"id": 1679211, "name": "On or near Theatre/concert Hall"}, "longitude": "-0.122502"}, "context": "", "outcome_status": null, "persistent_id": "", "id": 122746262, "location_subtype": "", "month": "2024-06"}, {"category": "anti-social-behaviour", "location_type": "Force", "location": {"latitude": "51.514600", "street": {"id": 1679615, "name": "On or near Keeley Street"}, "longitude": "-0.120338"}, "context": "", "outcome_status": null, "persistent_id": "", "id": 122746458, "location_subtype": "", "month": "2024-06"}, {"category": "anti-social-behaviour", "location_type": "Force", "location": {"latitude": "51.511790", "street": {"id": 1677815, "name": "On or near Dansey Place"}, "longitude": "-0.131925"}, "context": "", "outcome_status": null, "persistent_id": "", "id": 122746483, "location_subtype": "", "month": "2024-06"}, {"category": "anti-social-behaviour", "location_type": "Force", "location": {"latitude": "51.496941", "street": {"id": 1677903, "name": "On or near Conference/exhibition Centre"}, "longitude": "-0.130617"}, "context": "", "outcome_status": null, "persistent_id": "", "id": 122747048, "location_subtype": "", "month": "2024-06"}, {"category": "anti-social-behaviour", "location_type": "Force", "location": {"latitude": "51.495591", "street": {"id": 1677126, "name": "On or near Greencoat Row"}, "longitude": "-0.136794"}, "context": "", "outcome_status": null, "persistent_id": "", "id": 122747076, "location_subtype": "", "month": "2024-06"}, {"category": "anti-social-behaviour", "location_type": "Force", "location": {"latitude": "51.511022", "street": {"id": 1679585, "name": "On or near Strand"}, "longitude": "-0.119880"}, "context": "", "outcome_status": null, "persistent_id": "", "id": 122747937, "location_subtype": "", "month": "2024-06"}, {"category": "anti-social-behaviour", "location_type": "Force", "location": {"latitude": "51.510953", "street": {"id": 1677692, "name": "On or near Nightclub"}, "longitude": "-0.133012"}, "context": "", "outcome_status": null, "persistent_id": "", "id": 122747948, "location_subtype": "", "month": "2024-06"}, {"category": "anti-social-behaviour", "location_type": "Force", "location": {"latitude": "51.503196", "street": {"id": 1678183, "name": "On or near Downing Street"}, "longitude": "-0.127032"}, "context": "", "outcome_status": null, "persistent_id": "", "id": 122749293, "location_subtype": "", "month": "2024-06"}, {"category": "anti-social-behaviour", "location_type": "Force", "location": {"latitude": "51.505035", "street": {"id": 1680614, "name": "On or near Further/higher Educational Building"}, "longitude": "-0.112677"}, "context": "", "outcome_status": null, "persistent_id": "", "id": 122749751, "location_subtype": "", "month": "2024-06"}, {"category": "anti-social-behaviour", "location_type": "Force", "location": {"latitude": "51.513575", "street": {"id": 1676335, "name": "On or near Pollen Street"}, "longitude": "-0.142373"}, "context": "", "outcome_status": null, "persistent_id": "", "id": 122749897, "location_subtype": "", "month": "2024-06"}, {"category": "anti-social-behaviour", "location_type": "Force", "location": {"latitude": "51.503685", "street": {"id": 1679036, "name": "On or near Ferry Terminal"}, "longitude": "-0.119346"}, "context": "", "outcome_status": null, "persistent_id": "", "id": 122749859, "location_subtype": "", "month": "2024-06"}, {"category": "anti-social-behaviour", "location_type": "Force", "location": {"latitude": "51.510729", "street": {"id": 1677342, "name": "On or near Denman Street"}, "longitude": "-0.135283"}, "context": "", "outcome_status": null, "persistent_id": "", "id": 122750039, "location_subtype": "", "month": "2024-06"}, {"category": "anti-social-behaviour", "location_type": "Force", "location": {"latitude": "51.513477", "street": {"id": 1679579, "name": "On or near Theatre/concert Hall"}, "longitude": "-0.119880"}, "context": "", "outcome_status": null, "persistent_id": "", "id": 122750113, "location_subtype": "", "month": "2024-06"}, {"category": "anti-social-behaviour", "location_type": "Force", "location": {"latitude": "51.513753", "street": {"id": 1678851, "name": "On or near Shelton Street"}, "longitude": "-0.125331"}, "context": "", "outcome_status": null, "persistent_id": "", "id": 122750513, "location_subtype": "", "month": "2024-06"}, {"category": "anti-social-behaviour", "location_type": "Force", "location": {"latitude": "51.503762", "street": {"id": 1681606, "name": "On or near Greet Street"}, "longitude": "-0.107398"}, "context": "", "outcome_status": null, "persistent_id": "", "id": 122750555, "location_subtype": "", "month": "2024-06"}, {"category": "anti-social-behaviour", "location_type": "Force", "location": {"latitude": "51.511997", "street": {"id": 1677958, "name": "On or near Macclesfield Street"}, "longitude": "-0.131355"}, "context": "", "outcome_status": null, "persistent_id": "", "id": 122750866, "location_subtype": "", "month": "2024-06"}, {"category": "anti-social-behaviour", "location_type": "Force", "location": {"latitude": "51.495129", "street": {"id": 1676936, "name": "On or near Francis Street"}, "longitude": "-0.138240"}, "context": "", "outcome_status": null, "persistent_id": "", "id": 122751255, "location_subtype": "", "month": "2024-06"}, {"category": "anti-social-behaviour", "location_type": "Force", "location": {"latitude": "51.515070", "street": {"id": 1676927, "name": "On or near Shopping Area"}, "longitude": "-0.138003"}, "context": "", "outcome_status": null, "persistent_id": "", "id": 122751591, "location_subtype": "", "month": "2024-06"}, {"category": "anti-social-behaviour", "location_type": "Force", "location": {"latitude": "51.518845", "street": {"id": 1676740, "name": "On or near Bourlet Close"}, "longitude": "-0.139550"}, "context": "", "outcome_status": null, "persistent_id": "", "id": 122752283, "location_subtype": "", "month": "2024-06"}, {"category": "anti-social-behaviour", "location_type": "Force", "location": {"latitude": "51.515598", "street": {"id": 1678536, "name": "On or near St Giles High Street"}, "longitude": "-0.127633"}, "context": "", "outcome_status": null, "persistent_id": "", "id": 122752961, "location_subtype": "", "month": "2024-06"}, {"category": "anti-social-behaviour", "location_type": "Force", "location": {"latitude": "51.513970", "street": {"id": 1677442, "name": "On or near Wardour Street"}, "longitude": "-0.134387"}, "context": "", "outcome_status": null, "persistent_id": "", "id": 122753056, "location_subtype": "", "month": "2024-06"}, {"category": "anti-social-behaviour", "location_type": "Force", "location": {"latitude": "51.502888", "street": {"id": 1679979, "name": "On or near Chicheley Street"}, "longitude": "-0.117319"}, "context": "", "outcome_status": null, "persistent_id": "", "id": 122753179, "location_subtype": "", "month": "2024-06"}, {"category": "anti-social-behaviour", "location_type": "Force", "location": {"latitude": "51.514286", "street": {"id": 1677663, "name": "On or near Chapone Place"}, "longitude": "-0.132818"}, "context": "", "outcome_status": null, "persistent_id": "", "id": 122753725, "location_subtype": "", "month": "2024-06"}, {"category": "anti-social-behaviour", "location_type": "Force", "location": {"latitude": "51.511622", "street": {"id": 1679194, "name": "On or near Covent Garden"}, "longitude": "-0.122507"}, "context": "", "outcome_status": null, "persistent_id": "", "id": 122754160, "location_subtype": "", "month": "2024-06"}, {"category": "anti-social-behaviour", "location_type": "Force", "location": {"latitude": "51.498284", "street": {"id": 1681059, "name": "On or near A302"}, "longitude": "-0.110074"}, "context": "", "outcome_status": null, "persistent_id": "", "id": 122754231, "location_subtype": "", "month": "2024-06"}, {"category": "anti-social-behaviour", "location_type": "Force", "location": {"latitude": "51.518456", "street": {"id": 1677599, "name": "On or near Percy Street"}, "longitude": "-0.133209"}, "context": "", "outcome_status": null, "persistent_id": "", "id": 122754233, "location_subtype": "", "month": "2024-06"}, {"category": "anti-social-behaviour", "location_type": "Force", "location": {"latitude": "51.502888", "street": {"id": 1679979, "name": "On or near Chicheley Street"}, "longitude": "-0.117319"}, "context": "", "outcome_status": null, "persistent_id": "", "id": 122754989, "location_subtype": "", "month": "2024-06"}, {"category": "anti-social-behaviour", "location_type": "Force", "location": {"latitude": "51.504824", "street": {"id": 1680380, "name": "On or near Concert Hall Approach"}, "longitude": "-0.115222"}, "context": "", "outcome_status": null, "persistent_id": "", "id": 122755019, "location_subtype": "", "month": "2024-06"}, {"category": "anti-social-behaviour", "location_type": "Force", "location": {"latitude": "51.495936", "street": {"id": 1676456, "name": "On or near Carlisle Place"}, "longitude": "-0.141491"}, "context": "", "outcome_status": null, "persistent_id": "", "id": 122755602, "location_subtype": "", "month": "2024-06"}, {"category": "anti-social-behaviour", "location_type": "Force", "location": {"latitude": "51.519933", "street": {"id": 1677494, "name": "On or near Shopping Area"}, "longitude": "-0.133899"}, "context": "", "outcome_status": null, "persistent_id": "", "id": 122755623, "location_subtype": "", "month": "2024-06"}, {"category": "anti-social-behaviour", "location_type": "Force", "location": {"latitude": "51.497580", "street": {"id": 1680887, "name": "On or near Police Station"}, "longitude": "-0.111573"}, "context": "", "outcome_status": null, "persistent_id": "", "id": 122756269, "location_subtype": "", "month": "2024-06"}, {"category": "anti-social-behaviour", "location_type": "Force", "location": {"latitude": "51.510295", "street": {"id": 1677826, "name": "On or near Coventry Street"}, "longitude": "-0.132318"}, "context": "", "outcome_status": null, "persistent_id": "", "id": 122756273, "location_subtype": "", "month": "2024-06"}, {"category": "anti-social-behaviour", "location_type": "Force", "location": {"latitude": "51.507477", "street": {"id": 1681056, "name": "On or near Upper Ground"}, "longitude": "-0.109679"}, "context": "", "outcome_status": null, "persistent_id": "", "id": 122756390, "location_subtype": "", "month": "2024-06"}, {"category": "anti-social-behaviour", "location_type": "Force", "location": {"latitude": "51.515088", "street": {"id": 1676649, "name": "On or near Hills Place"}, "longitude": "-0.140222"}, "context": "", "outcome_status": null, "persistent_id": "", "id": 122756432, "location_subtype": "", "month": "2024-06"}, {"category": "anti-social-behaviour", "location_type": "Force", "location": {"latitude": "51.500978", "street": {"id": 1678704, "name": "On or near Bridge Street"}, "longitude": "-0.125524"}, "context": "", "outcome_status": null, "persistent_id": "", "id": 122756651, "location_subtype": "", "month": "2024-06"}, {"category": "anti-social-behaviour", "location_type": "Force", "location": {"latitude": "51.500978", "street": {"id": 1678704, "name": "On or near Bridge Street"}, "longitude": "-0.125524"}, "context": "", "outcome_status": null, "persistent_id": "", "id": 122756957, "location_subtype": "", "month": "2024-06"}, {"category": "anti-social-behaviour", "location_type": "Force", "location": {"latitude": "51.516820", "street": {"id": 1678501, "name": "On or near Dyott Street"}, "longitude": "-0.127583"}, "context": "", "outcome_status": null, "persistent_id": "", "id": 122757195, "location_subtype": "", "month": "2024-06"}, {"category": "anti-social-behaviour", "location_type": "Force", "location": {"latitude": "51.511022", "street": {"id": 1679585, "name": "On or near Strand"}, "longitude": "-0.119880"}, "context": "", "outcome_status": null, "persistent_id": "", "id": 122757423, "location_subtype": "", "month": "2024-06"}, {"category": "anti-social-behaviour", "location_type": "Force", "location": {"latitude": "51.516623", "street": {"id": 1677604, "name": "On or near Nightclub"}, "longitude": "-0.132976"}, "context": "", "outcome_status": null, "persistent_id": "", "id": 122757495, "location_subtype": "", "month": "2024-06"}, {"category": "anti-social-behaviour", "location_type": "Force", "location": {"latitude": "51.503893", "street": {"id": 1681490, "name": "On or near Windmill Walk"}, "longitude": "-0.108776"}, "context": "", "outcome_status": null, "persistent_id": "", "id": 122757660, "location_subtype": "", "month": "2024-06"}, {"category": "anti-social-behaviour", "location_type": "Force", "location": {"latitude": "51.518456", "street": {"id": 1677599, "name": "On or near Percy Street"}, "longitude": "-0.133209"}, "context": "", "outcome_status": null, "persistent_id": "", "id": 122758150, "location_subtype": "", "month": "2024-06"}, {"category": "anti-social-behaviour", "location_type": "Force", "location": {"latitude": "51.519639", "street": {"id": 1679160, "name": "On or near Bloomsbury Place"}, "longitude": "-0.122797"}, "context": "", "outcome_status": null, "persistent_id": "", "id": 122758772, "location_subtype": "", "month": "2024-06"}, {"category": "anti-social-behaviour", "location_type": "Force", "location": {"latitude": "51.515939", "street": {"id": 1677739, "name": "On or near Soho Street"}, "longitude": "-0.132693"}, "context": "", "outcome_status": null, "persistent_id": "", "id": 122758778, "location_subtype": "", "month": "2024-06"}, {"category": "anti-social-behaviour", "location_type": "Force", "location": {"latitude": "51.518687", "street": {"id": 1679965, "name": "On or near Eagle Street"}, "longitude": "-0.117820"}, "context": "", "outcome_status": null, "persistent_id": "", "id": 122758894, "location_subtype": "", "month": "2024-06"}, {"category": "anti-social-behaviour", "location_type": "Force", "location": {"latitude": "51.515939", "street": {"id": 1677739, "name": "On or near Soho Street"}, "longitude": "-0.132693"}, "context": "", "outcome_status": null, "persistent_id": "", "id": 122759301, "location_subtype": "", "month": "2024-06"}, {"category": "anti-social-behaviour", "location_type": "Force", "location": {"latitude": "51.500978", "street": {"id": 1678704, "name": "On or near Bridge Street"}, "longitude": "-0.125524"}, "context": "", "outcome_status": null, "persistent_id": "", "id": 119745632, "location_subtype": "", "month": "2024-06"}, {"category": "anti-social-behaviour", "location_type": "Force", "location": {"latitude": "51.503496", "street": {"id": 1681772, "name": "On or near Hatfields"}, "longitude": "-0.106473"}, "context": "", "outcome_status": null, "persistent_id": "", "id": 122759760, "location_subtype": "", "month": "2024-06"}, {"category": "anti-social-behaviour", "location_type": "Force", "location": {"latitude": "51.515070", "street": {"id": 1676927, "name": "On or near Shopping Area"}, "longitude": "-0.138003"}, "context": "", "outcome_status": null, "persistent_id": "", "id": 122759986, "location_subtype": "", "month": "2024-06"}, {"category": "anti-social-behaviour", "location_type": "Force", "location": {"latitude": "51.514112", "street": {"id": 1677546, "name": "On or near Richmond Buildings"}, "longitude": "-0.133690"}, "context": "", "outcome_status": null, "persistent_id": "", "id": 122760007, "location_subtype": "", "month": "2024-06"}, {"category": "anti-social-behaviour", "location_type": "Force", "location": {"latitude": "51.495286", "street": {"id": 1677480, "name": "On or near Greycoat Street"}, "longitude": "-0.134574"}, "context": "", "outcome_status": null, "persistent_id": "", "id": 122760299, "location_subtype": "", "month": "2024-06"}, {"category": "anti-social-behaviour", "location_type": "Force", "location": {"latitude": "51.511918", "street": {"id": 1680471, "name": "On or near Arundel Street"}, "longitude": "-0.114050"}, "context": "", "outcome_status": null, "persistent_id": "", "id": 122760517, "location_subtype": "", "month": "2024-06"}, {"category": "anti-social-behaviour", "location_type": "Force", "location": {"latitude": "51.511856", "street": {"id": 1678534, "name": "On or near Great Newport Street"}, "longitude": "-0.127570"}, "context": "", "outcome_status": null, "persistent_id": "", "id": 122760715, "location_subtype": "", "month": "2024-06"}, {"category": "anti-social-behaviour", "location_type": "Force", "location": {"latitude": "51.518687", "street": {"id": 1679965, "name": "On or near Eagle Street"}, "longitude": "-0.117820"}, "context": "", "outcome_status": null, "persistent_id": "", "id": 122761015, "location_subtype": "", "month": "2024-06"}, {"category": "anti-social-behaviour", "location_type": "Force", "location": {"latitude": "51.511312", "street": {"id": 1677127, "name": "On or near Lower James Street"}, "longitude": "-0.136326"}, "context": "", "outcome_status": null, "persistent_id": "", "id": 122761300, "location_subtype": "", "month": "2024-06"}, {"category": "anti-social-behaviour", "location_type": "Force", "location": {"latitude": "51.517701", "street": {"id": 1678590, "name": "On or near Willoughby Street"}, "longitude": "-0.127014"}, "context": "", "outcome_status": null, "persistent_id": "", "id": 122761389, "location_subtype": "", "month": "2024-06"}, {"category": "anti-social-behaviour", "location_type": "Force", "location": {"latitude": "51.512339", "street": {"id": 1677616, "name": "On or near Nightclub"}, "longitude": "-0.133618"}, "context": "", "outcome_status": null, "persistent_id": "", "id": 122761392, "location_subtype": "", "month": "2024-06"}, {"category": "anti-social-behaviour", "location_type": "Force", "location": {"latitude": "51.510468", "street": {"id": 1678029, "name": "On or near Leicester Square"}, "longitude": "-0.130769"}, "context": "", "outcome_status": null, "persistent_id": "", "id": 122761696, "location_subtype": "", "month": "2024-06"}, {"category": "anti-social-behaviour", "location_type": "Force", "location": {"latitude": "51.520844", "street": {"id": 1678802, "name": "On or near Bedford Place"}, "longitude": "-0.125040"}, "context": "", "outcome_status": null, "persistent_id": "", "id": 122762172, "location_subtype": "", "month": "2024-06"}, {"category": "anti-social-behaviour", "location_type": "Force", "location": {"latitude": "51.511790", "street": {"id": 1677744, "name": "On or near A401"}, "longitude": "-0.132459"}, "context": "", "outcome_status": null, "persistent_id": "", "id": 122762384, "location_subtype": "", "month": "2024-06"}, {"category": "anti-social-behaviour", "location_type": "Force", "location": {"latitude": "51.517265", "street": {"id": 1678861, "name": "On or near Museum Street"}, "longitude": "-0.125071"}, "context": "", "outcome_status": null, "persistent_id": "", "id": 122762780, "location_subtype": "", "month": "2024-06"}, {"category": "anti-social-behaviour", "location_type": "Force", "location": {"latitude": "51.513090", "street": {"id": 1677384, "name": "On or near Hopkins Street"}, "longitude": "-0.135043"}, "context": "", "outcome_status": null, "persistent_id": "", "id": 122762996, "location_subtype": "", "month": "2024-06"}, {"category": "anti-social-behaviour", "location_type": "Force", "location": {"latitude": "51.513205", "street": {"id": 1678985, "name": "On or near Long Acre"}, "longitude": "-0.124229"}, "context": "", "outcome_status": null, "persistent_id": "", "id": 122720317, "location_subtype": "", "month": "2024-06"}, {"category": "anti-social-behaviour", "location_type": "Force", "location": {"latitude": "51.509396", "street": {"id": 1678091, "name": "On or near Orange Street"}, "longitude": "-0.130626"}, "context": "", "outcome_status": null, "persistent_id": "", "id": 122712414, "location_subtype": "", "month": "2024-06"}, {"category": "anti-social-behaviour", "location_type": "Force", "location": {"latitude": "51.501151", "street": {"id": 1678482, "name": "On or near Great George Street"}, "longitude": "-0.127908"}, "context": "", "outcome_status": null, "persistent_id": "", "id": 122713115, "location_subtype": "", "month": "2024-06"}, {"category": "anti-social-behaviour", "location_type": "Force", "location": {"latitude": "51.517274", "street": {"id": 1680127, "name": "On or near Newman's Row"}, "longitude": "-0.115500"}, "context": "", "outcome_status": null, "persistent_id": "", "id": 122713210, "location_subtype": "", "month": "2024-06"}, {"category": "anti-social-behaviour", "location_type": "Force", "location": {"latitude": "51.508653", "street": {"id": 1679156, "name": "On or near York Buildings"}, "longitude": "-0.122975"}, "context": "", "outcome_status": null, "persistent_id": "", "id": 122713466, "location_subtype": "", "month": "2024-06"}, {"category": "anti-social-behaviour", "location_type": "Force", "location": {"latitude": "51.512789", "street": {"id": 1677293, "name": "On or near Ingestre Place"}, "longitude": "-0.135372"}, "context": "", "outcome_status": null, "persistent_id": "", "id": 122714452, "location_subtype": "", "month": "2024-06"}, {"category": "anti-social-behaviour", "location_type": "Force", "location": {"latitude": "51.512789", "street": {"id": 1677293, "name": "On or near Ingestre Place"}, "longitude": "-0.135372"}, "context": "", "outcome_status": null, "persistent_id": "", "id": 122715023, "location_subtype": "", "month": "2024-06"}, {"category": "anti-social-behaviour", "location_type": "Force", "location": {"latitude": "51.498553", "street": {"id": 1677378, "name": "On or near Caxton Street"}, "longitude": "-0.135291"}, "context": "", "outcome_status": null, "persistent_id": "", "id": 122715379, "location_subtype": "", "month": "2024-06"}, {"category": "anti-social-behaviour", "location_type": "Force", "location": {"latitude": "51.515869", "street": {"id": 1679355, "name": "On or near Parker Street"}, "longitude": "-0.121554"}, "context": "", "outcome_status": null, "persistent_id": "", "id": 122715884, "location_subtype": "", "month": "2024-06"}, {"category": "anti-social-behaviour", "location_type": "Force", "location": {"latitude": "51.499042", "street": {"id": 1680867, "name": "On or near Lambeth North"}, "longitude": "-0.111930"}, "context": "", "outcome_status": null, "persistent_id": "", "id": 122716136, "location_subtype": "", "month": "2024-06"}, {"category": "anti-social-behaviour", "location_type": "Force", "location": {"latitude": "51.514185", "street": {"id": 1677307, "name": "On or near Berwick Street"}, "longitude": "-0.135459"}, "context": "", "outcome_status": null, "persistent_id": "", "id": 122716920, "location_subtype": "", "month": "2024-06"}, {"category": "anti-social-behaviour", "location_type": "Force", "location": {"latitude": "51.498284", "street": {"id": 1681059, "name": "On or near A302"}, "longitude": "-0.110074"}, "context": "", "outcome_status": null, "persistent_id": "", "id": 122717328, "location_subtype": "", "month": "2024-06"}, {"category": "anti-social-behaviour", "location_type": "Force", "location": {"latitude": "51.519092", "street": {"id": 1679240, "name": "On or near Bloomsbury Square"}, "longitude": "-0.122330"}, "context": "", "outcome_status": null, "persistent_id": "", "id": 122698632, "location_subtype": "", "month": "2024-06"}, {"category": "anti-social-behaviour", "location_type": "Force", "location": {"latitude": "51.516275", "street": {"id": 1678661, "name": "On or near Theatre/concert Hall"}, "longitude": "-0.126121"}, "context": "", "outcome_status": null, "persistent_id": "", "id": 122698638, "location_subtype": "", "month": "2024-06"}, {"category": "anti-social-behaviour", "location_type": "Force", "location": {"latitude": "51.514684", "street": {"id": 1676465, "name": "On or near Argyll Street"}, "longitude": "-0.140844"}, "context": "", "outcome_status": null, "persistent_id": "", "id": 122763361, "location_subtype": "", "month": "2024-06"}, {"category": "anti-social-behaviour", "location_type": "Force", "location": {"latitude": "51.510729", "street": {"id": 1677342, "name": "On or near Denman Street"}, "longitude": "-0.135283"}, "context": "", "outcome_status": null, "persistent_id": "", "id": 122763378, "location_subtype": "", "month": "2024-06"}, {"category": "anti-social-behaviour", "location_type": "Force", "location": {"latitude": "51.496320", "street": {"id": 1676802, "name": "On or near Thirleby Road"}, "longitude": "-0.138508"}, "context": "", "outcome_status": null, "persistent_id": "", "id": 122763936, "location_subtype": "", "month": "2024-06"}, {"category": "anti-social-behaviour", "location_type": "Force", "location": {"latitude": "51.515004", "street": {"id": 1678816, "name": "On or near B401"}, "longitude": "-0.125352"}, "context": "", "outcome_status": null, "persistent_id": "", "id": 122764053, "location_subtype": "", "month": "2024-06"}, {"category": "anti-social-behaviour", "location_type": "Force", "location": {"latitude": "51.515430", "street": {"id": 1679223, "name": "On or near Theatre/concert Hall"}, "longitude": "-0.122797"}, "context": "", "outcome_status": null, "persistent_id": "", "id": 122764066, "location_subtype": "", "month": "2024-06"}, {"category": "anti-social-behaviour", "location_type": "Force", "location": {"latitude": "51.498553", "street": {"id": 1677378, "name": "On or near Caxton Street"}, "longitude": "-0.135291"}, "context": "", "outcome_status": null, "persistent_id": "", "id": 122764260, "location_subtype": "", "month": "2024-06"}, {"category": "anti-social-behaviour", "location_type": "Force", "location": {"latitude": "51.514536", "street": {"id": 1676666, "name": "On or near Nightclub"}, "longitude": "-0.140043"}, "context": "", "outcome_status": null, "persistent_id": "", "id": 122764508, "location_subtype": "", "month": "2024-06"}, {"category": "anti-social-behaviour", "location_type": "Force", "location": {"latitude": "51.504643", "street": {"id": 1679971, "name": "On or near Parking Area"}, "longitude": "-0.117434"}, "context": "", "outcome_status": null, "persistent_id": "", "id": 122764541, "location_subtype": "", "month": "2024-06"}, {"category": "anti-social-behaviour", "location_type": "Force", "location": {"latitude": "51.508202", "street": {"id": 1677075, "name": "On or near Ormond Yard"}, "longitude": "-0.136410"}, "context": "", "outcome_status": null, "persistent_id": "", "id": 122764781, "location_subtype": "", "month": "2024-06"}, {"category": "anti-social-behaviour", "location_type": "Force", "location": {"latitude": "51.512802", "street": {"id": 1679061, "name": "On or near James Street"}, "longitude": "-0.123770"}, "context": "", "outcome_status": null, "persistent_id": "", "id": 122764812, "location_subtype": "", "month": "2024-06"}, {"category": "anti-social-behaviour", "location_type": "Force", "location": {"latitude": "51.516001", "street": {"id": 1679229, "name": "On or near Macklin Street"}, "longitude": "-0.122471"}, "context": "", "outcome_status": null, "persistent_id": "", "id": 122764872, "location_subtype": "", "month": "2024-06"}, {"category": "anti-social-behaviour", "location_type": "Force", "location": {"latitude": "51.507115", "street": {"id": 1676040, "name": "On or near Bolton Street"}, "longitude": "-0.144408"}, "context": "", "outcome_status": null, "persistent_id": "", "id": 122720246, "location_subtype": "", "month": "2024-06"}, {"category": "anti-social-behaviour", "location_type": "Force", "location": {"latitude": "51.520365", "street": {"id": 1679593, "name": "On or near New North Street"}, "longitude": "-0.119827"}, "context": "", "outcome_status": null, "persistent_id": "", "id": 122718356, "location_subtype": "", "month": "2024-06"}, {"category": "anti-social-behaviour", "location_type": "Force", "location": {"latitude": "51.509786", "street": {"id": 1678937, "name": "On or near Police Station"}, "longitude": "-0.124658"}, "context": "", "outcome_status": null, "persistent_id": "", "id": 122718044, "location_subtype": "", "month": "2024-06"}, {"category": "anti-social-behaviour", "location_type": "Force", "location": {"latitude": "51.508087", "street": {"id": 1678961, "name": "On or near Nightclub"}, "longitude": "-0.124122"}, "context": "", "outcome_status": null, "persistent_id": "", "id": 122736577, "location_subtype": "", "month": "2024-06"}, {"category": "anti-social-behaviour", "location_type": "Force", "location": {"latitude": "51.499488", "street": {"id": 1679222, "name": "On or near Hospital"}, "longitude": "-0.118410"}, "context": "", "outcome_status": null, "persistent_id": "", "id": 122743816, "location_subtype": "", "month": "2024-06"}, {"category": "anti-social-behaviour", "location_type": "Force", "location": {"latitude": "51.516329", "street": {"id": 1678500, "name": "On or near Bucknall Street"}, "longitude": "-0.127791"}, "context": "", "outcome_status": null, "persistent_id": "", "id": 122707274, "location_subtype": "", "month": "2024-06"}, {"category": "anti-social-behaviour", "location_type": "Force", "location": {"latitude": "51.507766", "street": {"id": 1676493, "name": "On or near Nightclub"}, "longitude": "-0.141284"}, "context": "", "outcome_status": null, "persistent_id": "", "id": 122715141, "location_subtype": "", "month": "2024-06"}, {"category": "anti-social-behaviour", "location_type": "Force", "location": {"latitude": "51.512789", "street": {"id": 1677293, "name": "On or near Ingestre Place"}, "longitude": "-0.135372"}, "context": "", "outcome_status": null, "persistent_id": "", "id": 122716873, "location_subtype": "", "month": "2024-06"}, {"category": "anti-social-behaviour", "location_type": "Force", "location": {"latitude": "51.507097", "street": {"id": 1677926, "name": "On or near Parking Area"}, "longitude": "-0.130864"}, "context": "", "outcome_status": null, "persistent_id": "", "id": 122717035, "location_subtype": "", "month": "2024-06"}, {"category": "anti-social-behaviour", "location_type": "Force", "location": {"latitude": "51.511856", "street": {"id": 1678534, "name": "On or near Great Newport Street"}, "longitude": "-0.127570"}, "context": "", "outcome_status": null, "persistent_id": "", "id": 122717497, "location_subtype": "", "month": "2024-06"}, {"category": "anti-social-behaviour", "location_type": "Force", "location": {"latitude": "51.514246", "street": {"id": 1677792, "name": "On or near Nightclub"}, "longitude": "-0.131436"}, "context": "", "outcome_status": null, "persistent_id": "", "id": 122737428, "location_subtype": "", "month": "2024-06"}, {"category": "anti-social-behaviour", "location_type": "Force", "location": {"latitude": "51.506563", "street": {"id": 1679770, "name": "On or near Ferry Terminal"}, "longitude": "-0.117124"}, "context": "", "outcome_status": null, "persistent_id": "", "id": 122735357, "location_subtype": "", "month": "2024-06"}, {"category": "anti-social-behaviour", "location_type": "Force", "location": {"latitude": "51.495129", "street": {"id": 1676936, "name": "On or near Francis Street"}, "longitude": "-0.138240"}, "context": "", "outcome_status": null, "persistent_id": "", "id": 122718113, "location_subtype": "", "month": "2024-06"}, {"category": "anti-social-behaviour", "location_type": "Force", "location": {"latitude": "51.513052", "street": {"id": 1677758, "name": "On or near Bourchier Street"}, "longitude": "-0.132681"}, "context": "", "outcome_status": null, "persistent_id": "", "id": 122718224, "location_subtype": "", "month": "2024-06"}, {"category": "anti-social-behaviour", "location_type": "Force", "location": {"latitude": "51.516275", "street": {"id": 1678661, "name": "On or near Theatre/concert Hall"}, "longitude": "-0.126121"}, "context": "", "outcome_status": null, "persistent_id": "", "id": 122722961, "location_subtype": "", "month": "2024-06"}, {"category": "anti-social-behaviour", "location_type": "Force", "location": {"latitude": "51.512780", "street": {"id": 1677484, "name": "On or near Peter Street"}, "longitude": "-0.134234"}, "context": "", "outcome_status": null, "persistent_id": "", "id": 122723214, "location_subtype": "", "month": "2024-06"}, {"category": "anti-social-behaviour", "location_type": "Force", "location": {"latitude": "51.500978", "street": {"id": 1678704, "name": "On or near Bridge Street"}, "longitude": "-0.125524"}, "context": "", "outcome_status": null, "persistent_id": "", "id": 122728712, "location_subtype": "", "month": "2024-06"}, {"category": "anti-social-behaviour", "location_type": "Force", "location": {"latitude": "51.508653", "street": {"id": 1679156, "name": "On or near York Buildings"}, "longitude": "-0.122975"}, "context": "", "outcome_status": null, "persistent_id": "", "id": 122728854, "location_subtype": "", "month": "2024-06"}, {"category": "anti-social-behaviour", "location_type": "Force", "location": {"latitude": "51.511312", "street": {"id": 1677127, "name": "On or near Lower James Street"}, "longitude": "-0.136326"}, "context": "", "outcome_status": null, "persistent_id": "", "id": 122731188, "location_subtype": "", "month": "2024-06"}, {"category": "anti-social-behaviour", "location_type": "Force", "location": {"latitude": "51.513715", "street": {"id": 1679596, "name": "On or near Drury Lane"}, "longitude": "-0.120101"}, "context": "", "outcome_status": null, "persistent_id": "", "id": 122734440, "location_subtype": "", "month": "2024-06"}, {"category": "anti-social-behaviour", "location_type": "Force", "location": {"latitude": "51.513310", "street": {"id": 1679459, "name": "On or near Theatre/concert Hall"}, "longitude": "-0.120741"}, "context": "", "outcome_status": null, "persistent_id": "", "id": 122695078, "location_subtype": "", "month": "2024-06"}, {"category": "anti-social-behaviour", "location_type": "Force", "location": {"latitude": "51.514209", "street": {"id": 1677099, "name": "On or near Parking Area"}, "longitude": "-0.137000"}, "context": "", "outcome_status": null, "persistent_id": "", "id": 122695397, "location_subtype": "", "month": "2024-06"}, {"category": "anti-social-behaviour", "location_type": "Force", "location": {"latitude": "51.510840", "street": {"id": 1678254, "name": "On or near Nightclub"}, "longitude": "-0.128984"}, "context": "", "outcome_status": null, "persistent_id": "", "id": 122695947, "location_subtype": "", "month": "2024-06"}, {"category": "anti-social-behaviour", "location_type": "Force", "location": {"latitude": "51.496053", "street": {"id": 1678355, "name": "On or near Bennett's Yard"}, "longitude": "-0.128521"}, "context": "", "outcome_status": null, "persistent_id": "", "id": 122695961, "location_subtype": "", "month": "2024-06"}, {"category": "anti-social-behaviour", "location_type": "Force", "location": {"latitude": "51.495936", "street": {"id": 1676456, "name": "On or near Carlisle Place"}, "longitude": "-0.141491"}, "context": "", "outcome_status": null, "persistent_id": "", "id": 122696016, "location_subtype": "", "month": "2024-06"}, {"category": "anti-social-behaviour", "location_type": "Force", "location": {"latitude": "51.513310", "street": {"id": 1679459, "name": "On or near Theatre/concert Hall"}, "longitude": "-0.120741"}, "context": "", "outcome_status": null, "persistent_id": "", "id": 122696323, "location_subtype": "", "month": "2024-06"}, {"category": "anti-social-behaviour", "location_type": "Force", "location": {"latitude": "51.513477", "street": {"id": 1679579, "name": "On or near Theatre/concert Hall"}, "longitude": "-0.119880"}, "context": "", "outcome_status": null, "persistent_id": "", "id": 122696396, "location_subtype": "", "month": "2024-06"}, {"category": "anti-social-behaviour", "location_type": "Force", "location": {"latitude": "51.498175", "street": {"id": 1676627, "name": "On or near Palace Street"}, "longitude": "-0.140363"}, "context": "", "outcome_status": null, "persistent_id": "", "id": 122696681, "location_subtype": "", "month": "2024-06"}, {"category": "anti-social-behaviour", "location_type": "Force", "location": {"latitude": "51.516623", "street": {"id": 1677604, "name": "On or near Nightclub"}, "longitude": "-0.132976"}, "context": "", "outcome_status": null, "persistent_id": "", "id": 122697392, "location_subtype": "", "month": "2024-06"}, {"category": "anti-social-behaviour", "location_type": "Force", "location": {"latitude": "51.510345", "street": {"id": 1679211, "name": "On or near Theatre/concert Hall"}, "longitude": "-0.122502"}, "context": "", "outcome_status": null, "persistent_id": "", "id": 122698089, "location_subtype": "", "month": "2024-06"}, {"category": "anti-social-behaviour", "location_type": "Force", "location": {"latitude": "51.512780", "street": {"id": 1677484, "name": "On or near Peter Street"}, "longitude": "-0.134234"}, "context": "", "outcome_status": null, "persistent_id": "", "id": 122698358, "location_subtype": "", "month": "2024-06"}, {"category": "anti-social-behaviour", "location_type": "Force", "location": {"latitude": "51.503895", "street": {"id": 1681317, "name": "On or near Theatre/concert Hall"}, "longitude": "-0.109482"}, "context": "", "outcome_status": null, "persistent_id": "", "id": 122698376, "location_subtype": "", "month": "2024-06"}, {"category": "anti-social-behaviour", "location_type": "Force", "location": {"latitude": "51.519639", "street": {"id": 1679160, "name": "On or near Bloomsbury Place"}, "longitude": "-0.122797"}, "context": "", "outcome_status": null, "persistent_id": "", "id": 122683335, "location_subtype": "", "month": "2024-06"}, {"category": "anti-social-behaviour", "location_type": "Force", "location": {"latitude": "51.503196", "street": {"id": 1678183, "name": "On or near Downing Street"}, "longitude": "-0.127032"}, "context": "", "outcome_status": null, "persistent_id": "", "id": 122734350, "location_subtype": "", "month": "2024-06"}, {"category": "anti-social-behaviour", "location_type": "Force", "location": {"latitude": "51.517476", "street": {"id": 1677079, "name": "On or near Supermarket"}, "longitude": "-0.136579"}, "context": "", "outcome_status": null, "persistent_id": "", "id": 122708641, "location_subtype": "", "month": "2024-06"}, {"category": "anti-social-behaviour", "location_type": "Force", "location": {"latitude": "51.504507", "street": {"id": 1681118, "name": "On or near Cornwall Road"}, "longitude": "-0.110609"}, "context": "", "outcome_status": null, "persistent_id": "", "id": 122708937, "location_subtype": "", "month": "2024-06"}, {"category": "anti-social-behaviour", "location_type": "Force", "location": {"latitude": "51.495591", "street": {"id": 1677126, "name": "On or near Greencoat Row"}, "longitude": "-0.136794"}, "context": "", "outcome_status": null, "persistent_id": "", "id": 122709305, "location_subtype": "", "month": "2024-06"}, {"category": "anti-social-behaviour", "location_type": "Force", "location": {"latitude": "51.519697", "street": {"id": 1677336, "name": "On or near A5204"}, "longitude": "-0.134917"}, "context": "", "outcome_status": null, "persistent_id": "", "id": 122709725, "location_subtype": "", "month": "2024-06"}, {"category": "anti-social-behaviour", "location_type": "Force", "location": {"latitude": "51.516341", "street": {"id": 1679597, "name": "On or near Nightclub"}, "longitude": "-0.120151"}, "context": "", "outcome_status": null, "persistent_id": "", "id": 122709980, "location_subtype": "", "month": "2024-06"}, {"category": "anti-social-behaviour", "location_type": "Force", "location": {"latitude": "51.511574", "street": {"id": 1678643, "name": "On or near Garrick Street"}, "longitude": "-0.126271"}, "context": "", "outcome_status": null, "persistent_id": "", "id": 122710197, "location_subtype": "", "month": "2024-06"}, {"category": "anti-social-behaviour", "location_type": "Force", "location": {"latitude": "51.498553", "street": {"id": 1677378, "name": "On or near Caxton Street"}, "longitude": "-0.135291"}, "context": "", "outcome_status": null, "persistent_id": "", "id": 122710850, "location_subtype": "", "month": "2024-06"}, {"category": "anti-social-behaviour", "location_type": "Force", "location": {"latitude": "51.512300", "street": {"id": 1678389, "name": "On or near Theatre/concert Hall"}, "longitude": "-0.128388"}, "context": "", "outcome_status": null, "persistent_id": "", "id": 122711863, "location_subtype": "", "month": "2024-06"}, {"category": "anti-social-behaviour", "location_type": "Force", "location": {"latitude": "51.515580", "street": {"id": 1677445, "name": "On or near Great Chapel Street"}, "longitude": "-0.134437"}, "context": "", "outcome_status": null, "persistent_id": "", "id": 122711867, "location_subtype": "", "month": "2024-06"}, {"category": "anti-social-behaviour", "location_type": "Force", "location": {"latitude": "51.496466", "street": {"id": 1676405, "name": "On or near Shopping Area"}, "longitude": "-0.141499"}, "context": "", "outcome_status": null, "persistent_id": "", "id": 122711949, "location_subtype": "", "month": "2024-06"}, {"category": "anti-social-behaviour", "location_type": "Force", "location": {"latitude": "51.500978", "street": {"id": 1678704, "name": "On or near Bridge Street"}, "longitude": "-0.125524"}, "context": "", "outcome_status": null, "persistent_id": "", "id": 122712355, "location_subtype": "", "month": "2024-06"}, {"category": "anti-social-behaviour", "location_type": "Force", "location": {"latitude": "51.513477", "street": {"id": 1679579, "name": "On or near Theatre/concert Hall"}, "longitude": "-0.119880"}, "context": "", "outcome_status": null, "persistent_id": "", "id": 122741027, "location_subtype": "", "month": "2024-06"}, {"category": "anti-social-behaviour", "location_type": "Force", "location": {"latitude": "51.512339", "street": {"id": 1677616, "name": "On or near Nightclub"}, "longitude": "-0.133618"}, "context": "", "outcome_status": null, "persistent_id": "", "id": 122700216, "location_subtype": "", "month": "2024-06"}, {"category": "anti-social-behaviour", "location_type": "Force", "location": {"latitude": "51.511022", "street": {"id": 1679585, "name": "On or near Strand"}, "longitude": "-0.119880"}, "context": "", "outcome_status": null, "persistent_id": "", "id": 122703535, "location_subtype": "", "month": "2024-06"}, {"category": "anti-social-behaviour", "location_type": "Force", "location": {"latitude": "51.513052", "street": {"id": 1677758, "name": "On or near Bourchier Street"}, "longitude": "-0.132681"}, "context": "", "outcome_status": null, "persistent_id": "", "id": 122700251, "location_subtype": "", "month": "2024-06"}, {"category": "anti-social-behaviour", "location_type": "Force", "location": {"latitude": "51.514064", "street": {"id": 1679774, "name": "On or near Kean Street"}, "longitude": "-0.118890"}, "context": "", "outcome_status": null, "persistent_id": "", "id": 122700268, "location_subtype": "", "month": "2024-06"}, {"category": "anti-social-behaviour", "location_type": "Force", "location": {"latitude": "51.500978", "street": {"id": 1678704, "name": "On or near Bridge Street"}, "longitude": "-0.125524"}, "context": "", "outcome_status": null, "persistent_id": "", "id": 122701441, "location_subtype": "", "month": "2024-06"}, {"category": "anti-social-behaviour", "location_type": "Force", "location": {"latitude": "51.510433", "street": {"id": 1676487, "name": "On or near Parking Area"}, "longitude": "-0.140455"}, "context": "", "outcome_status": null, "persistent_id": "", "id": 122701635, "location_subtype": "", "month": "2024-06"}, {"category": "anti-social-behaviour", "location_type": "Force", "location": {"latitude": "51.514064", "street": {"id": 1679774, "name": "On or near Kean Street"}, "longitude": "-0.118890"}, "context": "", "outcome_status": null, "persistent_id": "", "id": 122702219, "location_subtype": "", "month": "2024-06"}, {"category": "anti-social-behaviour", "location_type": "Force", "location": {"latitude": "51.504066", "street": {"id": 1681189, "name": "On or near Theatre/concert Hall"}, "longitude": "-0.110037"}, "context": "", "outcome_status": null, "persistent_id": "", "id": 122702324, "location_subtype": "", "month": "2024-06"}, {"category": "anti-social-behaviour", "location_type": "Force", "location": {"latitude": "51.507576", "street": {"id": 1676403, "name": "On or near Nightclub"}, "longitude": "-0.141776"}, "context": "", "outcome_status": null, "persistent_id": "", "id": 122702830, "location_subtype": "", "month": "2024-06"}, {"category": "anti-social-behaviour", "location_type": "Force", "location": {"latitude": "51.517742", "street": {"id": 1678770, "name": "On or near Little Russell Street"}, "longitude": "-0.125614"}, "context": "", "outcome_status": null, "persistent_id": "", "id": 122742364, "location_subtype": "", "month": "2024-06"}, {"category": "anti-social-behaviour", "location_type": "Force", "location": {"latitude": "51.515004", "street": {"id": 1678816, "name": "On or near B401"}, "longitude": "-0.125352"}, "context": "", "outcome_status": null, "persistent_id": "", "id": 122742816, "location_subtype": "", "month": "2024-06"}, {"category": "anti-social-behaviour", "location_type": "Force", "location": {"latitude": "51.506797", "street": {"id": 1675807, "name": "On or near Half Moon Street"}, "longitude": "-0.145963"}, "context": "", "outcome_status": null, "persistent_id": "", "id": 122742943, "location_subtype": "", "month": "2024-06"}, {"category": "anti-social-behaviour", "location_type": "Force", "location": {"latitude": "51.506109", "street": {"id": 1675151, "name": "On or near Curzon Square"}, "longitude": "-0.150790"}, "context": "", "outcome_status": null, "persistent_id": "", "id": 122743406, "location_subtype": "", "month": "2024-06"}, {"category": "anti-social-behaviour", "location_type": "Force", "location": {"latitude": "51.510953", "street": {"id": 1677692, "name": "On or near Nightclub"}, "longitude": "-0.133012"}, "context": "", "outcome_status": null, "persistent_id": "", "id": 122743673, "location_subtype": "", "month": "2024-06"}, {"category": "anti-social-behaviour", "location_type": "Force", "location": {"latitude": "51.498175", "street": {"id": 1676627, "name": "On or near Palace Street"}, "longitude": "-0.140363"}, "context": "", "outcome_status": null, "persistent_id": "", "id": 122744306, "location_subtype": "", "month": "2024-06"}, {"category": "anti-social-behaviour", "location_type": "Force", "location": {"latitude": "51.517742", "street": {"id": 1678770, "name": "On or near Little Russell Street"}, "longitude": "-0.125614"}, "context": "", "outcome_status": null, "persistent_id": "", "id": 122745030, "location_subtype": "", "month": "2024-06"}, {"category": "anti-social-behaviour", "location_type": "Force", "location": {"latitude": "51.499488", "street": {"id": 1679222, "name": "On or near Hospital"}, "longitude": "-0.118410"}, "context": "", "outcome_status": null, "persistent_id": "", "id": 122745688, "location_subtype": "", "month": "2024-06"}, {"category": "anti-social-behaviour", "location_type": "Force", "location": {"latitude": "51.508351", "street": {"id": 1681422, "name": "On or near Conference/exhibition Centre"}, "longitude": "-0.108355"}, "context": "", "outcome_status": null, "persistent_id": "", "id": 122745724, "location_subtype": "", "month": "2024-06"}, {"category": "anti-social-behaviour", "location_type": "Force", "location": {"latitude": "51.516820", "street": {"id": 1678501, "name": "On or near Dyott Street"}, "longitude": "-0.127583"}, "context": "", "outcome_status": null, "persistent_id": "", "id": 122746048, "location_subtype": "", "month": "2024-06"}, {"category": "anti-social-behaviour", "location_type": "Force", "location": {"latitude": "51.512059", "street": {"id": 1679743, "name": "On or near A301"}, "longitude": "-0.118929"}, "context": "", "outcome_status": null, "persistent_id": "", "id": 122746303, "location_subtype": "", "month": "2024-06"}, {"category": "anti-social-behaviour", "location_type": "Force", "location": {"latitude": "51.513470", "street": {"id": 1677129, "name": "On or near Broadwick Street"}, "longitude": "-0.136339"}, "context": "", "outcome_status": null, "persistent_id": "", "id": 122748327, "location_subtype": "", "month": "2024-06"}, {"category": "anti-social-behaviour", "location_type": "Force", "location": {"latitude": "51.517742", "street": {"id": 1678770, "name": "On or near Little Russell Street"}, "longitude": "-0.125614"}, "context": "", "outcome_status": null, "persistent_id": "", "id": 122748584, "location_subtype": "", "month": "2024-06"}, {"category": "anti-social-behaviour", "location_type": "Force", "location": {"latitude": "51.509962", "street": {"id": 1676943, "name": "On or near Nightclub"}, "longitude": "-0.137952"}, "context": "", "outcome_status": null, "persistent_id": "", "id": 122748954, "location_subtype": "", "month": "2024-06"}, {"category": "anti-social-behaviour", "location_type": "Force", "location": {"latitude": "51.514621", "street": {"id": 1679205, "name": "On or near Dryden Street"}, "longitude": "-0.122802"}, "context": "", "outcome_status": null, "persistent_id": "", "id": 122749086, "location_subtype": "", "month": "2024-06"}, {"category": "anti-social-behaviour", "location_type": "Force", "location": {"latitude": "51.514247", "street": {"id": 1676736, "name": "On or near Great Marlborough Street"}, "longitude": "-0.139406"}, "context": "", "outcome_status": null, "persistent_id": "", "id": 122749379, "location_subtype": "", "month": "2024-06"}, {"category": "anti-social-behaviour", "location_type": "Force", "location": {"latitude": "51.506541", "street": {"id": 1675916, "name": "On or near Ashburton Place"}, "longitude": "-0.144533"}, "context": "", "outcome_status": null, "persistent_id": "", "id": 122749521, "location_subtype": "", "month": "2024-06"}, {"category": "anti-social-behaviour", "location_type": "Force", "location": {"latitude": "51.506600", "street": {"id": 1677427, "name": "On or near Pall Mall"}, "longitude": "-0.134054"}, "context": "", "outcome_status": null, "persistent_id": "", "id": 122749528, "location_subtype": "", "month": "2024-06"}, {"category": "anti-social-behaviour", "location_type": "Force", "location": {"latitude": "51.509491", "street": {"id": 1678539, "name": "On or near William Iv Street"}, "longitude": "-0.125924"}, "context": "", "outcome_status": null, "persistent_id": "", "id": 122749989, "location_subtype": "", "month": "2024-06"}, {"category": "anti-social-behaviour", "location_type": "Force", "location": {"latitude": "51.516001", "street": {"id": 1679229, "name": "On or near Macklin Street"}, "longitude": "-0.122471"}, "context": "", "outcome_status": null, "persistent_id": "", "id": 122750362, "location_subtype": "", "month": "2024-06"}, {"category": "anti-social-behaviour", "location_type": "Force", "location": {"latitude": "51.516351", "street": {"id": 1679201, "name": "On or near Stukeley Street"}, "longitude": "-0.122976"}, "context": "", "outcome_status": null, "persistent_id": "", "id": 122750956, "location_subtype": "", "month": "2024-06"}, {"category": "anti-social-behaviour", "location_type": "Force", "location": {"latitude": "51.512300", "street": {"id": 1678389, "name": "On or near Theatre/concert Hall"}, "longitude": "-0.128388"}, "context": "", "outcome_status": null, "persistent_id": "", "id": 122751825, "location_subtype": "", "month": "2024-06"}, {"category": "anti-social-behaviour", "location_type": "Force", "location": {"latitude": "51.508202", "street": {"id": 1677075, "name": "On or near Ormond Yard"}, "longitude": "-0.136410"}, "context": "", "outcome_status": null, "persistent_id": "", "id": 122751870, "location_subtype": "", "month": "2024-06"}, {"category": "anti-social-behaviour", "location_type": "Force", "location": {"latitude": "51.504507", "street": {"id": 1681118, "name": "On or near Cornwall Road"}, "longitude": "-0.110609"}, "context": "", "outcome_status": null, "persistent_id": "", "id": 122751968, "location_subtype": "", "month": "2024-06"}, {"category": "anti-social-behaviour", "location_type": "Force", "location": {"latitude": "51.495129", "street": {"id": 1676936, "name": "On or near Francis Street"}, "longitude": "-0.138240"}, "context": "", "outcome_status": null, "persistent_id": "", "id": 122752085, "location_subtype": "", "month": "2024-06"}, {"category": "anti-social-behaviour", "location_type": "Force", "location": {"latitude": "51.510468", "street": {"id": 1678029, "name": "On or near Leicester Square"}, "longitude": "-0.130769"}, "context": "", "outcome_status": null, "persistent_id": "", "id": 122752413, "location_subtype": "", "month": "2024-06"}, {"category": "anti-social-behaviour", "location_type": "Force", "location": {"latitude": "51.514012", "street": {"id": 1677997, "name": "On or near Nightclub"}, "longitude": "-0.131078"}, "context": "", "outcome_status": null, "persistent_id": "", "id": 122752824, "location_subtype": "", "month": "2024-06"}, {"category": "anti-social-behaviour", "location_type": "Force", "location": {"latitude": "51.511312", "street": {"id": 1677127, "name": "On or near Lower James Street"}, "longitude": "-0.136326"}, "context": "", "outcome_status": null, "persistent_id": "", "id": 122753217, "location_subtype": "", "month": "2024-06"}, {"category": "anti-social-behaviour", "location_type": "Force", "location": {"latitude": "51.507623", "street": {"id": 1678103, "name": "On or near Cockspur Street"}, "longitude": "-0.130006"}, "context": "", "outcome_status": null, "persistent_id": "", "id": 122753235, "location_subtype": "", "month": "2024-06"}, {"category": "anti-social-behaviour", "location_type": "Force", "location": {"latitude": "51.517476", "street": {"id": 1677079, "name": "On or near Supermarket"}, "longitude": "-0.136579"}, "context": "", "outcome_status": null, "persistent_id": "", "id": 122753259, "location_subtype": "", "month": "2024-06"}, {"category": "anti-social-behaviour", "location_type": "Force", "location": {"latitude": "51.495936", "street": {"id": 1676456, "name": "On or near Carlisle Place"}, "longitude": "-0.141491"}, "context": "", "outcome_status": null, "persistent_id": "", "id": 122753266, "location_subtype": "", "month": "2024-06"}, {"category": "anti-social-behaviour", "location_type": "Force", "location": {"latitude": "51.510389", "street": {"id": 1679043, "name": "On or near Bedford Street"}, "longitude": "-0.124157"}, "context": "", "outcome_status": null, "persistent_id": "", "id": 122753496, "location_subtype": "", "month": "2024-06"}, {"category": "anti-social-behaviour", "location_type": "Force", "location": {"latitude": "51.496313", "street": {"id": 1677735, "name": "On or near Chadwick Street"}, "longitude": "-0.132429"}, "context": "", "outcome_status": null, "persistent_id": "", "id": 122753857, "location_subtype": "", "month": "2024-06"}, {"category": "anti-social-behaviour", "location_type": "Force", "location": {"latitude": "51.497497", "street": {"id": 1677447, "name": "On or near Strutton Ground"}, "longitude": "-0.133922"}, "context": "", "outcome_status": null, "persistent_id": "", "id": 122754079, "location_subtype": "", "month": "2024-06"}, {"category": "anti-social-behaviour", "location_type": "Force", "location": {"latitude": "51.499488", "street": {"id": 1679222, "name": "On or near Hospital"}, "longitude": "-0.118410"}, "context": "", "outcome_status": null, "persistent_id": "", "id": 122754305, "location_subtype": "", "month": "2024-06"}, {"category": "anti-social-behaviour", "location_type": "Force", "location": {"latitude": "51.498335", "street": {"id": 1677860, "name": "On or near Abbey Orchard Street"}, "longitude": "-0.131193"}, "context": "", "outcome_status": null, "persistent_id": "", "id": 122754323, "location_subtype": "", "month": "2024-06"}, {"category": "anti-social-behaviour", "location_type": "Force", "location": {"latitude": "51.497534", "street": {"id": 1677829, "name": "On or near Old Pye Street"}, "longitude": "-0.132307"}, "context": "", "outcome_status": null, "persistent_id": "", "id": 122754520, "location_subtype": "", "month": "2024-06"}, {"category": "anti-social-behaviour", "location_type": "Force", "location": {"latitude": "51.512429", "street": {"id": 1676274, "name": "On or near Nightclub"}, "longitude": "-0.142384"}, "context": "", "outcome_status": null, "persistent_id": "", "id": 122754577, "location_subtype": "", "month": "2024-06"}, {"category": "anti-social-behaviour", "location_type": "Force", "location": {"latitude": "51.495591", "street": {"id": 1677126, "name": "On or near Greencoat Row"}, "longitude": "-0.136794"}, "context": "", "outcome_status": null, "persistent_id": "", "id": 122755073, "location_subtype": "", "month": "2024-06"}, {"category": "anti-social-behaviour", "location_type": "Force", "location": {"latitude": "51.514286", "street": {"id": 1677663, "name": "On or near Chapone Place"}, "longitude": "-0.132818"}, "context": "", "outcome_status": null, "persistent_id": "", "id": 122755123, "location_subtype": "", "month": "2024-06"}, {"category": "anti-social-behaviour", "location_type": "Force", "location": {"latitude": "51.512789", "street": {"id": 1677293, "name": "On or near Ingestre Place"}, "longitude": "-0.135372"}, "context": "", "outcome_status": null, "persistent_id": "", "id": 122730510, "location_subtype": "", "month": "2024-06"}, {"category": "anti-social-behaviour", "location_type": "Force", "location": {"latitude": "51.516001", "street": {"id": 1679229, "name": "On or near Macklin Street"}, "longitude": "-0.122471"}, "context": "", "outcome_status": null, "persistent_id": "", "id": 122730495, "location_subtype": "", "month": "2024-06"}, {"category": "anti-social-behaviour", "location_type": "Force", "location": {"latitude": "51.504066", "street": {"id": 1681189, "name": "On or near Theatre/concert Hall"}, "longitude": "-0.110037"}, "context": "", "outcome_status": null, "persistent_id": "", "id": 122730080, "location_subtype": "", "month": "2024-06"}, {"category": "anti-social-behaviour", "location_type": "Force", "location": {"latitude": "51.510623", "street": {"id": 1678627, "name": "On or near St Martin's Lane"}, "longitude": "-0.126987"}, "context": "", "outcome_status": null, "persistent_id": "", "id": 122729404, "location_subtype": "", "month": "2024-06"}, {"category": "anti-social-behaviour", "location_type": "Force", "location": {"latitude": "51.501162", "street": {"id": 1680084, "name": "On or near Addington Street"}, "longitude": "-0.116252"}, "context": "", "outcome_status": null, "persistent_id": "", "id": 122728278, "location_subtype": "", "month": "2024-06"}, {"category": "anti-social-behaviour", "location_type": "Force", "location": {"latitude": "51.507097", "street": {"id": 1677926, "name": "On or near Parking Area"}, "longitude": "-0.130864"}, "context": "", "outcome_status": null, "persistent_id": "", "id": 122728166, "location_subtype": "", "month": "2024-06"}, {"category": "anti-social-behaviour", "location_type": "Force", "location": {"latitude": "51.511022", "street": {"id": 1679585, "name": "On or near Strand"}, "longitude": "-0.119880"}, "context": "", "outcome_status": null, "persistent_id": "", "id": 122727968, "location_subtype": "", "month": "2024-06"}, {"category": "anti-social-behaviour", "location_type": "Force", "location": {"latitude": "51.514684", "street": {"id": 1676465, "name": "On or near Argyll Street"}, "longitude": "-0.140844"}, "context": "", "outcome_status": null, "persistent_id": "", "id": 122727510, "location_subtype": "", "month": "2024-06"}, {"category": "anti-social-behaviour", "location_type": "Force", "location": {"latitude": "51.499401", "street": {"id": 1678232, "name": "On or near The Sanctuary"}, "longitude": "-0.129234"}, "context": "", "outcome_status": null, "persistent_id": "", "id": 122727313, "location_subtype": "", "month": "2024-06"}, {"category": "anti-social-behaviour", "location_type": "Force", "location": {"latitude": "51.499488", "street": {"id": 1679222, "name": "On or near Hospital"}, "longitude": "-0.118410"}, "context": "", "outcome_status": null, "persistent_id": "", "id": 122727291, "location_subtype": "", "month": "2024-06"}, {"category": "anti-social-behaviour", "location_type": "Force", "location": {"latitude": "51.512059", "street": {"id": 1679743, "name": "On or near A301"}, "longitude": "-0.118929"}, "context": "", "outcome_status": null, "persistent_id": "", "id": 122727275, "location_subtype": "", "month": "2024-06"}, {"category": "anti-social-behaviour", "location_type": "Force", "location": {"latitude": "51.496508", "street": {"id": 1676664, "name": "On or near Ambrosden Avenue"}, "longitude": "-0.139610"}, "context": "", "outcome_status": null, "persistent_id": "", "id": 122726277, "location_subtype": "", "month": "2024-06"}, {"category": "anti-social-behaviour", "location_type": "Force", "location": {"latitude": "51.516351", "street": {"id": 1679201, "name": "On or near Stukeley Street"}, "longitude": "-0.122976"}, "context": "", "outcome_status": null, "persistent_id": "", "id": 122726038, "location_subtype": "", "month": "2024-06"}, {"category": "anti-social-behaviour", "location_type": "Force", "location": {"latitude": "51.500211", "street": {"id": 1678547, "name": "On or near A302"}, "longitude": "-0.126492"}, "context": "", "outcome_status": null, "persistent_id": "", "id": 122725857, "location_subtype": "", "month": "2024-06"}, {"category": "anti-social-behaviour", "location_type": "Force", "location": {"latitude": "51.515430", "street": {"id": 1679223, "name": "On or near Theatre/concert Hall"}, "longitude": "-0.122797"}, "context": "", "outcome_status": null, "persistent_id": "", "id": 122725622, "location_subtype": "", "month": "2024-06"}, {"category": "anti-social-behaviour", "location_type": "Force", "location": {"latitude": "51.513848", "street": {"id": 1678270, "name": "On or near Old Compton Street"}, "longitude": "-0.129593"}, "context": "", "outcome_status": null, "persistent_id": "", "id": 122725601, "location_subtype": "", "month": "2024-06"}, {"category": "anti-social-behaviour", "location_type": "Force", "location": {"latitude": "51.516488", "street": {"id": 1675748, "name": "On or near Cavendish Square"}, "longitude": "-0.145743"}, "context": "", "outcome_status": null, "persistent_id": "", "id": 122725406, "location_subtype": "", "month": "2024-06"}, {"category": "anti-social-behaviour", "location_type": "Force", "location": {"latitude": "51.515088", "street": {"id": 1676649, "name": "On or near Hills Place"}, "longitude": "-0.140222"}, "context": "", "outcome_status": null, "persistent_id": "", "id": 122724640, "location_subtype": "", "month": "2024-06"}, {"category": "anti-social-behaviour", "location_type": "Force", "location": {"latitude": "51.505921", "street": {"id": 1681295, "name": "On or near Aquinas Street"}, "longitude": "-0.109067"}, "context": "", "outcome_status": null, "persistent_id": "", "id": 122724621, "location_subtype": "", "month": "2024-06"}, {"category": "anti-social-behaviour", "location_type": "Force", "location": {"latitude": "51.516820", "street": {"id": 1678501, "name": "On or near Dyott Street"}, "longitude": "-0.127583"}, "context": "", "outcome_status": null, "persistent_id": "", "id": 122724604, "location_subtype": "", "month": "2024-06"}, {"category": "anti-social-behaviour", "location_type": "Force", "location": {"latitude": "51.495415", "street": {"id": 1678026, "name": "On or near Monck Street"}, "longitude": "-0.130794"}, "context": "", "outcome_status": null, "persistent_id": "", "id": 122723714, "location_subtype": "", "month": "2024-06"}, {"category": "anti-social-behaviour", "location_type": "Force", "location": {"latitude": "51.496508", "street": {"id": 1676664, "name": "On or near Ambrosden Avenue"}, "longitude": "-0.139610"}, "context": "", "outcome_status": null, "persistent_id": "", "id": 122723547, "location_subtype": "", "month": "2024-06"}, {"category": "anti-social-behaviour", "location_type": "Force", "location": {"latitude": "51.513057", "street": {"id": 1675886, "name": "On or near Shopping Area"}, "longitude": "-0.144844"}, "context": "", "outcome_status": null, "persistent_id": "", "id": 122723411, "location_subtype": "", "month": "2024-06"}, {"category": "anti-social-behaviour", "location_type": "Force", "location": {"latitude": "51.517858", "street": {"id": 1678162, "name": "On or near Adeline Place"}, "longitude": "-0.130120"}, "context": "", "outcome_status": null, "persistent_id": "", "id": 122723192, "location_subtype": "", "month": "2024-06"}, {"category": "anti-social-behaviour", "location_type": "Force", "location": {"latitude": "51.511623", "street": {"id": 1678738, "name": "On or near Rose Street"}, "longitude": "-0.125951"}, "context": "", "outcome_status": null, "persistent_id": "", "id": 122722990, "location_subtype": "", "month": "2024-06"}, {"category": "anti-social-behaviour", "location_type": "Force", "location": {"latitude": "51.507576", "street": {"id": 1676403, "name": "On or near Nightclub"}, "longitude": "-0.141776"}, "context": "", "outcome_status": null, "persistent_id": "", "id": 122722979, "location_subtype": "", "month": "2024-06"}, {"category": "anti-social-behaviour", "location_type": "Force", "location": {"latitude": "51.518456", "street": {"id": 1677599, "name": "On or near Percy Street"}, "longitude": "-0.133209"}, "context": "", "outcome_status": null, "persistent_id": "", "id": 122722965, "location_subtype": "", "month": "2024-06"}, {"category": "anti-social-behaviour", "location_type": "Force", "location": {"latitude": "51.512300", "street": {"id": 1678389, "name": "On or near Theatre/concert Hall"}, "longitude": "-0.128388"}, "context": "", "outcome_status": null, "persistent_id": "", "id": 122722577, "location_subtype": "", "month": "2024-06"}, {"category": "anti-social-behaviour", "location_type": "Force", "location": {"latitude": "51.495129", "street": {"id": 1676936, "name": "On or near Francis Street"}, "longitude": "-0.138240"}, "context": "", "outcome_status": null, "persistent_id": "", "id": 122722467, "location_subtype": "", "month": "2024-06"}, {"category": "anti-social-behaviour", "location_type": "Force", "location": {"latitude": "51.514867", "street": {"id": 1676714, "name": "On or near Further/higher Educational Building"}, "longitude": "-0.138790"}, "context": "", "outcome_status": null, "persistent_id": "", "id": 122722447, "location_subtype": "", "month": "2024-06"}, {"category": "anti-social-behaviour", "location_type": "Force", "location": {"latitude": "51.514472", "street": {"id": 1679110, "name": "On or near Arne Street"}, "longitude": "-0.123053"}, "context": "", "outcome_status": null, "persistent_id": "", "id": 122721614, "location_subtype": "", "month": "2024-06"}, {"category": "anti-social-behaviour", "location_type": "Force", "location": {"latitude": "51.515004", "street": {"id": 1678816, "name": "On or near B401"}, "longitude": "-0.125352"}, "context": "", "outcome_status": null, "persistent_id": "", "id": 122720715, "location_subtype": "", "month": "2024-06"}, {"category": "anti-social-behaviour", "location_type": "Force", "location": {"latitude": "51.504507", "street": {"id": 1681118, "name": "On or near Cornwall Road"}, "longitude": "-0.110609"}, "context": "", "outcome_status": null, "persistent_id": "", "id": 122720430, "location_subtype": "", "month": "2024-06"}, {"category": "anti-social-behaviour", "location_type": "Force", "location": {"latitude": "51.500978", "street": {"id": 1678704, "name": "On or near Bridge Street"}, "longitude": "-0.125524"}, "context": "", "outcome_status": null, "persistent_id": "", "id": 122720355, "location_subtype": "", "month": "2024-06"}, {"category": "anti-social-behaviour", "location_type": "Force", "location": {"latitude": "51.507999", "street": {"id": 1675219, "name": "On or near Waverton Street"}, "longitude": "-0.149719"}, "context": "", "outcome_status": null, "persistent_id": "", "id": 122720010, "location_subtype": "", "month": "2024-06"}, {"category": "anti-social-behaviour", "location_type": "Force", "location": {"latitude": "51.511312", "street": {"id": 1677127, "name": "On or near Lower James Street"}, "longitude": "-0.136326"}, "context": "", "outcome_status": null, "persistent_id": "", "id": 122732793, "location_subtype": "", "month": "2024-06"}, {"category": "anti-social-behaviour", "location_type": "Force", "location": {"latitude": "51.497497", "street": {"id": 1677447, "name": "On or near Strutton Ground"}, "longitude": "-0.133922"}, "context": "", "outcome_status": null, "persistent_id": "", "id": 122719866, "location_subtype": "", "month": "2024-06"}, {"category": "anti-social-behaviour", "location_type": "Force", "location": {"latitude": "51.504309", "street": {"id": 1681420, "name": "On or near Brad Street"}, "longitude": "-0.108960"}, "context": "", "outcome_status": null, "persistent_id": "", "id": 122719601, "location_subtype": "", "month": "2024-06"}, {"category": "anti-social-behaviour", "location_type": "Force", "location": {"latitude": "51.519933", "street": {"id": 1677494, "name": "On or near Shopping Area"}, "longitude": "-0.133899"}, "context": "", "outcome_status": null, "persistent_id": "", "id": 122732223, "location_subtype": "", "month": "2024-06"}, {"category": "anti-social-behaviour", "location_type": "Force", "location": {"latitude": "51.514211", "street": {"id": 1678632, "name": "On or near Monmouth Street"}, "longitude": "-0.126984"}, "context": "", "outcome_status": null, "persistent_id": "", "id": 122719071, "location_subtype": "", "month": "2024-06"}, {"category": "anti-social-behaviour", "location_type": "Force", "location": {"latitude": "51.517845", "street": {"id": 1679284, "name": "On or near Further/higher Educational Building"}, "longitude": "-0.121977"}, "context": "", "outcome_status": null, "persistent_id": "", "id": 122718736, "location_subtype": "", "month": "2024-06"}, {"category": "anti-social-behaviour", "location_type": "Force", "location": {"latitude": "51.513090", "street": {"id": 1677384, "name": "On or near Hopkins Street"}, "longitude": "-0.135043"}, "context": "", "outcome_status": null, "persistent_id": "", "id": 122718720, "location_subtype": "", "month": "2024-06"}, {"category": "anti-social-behaviour", "location_type": "Force", "location": {"latitude": "51.512059", "street": {"id": 1679743, "name": "On or near A301"}, "longitude": "-0.118929"}, "context": "", "outcome_status": null, "persistent_id": "", "id": 122718333, "location_subtype": "", "month": "2024-06"}, {"category": "anti-social-behaviour", "location_type": "Force", "location": {"latitude": "51.517742", "street": {"id": 1678770, "name": "On or near Little Russell Street"}, "longitude": "-0.125614"}, "context": "", "outcome_status": null, "persistent_id": "", "id": 122718014, "location_subtype": "", "month": "2024-06"}, {"category": "anti-social-behaviour", "location_type": "Force", "location": {"latitude": "51.514012", "street": {"id": 1677997, "name": "On or near Nightclub"}, "longitude": "-0.131078"}, "context": "", "outcome_status": null, "persistent_id": "", "id": 122717975, "location_subtype": "", "month": "2024-06"}, {"category": "anti-social-behaviour", "location_type": "Force", "location": {"latitude": "51.520757", "street": {"id": 1679808, "name": "On or near Harpur Street"}, "longitude": "-0.119047"}, "context": "", "outcome_status": null, "persistent_id": "", "id": 122717816, "location_subtype": "", "month": "2024-06"}, {"category": "anti-social-behaviour", "location_type": "Force", "location": {"latitude": "51.496508", "street": {"id": 1676664, "name": "On or near Ambrosden Avenue"}, "longitude": "-0.139610"}, "context": "", "outcome_status": null, "persistent_id": "", "id": 122717613, "location_subtype": "", "month": "2024-06"}, {"category": "anti-social-behaviour", "location_type": "Force", "location": {"latitude": "51.507197", "street": {"id": 1680641, "name": "On or near Theatre/concert Hall"}, "longitude": "-0.113626"}, "context": "", "outcome_status": null, "persistent_id": "", "id": 122735081, "location_subtype": "", "month": "2024-06"}, {"category": "anti-social-behaviour", "location_type": "Force", "location": {"latitude": "51.515460", "street": {"id": 1679674, "name": "On or near Wild Court"}, "longitude": "-0.119611"}, "context": "", "outcome_status": null, "persistent_id": "", "id": 122706874, "location_subtype": "", "month": "2024-06"}, {"category": "anti-social-behaviour", "location_type": "Force", "location": {"latitude": "51.498553", "street": {"id": 1677378, "name": "On or near Caxton Street"}, "longitude": "-0.135291"}, "context": "", "outcome_status": null, "persistent_id": "", "id": 122705850, "location_subtype": "", "month": "2024-06"}, {"category": "anti-social-behaviour", "location_type": "Force", "location": {"latitude": "51.515087", "street": {"id": 1677233, "name": "On or near Noel Street"}, "longitude": "-0.136201"}, "context": "", "outcome_status": null, "persistent_id": "", "id": 122704503, "location_subtype": "", "month": "2024-06"}, {"category": "anti-social-behaviour", "location_type": "Force", "location": {"latitude": "51.516001", "street": {"id": 1679229, "name": "On or near Macklin Street"}, "longitude": "-0.122471"}, "context": "", "outcome_status": null, "persistent_id": "", "id": 122704405, "location_subtype": "", "month": "2024-06"}, {"category": "anti-social-behaviour", "location_type": "Force", "location": {"latitude": "51.508450", "street": {"id": 1676091, "name": "On or near Nightclub"}, "longitude": "-0.143266"}, "context": "", "outcome_status": null, "persistent_id": "", "id": 122703338, "location_subtype": "", "month": "2024-06"}, {"category": "anti-social-behaviour", "location_type": "Force", "location": {"latitude": "51.507725", "street": {"id": 1678750, "name": "On or near Corner House Street"}, "longitude": "-0.125708"}, "context": "", "outcome_status": null, "persistent_id": "", "id": 122701721, "location_subtype": "", "month": "2024-06"}, {"category": "anti-social-behaviour", "location_type": "Force", "location": {"latitude": "51.498335", "street": {"id": 1677860, "name": "On or near Abbey Orchard Street"}, "longitude": "-0.131193"}, "context": "", "outcome_status": null, "persistent_id": "", "id": 122692343, "location_subtype": "", "month": "2024-06"}, {"category": "anti-social-behaviour", "location_type": "Force", "location": {"latitude": "51.495415", "street": {"id": 1678026, "name": "On or near Monck Street"}, "longitude": "-0.130794"}, "context": "", "outcome_status": null, "persistent_id": "", "id": 122697116, "location_subtype": "", "month": "2024-06"}, {"category": "anti-social-behaviour", "location_type": "Force", "location": {"latitude": "51.515004", "street": {"id": 1678816, "name": "On or near B401"}, "longitude": "-0.125352"}, "context": "", "outcome_status": null, "persistent_id": "", "id": 122696162, "location_subtype": "", "month": "2024-06"}, {"category": "anti-social-behaviour", "location_type": "Force", "location": {"latitude": "51.511612", "street": {"id": 1677292, "name": "On or near Brewer Street"}, "longitude": "-0.135435"}, "context": "", "outcome_status": null, "persistent_id": "", "id": 122732033, "location_subtype": "", "month": "2024-06"}, {"category": "anti-social-behaviour", "location_type": "Force", "location": {"latitude": "51.505035", "street": {"id": 1680614, "name": "On or near Further/higher Educational Building"}, "longitude": "-0.112677"}, "context": "", "outcome_status": null, "persistent_id": "", "id": 122733422, "location_subtype": "", "month": "2024-06"}, {"category": "anti-social-behaviour", "location_type": "Force", "location": {"latitude": "51.511022", "street": {"id": 1679585, "name": "On or near Strand"}, "longitude": "-0.119880"}, "context": "", "outcome_status": null, "persistent_id": "", "id": 122696429, "location_subtype": "", "month": "2024-06"}, {"category": "anti-social-behaviour", "location_type": "Force", "location": {"latitude": "51.517782", "street": {"id": 1676909, "name": "On or near Further/higher Educational Building"}, "longitude": "-0.138296"}, "context": "", "outcome_status": null, "persistent_id": "", "id": 122735682, "location_subtype": "", "month": "2024-06"}, {"category": "anti-social-behaviour", "location_type": "Force", "location": {"latitude": "51.519092", "street": {"id": 1679240, "name": "On or near Bloomsbury Square"}, "longitude": "-0.122330"}, "context": "", "outcome_status": null, "persistent_id": "", "id": 122683731, "location_subtype": "", "month": "2024-06"}, {"category": "anti-social-behaviour", "location_type": "Force", "location": {"latitude": "51.517265", "street": {"id": 1678861, "name": "On or near Museum Street"}, "longitude": "-0.125071"}, "context": "", "outcome_status": null, "persistent_id": "", "id": 122731736, "location_subtype": "", "month": "2024-06"}, {"category": "anti-social-behaviour", "location_type": "Force", "location": {"latitude": "51.508087", "street": {"id": 1678961, "name": "On or near Nightclub"}, "longitude": "-0.124122"}, "context": "", "outcome_status": null, "persistent_id": "", "id": 122738035, "location_subtype": "", "month": "2024-06"}, {"category": "anti-social-behaviour", "location_type": "Force", "location": {"latitude": "51.508990", "street": {"id": 1676361, "name": "On or near Albemarle Street"}, "longitude": "-0.141882"}, "context": "", "outcome_status": null, "persistent_id": "", "id": 122731687, "location_subtype": "", "month": "2024-06"}, {"category": "anti-social-behaviour", "location_type": "Force", "location": {"latitude": "51.515984", "street": {"id": 1679703, "name": "On or near Conference/exhibition Centre"}, "longitude": "-0.118595"}, "context": "", "outcome_status": null, "persistent_id": "", "id": 122731458, "location_subtype": "", "month": "2024-06"}, {"category": "anti-social-behaviour", "location_type": "Force", "location": {"latitude": "51.513708", "street": {"id": 1676706, "name": "On or near Little Marlborough Street"}, "longitude": "-0.140004"}, "context": "", "outcome_status": null, "persistent_id": "", "id": 122731347, "location_subtype": "", "month": "2024-06"}, {"category": "anti-social-behaviour", "location_type": "Force", "location": {"latitude": "51.515598", "street": {"id": 1678536, "name": "On or near St Giles High Street"}, "longitude": "-0.127633"}, "context": "", "outcome_status": null, "persistent_id": "", "id": 122730930, "location_subtype": "", "month": "2024-06"}, {"category": "anti-social-behaviour", "location_type": "Force", "location": {"latitude": "51.512855", "street": {"id": 1678860, "name": "On or near B402"}, "longitude": "-0.124820"}, "context": "", "outcome_status": null, "persistent_id": "", "id": 122734904, "location_subtype": "", "month": "2024-06"}, {"category": "anti-social-behaviour", "location_type": "Force", "location": {"latitude": "51.504507", "street": {"id": 1681118, "name": "On or near Cornwall Road"}, "longitude": "-0.110609"}, "context": "", "outcome_status": null, "persistent_id": "", "id": 122733411, "location_subtype": "", "month": "2024-06"}, {"category": "anti-social-behaviour", "location_type": "Force", "location": {"latitude": "51.512855", "street": {"id": 1678860, "name": "On or near B402"}, "longitude": "-0.124820"}, "context": "", "outcome_status": null, "persistent_id": "", "id": 122693262, "location_subtype": "", "month": "2024-06"}, {"category": "anti-social-behaviour", "location_type": "Force", "location": {"latitude": "51.514064", "street": {"id": 1679774, "name": "On or near Kean Street"}, "longitude": "-0.118890"}, "context": "", "outcome_status": null, "persistent_id": "", "id": 122708318, "location_subtype": "", "month": "2024-06"}, {"category": "anti-social-behaviour", "location_type": "Force", "location": {"latitude": "51.504824", "street": {"id": 1680380, "name": "On or near Concert Hall Approach"}, "longitude": "-0.115222"}, "context": "", "outcome_status": null, "persistent_id": "", "id": 122708063, "location_subtype": "", "month": "2024-06"}, {"category": "anti-social-behaviour", "location_type": "Force", "location": {"latitude": "51.498257", "street": {"id": 1675875, "name": "On or near Lower Grosvenor Place"}, "longitude": "-0.145532"}, "context": "", "outcome_status": null, "persistent_id": "", "id": 122707702, "location_subtype": "", "month": "2024-06"}, {"category": "anti-social-behaviour", "location_type": "Force", "location": {"latitude": "51.514536", "street": {"id": 1676666, "name": "On or near Nightclub"}, "longitude": "-0.140043"}, "context": "", "outcome_status": null, "persistent_id": "", "id": 122706710, "location_subtype": "", "month": "2024-06"}, {"category": "anti-social-behaviour", "location_type": "Force", "location": {"latitude": "51.500683", "street": {"id": 1680877, "name": "On or near Launcelot Street"}, "longitude": "-0.112194"}, "context": "", "outcome_status": null, "persistent_id": "", "id": 122683943, "location_subtype": "", "month": "2024-06"}, {"category": "anti-social-behaviour", "location_type": "Force", "location": {"latitude": "51.504066", "street": {"id": 1681189, "name": "On or near Theatre/concert Hall"}, "longitude": "-0.110037"}, "context": "", "outcome_status": null, "persistent_id": "", "id": 122706639, "location_subtype": "", "month": "2024-06"}, {"category": "anti-social-behaviour", "location_type": "Force", "location": {"latitude": "51.511856", "street": {"id": 1678534, "name": "On or near Great Newport Street"}, "longitude": "-0.127570"}, "context": "", "outcome_status": null, "persistent_id": "", "id": 122705785, "location_subtype": "", "month": "2024-06"}, {"category": "anti-social-behaviour", "location_type": "Force", "location": {"latitude": "51.509396", "street": {"id": 1678091, "name": "On or near Orange Street"}, "longitude": "-0.130626"}, "context": "", "outcome_status": null, "persistent_id": "", "id": 122704511, "location_subtype": "", "month": "2024-06"}, {"category": "anti-social-behaviour", "location_type": "Force", "location": {"latitude": "51.516568", "street": {"id": 1679291, "name": "On or near Newton Street"}, "longitude": "-0.121381"}, "context": "", "outcome_status": null, "persistent_id": "", "id": 122703980, "location_subtype": "", "month": "2024-06"}, {"category": "anti-social-behaviour", "location_type": "Force", "location": {"latitude": "51.511022", "street": {"id": 1679585, "name": "On or near Strand"}, "longitude": "-0.119880"}, "context": "", "outcome_status": null, "persistent_id": "", "id": 122735969, "location_subtype": "", "month": "2024-06"}, {"category": "anti-social-behaviour", "location_type": "Force", "location": {"latitude": "51.510152", "street": {"id": 1677738, "name": "On or near Theatre/concert Hall"}, "longitude": "-0.132382"}, "context": "", "outcome_status": null, "persistent_id": "", "id": 122703268, "location_subtype": "", "month": "2024-06"}, {"category": "anti-social-behaviour", "location_type": "Force", "location": {"latitude": "51.495745", "street": {"id": 1677734, "name": "On or near Parking Area"}, "longitude": "-0.132308"}, "context": "", "outcome_status": null, "persistent_id": "", "id": 122703246, "location_subtype": "", "month": "2024-06"}, {"category": "anti-social-behaviour", "location_type": "Force", "location": {"latitude": "51.503895", "street": {"id": 1681317, "name": "On or near Theatre/concert Hall"}, "longitude": "-0.109482"}, "context": "", "outcome_status": null, "persistent_id": "", "id": 122736050, "location_subtype": "", "month": "2024-06"}, {"category": "anti-social-behaviour", "location_type": "Force", "location": {"latitude": "51.509491", "street": {"id": 1678539, "name": "On or near William Iv Street"}, "longitude": "-0.125924"}, "context": "", "outcome_status": null, "persistent_id": "", "id": 122730893, "location_subtype": "", "month": "2024-06"}, {"category": "anti-social-behaviour", "location_type": "Force", "location": {"latitude": "51.496466", "street": {"id": 1676405, "name": "On or near Shopping Area"}, "longitude": "-0.141499"}, "context": "", "outcome_status": null, "persistent_id": "", "id": 122703122, "location_subtype": "", "month": "2024-06"}, {"category": "anti-social-behaviour", "location_type": "Force", "location": {"latitude": "51.514195", "street": {"id": 1675879, "name": "On or near Dering Street"}, "longitude": "-0.145735"}, "context": "", "outcome_status": null, "persistent_id": "", "id": 122732688, "location_subtype": "", "month": "2024-06"}, {"category": "anti-social-behaviour", "location_type": "Force", "location": {"latitude": "51.513052", "street": {"id": 1677758, "name": "On or near Bourchier Street"}, "longitude": "-0.132681"}, "context": "", "outcome_status": null, "persistent_id": "", "id": 122732419, "location_subtype": "", "month": "2024-06"}, {"category": "anti-social-behaviour", "location_type": "Force", "location": {"latitude": "51.519933", "street": {"id": 1677494, "name": "On or near Shopping Area"}, "longitude": "-0.133899"}, "context": "", "outcome_status": null, "persistent_id": "", "id": 122702861, "location_subtype": "", "month": "2024-06"}, {"category": "anti-social-behaviour", "location_type": "Force", "location": {"latitude": "51.516001", "street": {"id": 1679229, "name": "On or near Macklin Street"}, "longitude": "-0.122471"}, "context": "", "outcome_status": null, "persistent_id": "", "id": 122733146, "location_subtype": "", "month": "2024-06"}, {"category": "anti-social-behaviour", "location_type": "Force", "location": {"latitude": "51.497497", "street": {"id": 1677447, "name": "On or near Strutton Ground"}, "longitude": "-0.133922"}, "context": "", "outcome_status": null, "persistent_id": "", "id": 122742307, "location_subtype": "", "month": "2024-06"}, {"category": "anti-social-behaviour", "location_type": "Force", "location": {"latitude": "51.513601", "street": {"id": 1677939, "name": "On or near Frith Street"}, "longitude": "-0.131534"}, "context": "", "outcome_status": null, "persistent_id": "", "id": 122683528, "location_subtype": "", "month": "2024-06"}, {"category": "anti-social-behaviour", "location_type": "Force", "location": {"latitude": "51.518687", "street": {"id": 1679965, "name": "On or near Eagle Street"}, "longitude": "-0.117820"}, "context": "", "outcome_status": null, "persistent_id": "", "id": 122684046, "location_subtype": "", "month": "2024-06"}, {"category": "anti-social-behaviour", "location_type": "Force", "location": {"latitude": "51.507970", "street": {"id": 1677656, "name": "On or near Charles Ii Street"}, "longitude": "-0.133162"}, "context": "", "outcome_status": null, "persistent_id": "", "id": 122684580, "location_subtype": "", "month": "2024-06"}, {"category": "anti-social-behaviour", "location_type": "Force", "location": {"latitude": "51.498553", "street": {"id": 1677378, "name": "On or near Caxton Street"}, "longitude": "-0.135291"}, "context": "", "outcome_status": null, "persistent_id": "", "id": 122684595, "location_subtype": "", "month": "2024-06"}, {"category": "anti-social-behaviour", "location_type": "Force", "location": {"latitude": "51.511292", "street": {"id": 1680611, "name": "On or near Temple Place"}, "longitude": "-0.113701"}, "context": "", "outcome_status": null, "persistent_id": "", "id": 122685915, "location_subtype": "", "month": "2024-06"}, {"category": "anti-social-behaviour", "location_type": "Force", "location": {"latitude": "51.510953", "street": {"id": 1677692, "name": "On or near Nightclub"}, "longitude": "-0.133012"}, "context": "", "outcome_status": null, "persistent_id": "", "id": 122685931, "location_subtype": "", "month": "2024-06"}, {"category": "anti-social-behaviour", "location_type": "Force", "location": {"latitude": "51.507623", "street": {"id": 1678103, "name": "On or near Cockspur Street"}, "longitude": "-0.130006"}, "context": "", "outcome_status": null, "persistent_id": "", "id": 122686412, "location_subtype": "", "month": "2024-06"}, {"category": "anti-social-behaviour", "location_type": "Force", "location": {"latitude": "51.495415", "street": {"id": 1678026, "name": "On or near Monck Street"}, "longitude": "-0.130794"}, "context": "", "outcome_status": null, "persistent_id": "", "id": 122686480, "location_subtype": "", "month": "2024-06"}, {"category": "anti-social-behaviour", "location_type": "Force", "location": {"latitude": "51.511111", "street": {"id": 1679082, "name": "On or near Henrietta Street"}, "longitude": "-0.123710"}, "context": "", "outcome_status": null, "persistent_id": "", "id": 122686633, "location_subtype": "", "month": "2024-06"}, {"category": "anti-social-behaviour", "location_type": "Force", "location": {"latitude": "51.513715", "street": {"id": 1679596, "name": "On or near Drury Lane"}, "longitude": "-0.120101"}, "context": "", "outcome_status": null, "persistent_id": "", "id": 122686862, "location_subtype": "", "month": "2024-06"}, {"category": "anti-social-behaviour", "location_type": "Force", "location": {"latitude": "51.498553", "street": {"id": 1677378, "name": "On or near Caxton Street"}, "longitude": "-0.135291"}, "context": "", "outcome_status": null, "persistent_id": "", "id": 122687195, "location_subtype": "", "month": "2024-06"}, {"category": "anti-social-behaviour", "location_type": "Force", "location": {"latitude": "51.514185", "street": {"id": 1677307, "name": "On or near Berwick Street"}, "longitude": "-0.135459"}, "context": "", "outcome_status": null, "persistent_id": "", "id": 122687400, "location_subtype": "", "month": "2024-06"},