[{"category": "anti-social-behaviour", "location_type": "Force", "location": {"latitude": "52.947981", "street": {"id": 2246953, "name": "On or near Carrington Street"}, "longitude": "-1.147614"}, "context": "", "outcome_status": null, "persistent_id": "", "id": 125471928, "location_subtype": "", "month": "2024-12"}, {"category": "anti-social-behaviour", "location_type": "Force", "location": {"latitude": "52.958737", "street": {"id": 2247051, "name": "On or near Cairns Street"}, "longitude": "-1.147075"}, "context": "", "outcome_status": null, "persistent_id": "", "id": 125471096, "location_subtype": "", "month": "2024-12"}, {"category": "anti-social-behaviour", "location_type": "Force", "location": {"latitude": "52.958737", "street": {"id": 2247051, "name": "On or near Cairns Street"}, "longitude": "-1.147075"}, "context": "", "outcome_status": null, "persistent_id": "", "id": 125471093, "location_subtype": "", "month": "2024-12"}, {"category": "anti-social-behaviour", "location_type": "Force", "location": {"latitude": "52.963444", "street": {"id": 2245492, "name": "On or near Weston Avenue"}, "longitude": "-1.166873"}, "context": "", "outcome_status": null, "persistent_id": "", "id": 125471115, "location_subtype": "", "month": "2024-12"}, {"category": "anti-social-behaviour", "location_type": "Force", "location": {"latitude": "52.948198", "street": {"id": 2247204, "name": "On or near Trent Street"}, "longitude": "-1.145333"}, "context": "", "outcome_status": null, "persistent_id": "", "id": 125471114, "location_subtype": "", "month": "2024-12"}, {"category": "anti-social-behaviour", "location_type": "Force", "location": {"latitude": "52.962884", "street": {"id": 2246619, "name": "On or near Alpha Terrace"}, "longitude": "-1.152443"}, "context": "", "outcome_status": null, "persistent_id": "", "id": 125471140, "location_subtype": "", "month": "2024-12"}, {"category": "anti-social-behaviour", "location_type": "Force", "location": {"latitude": "52.949430", "street": {"id": 2247384, "name": "On or near Parking Area"}, "longitude": "-1.141647"}, "context": "", "outcome_status": null, "persistent_id": "", "id": 125471161, "location_subtype": "", "month": "2024-12"}, {"category": "anti-social-behaviour", "location_type": "Force", "location": {"latitude": "52.963882", "street": {"id": 2247366, "name": "On or near Furze Gardens"}, "longitude": "-1.142418"}, "context": "", "outcome_status": null, "persistent_id": "", "id": 125471196, "location_subtype": "", "month": "2024-12"}, {"category": "anti-social-behaviour", "location_type": "Force", "location": {"latitude": "52.957018", "street": {"id": 2248274, "name": "On or near Devon Street"}, "longitude": "-1.128233"}, "context": "", "outcome_status": null, "persistent_id": "", "id": 125471199, "location_subtype": "", "month": "2024-12"}, {"category": "anti-social-behaviour", "location_type": "Force", "location": {"latitude": "52.949430", "street": {"id": 2247384, "name": "On or near Parking Area"}, "longitude": "-1.141647"}, "context": "", "outcome_status": null, "persistent_id": "", "id": 125471248, "location_subtype": "", "month": "2024-12"}, {"category": "anti-social-behaviour", "location_type": "Force", "location": {"latitude": "52.939437", "street": {"id": 2247179, "name": "On or near Holgate Road"}, "longitude": "-1.145862"}, "context": "", "outcome_status": null, "persistent_id": "", "id": 125471594, "location_subtype": "", "month": "2024-12"}, {"category": "anti-social-behaviour", "location_type": "Force", "location": {"latitude": "52.953688", "street": {"id": 2247042, "name": "On or near High Street"}, "longitude": "-1.147502"}, "context": "", "outcome_status": null, "persistent_id": "", "id": 125471627, "location_subtype": "", "month": "2024-12"}, {"category": "anti-social-behaviour", "location_type": "Force", "location": {"latitude": "52.948893", "street": {"id": 2247109, "name": "On or near Canal Street"}, "longitude": "-1.145751"}, "context": "", "outcome_status": null, "persistent_id": "", "id": 125471943, "location_subtype": "", "month": "2024-12"}, {"category": "anti-social-behaviour", "location_type": "Force", "location": {"latitude": "52.949344", "street": {"id": 2247084, "name": "On or near Parking Area"}, "longitude": "-1.147141"}, "context": "", "outcome_status": null, "persistent_id": "", "id": 125471942, "location_subtype": "", "month": "2024-12"}, {"category": "anti-social-behaviour", "location_type": "Force", "location": {"latitude": "52.949646", "street": {"id": 2247017, "name": "On or near Collin Street"}, "longitude": "-1.147938"}, "context": "", "outcome_status": null, "persistent_id": "", "id": 125471950, "location_subtype": "", "month": "2024-12"}, {"category": "anti-social-behaviour", "location_type": "Force", "location": {"latitude": "52.948893", "street": {"id": 2247109, "name": "On or near Canal Street"}, "longitude": "-1.145751"}, "context": "", "outcome_status": null, "persistent_id": "", "id": 125471949, "location_subtype": "", "month": "2024-12"}, {"category": "anti-social-behaviour", "location_type": "Force", "location": {"latitude": "52.949646", "street": {"id": 2247017, "name": "On or near Collin Street"}, "longitude": "-1.147938"}, "context": "", "outcome_status": null, "persistent_id": "", "id": 125471960, "location_subtype": "", "month": "2024-12"}, {"category": "anti-social-behaviour", "location_type": "Force", "location": {"latitude": "52.949736", "street": {"id": 2247122, "name": "On or near A6008"}, "longitude": "-1.146672"}, "context": "", "outcome_status": null, "persistent_id": "", "id": 125471959, "location_subtype": "", "month": "2024-12"}, {"category": "anti-social-behaviour", "location_type": "Force", "location": {"latitude": "52.949646", "street": {"id": 2247017, "name": "On or near Collin Street"}, "longitude": "-1.147938"}, "context": "", "outcome_status": null, "persistent_id": "", "id": 125471958, "location_subtype": "", "month": "2024-12"}, {"category": "anti-social-behaviour", "location_type": "Force", "location": {"latitude": "52.949736", "street": {"id": 2247122, "name": "On or near A6008"}, "longitude": "-1.146672"}, "context": "", "outcome_status": null, "persistent_id": "", "id": 125471957, "location_subtype": "", "month": "2024-12"}, {"category": "anti-social-behaviour", "location_type": "Force", "location": {"latitude": "52.949646", "street": {"id": 2247017, "name": "On or near Collin Street"}, "longitude": "-1.147938"}, "context": "", "outcome_status": null, "persistent_id": "", "id": 125471956, "location_subtype": "", "month": "2024-12"}, {"category": "anti-social-behaviour", "location_type": "Force", "location": {"latitude": "52.948893", "street": {"id": 2247109, "name": "On or near Canal Street"}, "longitude": "-1.145751"}, "context": "", "outcome_status": null, "persistent_id": "", "id": 125471955, "location_subtype": "", "month": "2024-12"}, {"category": "anti-social-behaviour", "location_type": "Force", "location": {"latitude": "52.948893", "street": {"id": 2247109, "name": "On or near Canal Street"}, "longitude": "-1.145751"}, "context": "", "outcome_status": null, "persistent_id": "", "id": 125471953, "location_subtype": "", "month": "2024-12"}, {"category": "anti-social-behaviour", "location_type": "Force", "location": {"latitude": "52.949736", "street": {"id": 2247122, "name": "On or near A6008"}, "longitude": "-1.146672"}, "context": "", "outcome_status": null, "persistent_id": "", "id": 125471971, "location_subtype": "", "month": "2024-12"}, {"category": "anti-social-behaviour", "location_type": "Force", "location": {"latitude": "52.949646", "street": {"id": 2247017, "name": "On or near Collin Street"}, "longitude": "-1.147938"}, "context": "", "outcome_status": null, "persistent_id": "", "id": 125471970, "location_subtype": "", "month": "2024-12"}, {"category": "anti-social-behaviour", "location_type": "Force", "location": {"latitude": "52.949344", "street": {"id": 2247084, "name": "On or near Parking Area"}, "longitude": "-1.147141"}, "context": "", "outcome_status": null, "persistent_id": "", "id": 125472007, "location_subtype": "", "month": "2024-12"}, {"category": "anti-social-behaviour", "location_type": "Force", "location": {"latitude": "52.951012", "street": {"id": 2245024, "name": "On or near Newgate Street"}, "longitude": "-1.173319"}, "context": "", "outcome_status": null, "persistent_id": "", "id": 125472006, "location_subtype": "", "month": "2024-12"}, {"category": "anti-social-behaviour", "location_type": "Force", "location": {"latitude": "52.958317", "street": {"id": 2246744, "name": "On or near Matlock Court"}, "longitude": "-1.151207"}, "context": "", "outcome_status": null, "persistent_id": "", "id": 125472030, "location_subtype": "", "month": "2024-12"}, {"category": "anti-social-behaviour", "location_type": "Force", "location": {"latitude": "52.952145", "street": {"id": 2245083, "name": "On or near Welby Avenue"}, "longitude": "-1.172106"}, "context": "", "outcome_status": null, "persistent_id": "", "id": 125472028, "location_subtype": "", "month": "2024-12"}, {"category": "anti-social-behaviour", "location_type": "Force", "location": {"latitude": "52.949736", "street": {"id": 2247122, "name": "On or near A6008"}, "longitude": "-1.146672"}, "context": "", "outcome_status": null, "persistent_id": "", "id": 125471975, "location_subtype": "", "month": "2024-12"}, {"category": "anti-social-behaviour", "location_type": "Force", "location": {"latitude": "52.949646", "street": {"id": 2247017, "name": "On or near Collin Street"}, "longitude": "-1.147938"}, "context": "", "outcome_status": null, "persistent_id": "", "id": 125471976, "location_subtype": "", "month": "2024-12"}, {"category": "anti-social-behaviour", "location_type": "Force", "location": {"latitude": "52.949736", "street": {"id": 2247122, "name": "On or near A6008"}, "longitude": "-1.146672"}, "context": "", "outcome_status": null, "persistent_id": "", "id": 125471977, "location_subtype": "", "month": "2024-12"}, {"category": "anti-social-behaviour", "location_type": "Force", "location": {"latitude": "52.949646", "street": {"id": 2247017, "name": "On or near Collin Street"}, "longitude": "-1.147938"}, "context": "", "outcome_status": null, "persistent_id": "", "id": 125471978, "location_subtype": "", "month": "2024-12"}, {"category": "anti-social-behaviour", "location_type": "Force", "location": {"latitude": "52.950001", "street": {"id": 2247068, "name": "On or near Shopping Area"}, "longitude": "-1.147292"}, "context": "", "outcome_status": null, "persistent_id": "", "id": 125471980, "location_subtype": "", "month": "2024-12"}, {"category": "anti-social-behaviour", "location_type": "Force", "location": {"latitude": "52.951894", "street": {"id": 2246676, "name": "On or near Spaniel Row"}, "longitude": "-1.151749"}, "context": "", "outcome_status": null, "persistent_id": "", "id": 125471727, "location_subtype": "", "month": "2024-12"}, {"category": "anti-social-behaviour", "location_type": "Force", "location": {"latitude": "52.953688", "street": {"id": 2247042, "name": "On or near High Street"}, "longitude": "-1.147502"}, "context": "", "outcome_status": null, "persistent_id": "", "id": 125470937, "location_subtype": "", "month": "2024-12"}, {"category": "anti-social-behaviour", "location_type": "Force", "location": {"latitude": "52.948459", "street": {"id": 2248252, "name": "On or near Lindum Grove"}, "longitude": "-1.128123"}, "context": "", "outcome_status": null, "persistent_id": "", "id": 125471787, "location_subtype": "", "month": "2024-12"}, {"category": "anti-social-behaviour", "location_type": "Force", "location": {"latitude": "52.952315", "street": {"id": 2247176, "name": "On or near Parking Area"}, "longitude": "-1.145371"}, "context": "", "outcome_status": null, "persistent_id": "", "id": 125471618, "location_subtype": "", "month": "2024-12"}, {"category": "anti-social-behaviour", "location_type": "Force", "location": {"latitude": "52.955101", "street": {"id": 2245349, "name": "On or near Balfour Road"}, "longitude": "-1.169281"}, "context": "", "outcome_status": null, "persistent_id": "", "id": 125470403, "location_subtype": "", "month": "2024-12"}, {"category": "anti-social-behaviour", "location_type": "Force", "location": {"latitude": "52.953688", "street": {"id": 2247042, "name": "On or near High Street"}, "longitude": "-1.147502"}, "context": "", "outcome_status": null, "persistent_id": "", "id": 125470402, "location_subtype": "", "month": "2024-12"}, {"category": "anti-social-behaviour", "location_type": "Force", "location": {"latitude": "52.962746", "street": {"id": 2247773, "name": "On or near Livingstone Road"}, "longitude": "-1.137096"}, "context": "", "outcome_status": null, "persistent_id": "", "id": 125471224, "location_subtype": "", "month": "2024-12"}, {"category": "anti-social-behaviour", "location_type": "Force", "location": {"latitude": "52.956030", "street": {"id": 2246804, "name": "On or near Nightclub"}, "longitude": "-1.150671"}, "context": "", "outcome_status": null, "persistent_id": "", "id": 125471222, "location_subtype": "", "month": "2024-12"}, {"category": "anti-social-behaviour", "location_type": "Force", "location": {"latitude": "52.950864", "street": {"id": 2246500, "name": "On or near Castle Place"}, "longitude": "-1.153556"}, "context": "", "outcome_status": null, "persistent_id": "", "id": 125471124, "location_subtype": "", "month": "2024-12"}, {"category": "anti-social-behaviour", "location_type": "Force", "location": {"latitude": "52.958737", "street": {"id": 2247051, "name": "On or near Cairns Street"}, "longitude": "-1.147075"}, "context": "", "outcome_status": null, "persistent_id": "", "id": 125470351, "location_subtype": "", "month": "2024-12"}, {"category": "anti-social-behaviour", "location_type": "Force", "location": {"latitude": "52.955978", "street": {"id": 2247850, "name": "On or near Lowdham Street"}, "longitude": "-1.134744"}, "context": "", "outcome_status": null, "persistent_id": "", "id": 125471120, "location_subtype": "", "month": "2024-12"}, {"category": "anti-social-behaviour", "location_type": "Force", "location": {"latitude": "52.950919", "street": {"id": 2246765, "name": "On or near Castle Gate"}, "longitude": "-1.151203"}, "context": "", "outcome_status": null, "persistent_id": "", "id": 125470311, "location_subtype": "", "month": "2024-12"}, {"category": "anti-social-behaviour", "location_type": "Force", "location": {"latitude": "52.956030", "street": {"id": 2246804, "name": "On or near Nightclub"}, "longitude": "-1.150671"}, "context": "", "outcome_status": null, "persistent_id": "", "id": 125470511, "location_subtype": "", "month": "2024-12"}, {"category": "anti-social-behaviour", "location_type": "Force", "location": {"latitude": "52.948893", "street": {"id": 2247109, "name": "On or near Canal Street"}, "longitude": "-1.145751"}, "context": "", "outcome_status": null, "persistent_id": "", "id": 125471951, "location_subtype": "", "month": "2024-12"}, {"category": "anti-social-behaviour", "location_type": "Force", "location": {"latitude": "52.950001", "street": {"id": 2247068, "name": "On or near Shopping Area"}, "longitude": "-1.147292"}, "context": "", "outcome_status": null, "persistent_id": "", "id": 125471981, "location_subtype": "", "month": "2024-12"}, {"category": "anti-social-behaviour", "location_type": "Force", "location": {"latitude": "52.950001", "street": {"id": 2247068, "name": "On or near Shopping Area"}, "longitude": "-1.147292"}, "context": "", "outcome_status": null, "persistent_id": "", "id": 125471982, "location_subtype": "", "month": "2024-12"}, {"category": "anti-social-behaviour", "location_type": "Force", "location": {"latitude": "52.952312", "street": {"id": 2247367, "name": "On or near Parking Area"}, "longitude": "-1.143644"}, "context": "", "outcome_status": null, "persistent_id": "", "id": 125470550, "location_subtype": "", "month": "2024-12"}, {"category": "anti-social-behaviour", "location_type": "Force", "location": {"latitude": "52.949646", "street": {"id": 2247017, "name": "On or near Collin Street"}, "longitude": "-1.147938"}, "context": "", "outcome_status": null, "persistent_id": "", "id": 125471946, "location_subtype": "", "month": "2024-12"}, {"category": "anti-social-behaviour", "location_type": "Force", "location": {"latitude": "52.948893", "street": {"id": 2247109, "name": "On or near Canal Street"}, "longitude": "-1.145751"}, "context": "", "outcome_status": null, "persistent_id": "", "id": 125471947, "location_subtype": "", "month": "2024-12"}, {"category": "anti-social-behaviour", "location_type": "Force", "location": {"latitude": "52.949646", "street": {"id": 2247017, "name": "On or near Collin Street"}, "longitude": "-1.147938"}, "context": "", "outcome_status": null, "persistent_id": "", "id": 125471948, "location_subtype": "", "month": "2024-12"}, {"category": "anti-social-behaviour", "location_type": "Force", "location": {"latitude": "52.949646", "street": {"id": 2247017, "name": "On or near Collin Street"}, "longitude": "-1.147938"}, "context": "", "outcome_status": null, "persistent_id": "", "id": 125471962, "location_subtype": "", "month": "2024-12"}, {"category": "anti-social-behaviour", "location_type": "Force", "location": {"latitude": "52.949736", "street": {"id": 2247122, "name": "On or near A6008"}, "longitude": "-1.146672"}, "context": "", "outcome_status": null, "persistent_id": "", "id": 125471963, "location_subtype": "", "month": "2024-12"}, {"category": "anti-social-behaviour", "location_type": "Force", "location": {"latitude": "52.952315", "street": {"id": 2247176, "name": "On or near Parking Area"}, "longitude": "-1.145371"}, "context": "", "outcome_status": null, "persistent_id": "", "id": 125470524, "location_subtype": "", "month": "2024-12"}, {"category": "anti-social-behaviour", "location_type": "Force", "location": {"latitude": "52.957479", "street": {"id": 2247690, "name": "On or near Scarborough Street"}, "longitude": "-1.138451"}, "context": "", "outcome_status": null, "persistent_id": "", "id": 125470528, "location_subtype": "", "month": "2024-12"}, {"category": "anti-social-behaviour", "location_type": "Force", "location": {"latitude": "52.949646", "street": {"id": 2247017, "name": "On or near Collin Street"}, "longitude": "-1.147938"}, "context": "", "outcome_status": null, "persistent_id": "", "id": 125471964, "location_subtype": "", "month": "2024-12"}, {"category": "anti-social-behaviour", "location_type": "Force", "location": {"latitude": "52.949736", "street": {"id": 2247122, "name": "On or near A6008"}, "longitude": "-1.146672"}, "context": "", "outcome_status": null, "persistent_id": "", "id": 125471965, "location_subtype": "", "month": "2024-12"}, {"category": "anti-social-behaviour", "location_type": "Force", "location": {"latitude": "52.949646", "street": {"id": 2247017, "name": "On or near Collin Street"}, "longitude": "-1.147938"}, "context": "", "outcome_status": null, "persistent_id": "", "id": 125471966, "location_subtype": "", "month": "2024-12"}, {"category": "anti-social-behaviour", "location_type": "Force", "location": {"latitude": "52.949736", "street": {"id": 2247122, "name": "On or near A6008"}, "longitude": "-1.146672"}, "context": "", "outcome_status": null, "persistent_id": "", "id": 125471967, "location_subtype": "", "month": "2024-12"}, {"category": "anti-social-behaviour", "location_type": "Force", "location": {"latitude": "52.949646", "street": {"id": 2247017, "name": "On or near Collin Street"}, "longitude": "-1.147938"}, "context": "", "outcome_status": null, "persistent_id": "", "id": 125471968, "location_subtype": "", "month": "2024-12"}, {"category": "anti-social-behaviour", "location_type": "Force", "location": {"latitude": "52.949736", "street": {"id": 2247122, "name": "On or near A6008"}, "longitude": "-1.146672"}, "context": "", "outcome_status": null, "persistent_id": "", "id": 125471969, "location_subtype": "", "month": "2024-12"}, {"category": "anti-social-behaviour", "location_type": "Force", "location": {"latitude": "52.949646", "street": {"id": 2247017, "name": "On or near Collin Street"}, "longitude": "-1.147938"}, "context": "", "outcome_status": null, "persistent_id": "", "id": 125471972, "location_subtype": "", "month": "2024-12"}, {"category": "anti-social-behaviour", "location_type": "Force", "location": {"latitude": "52.954458", "street": {"id": 2246670, "name": "On or near Parking Area"}, "longitude": "-1.152056"}, "context": "", "outcome_status": null, "persistent_id": "", "id": 125470406, "location_subtype": "", "month": "2024-12"}, {"category": "anti-social-behaviour", "location_type": "Force", "location": {"latitude": "52.949736", "street": {"id": 2247122, "name": "On or near A6008"}, "longitude": "-1.146672"}, "context": "", "outcome_status": null, "persistent_id": "", "id": 125471973, "location_subtype": "", "month": "2024-12"}, {"category": "anti-social-behaviour", "location_type": "Force", "location": {"latitude": "52.949646", "street": {"id": 2247017, "name": "On or near Collin Street"}, "longitude": "-1.147938"}, "context": "", "outcome_status": null, "persistent_id": "", "id": 125471974, "location_subtype": "", "month": "2024-12"}, {"category": "anti-social-behaviour", "location_type": "Force", "location": {"latitude": "52.954458", "street": {"id": 2246670, "name": "On or near Parking Area"}, "longitude": "-1.152056"}, "context": "", "outcome_status": null, "persistent_id": "", "id": 125470294, "location_subtype": "", "month": "2024-12"}, {"category": "anti-social-behaviour", "location_type": "Force", "location": {"latitude": "52.956030", "street": {"id": 2246804, "name": "On or near Nightclub"}, "longitude": "-1.150671"}, "context": "", "outcome_status": null, "persistent_id": "", "id": 125470301, "location_subtype": "", "month": "2024-12"}, {"category": "anti-social-behaviour", "location_type": "Force", "location": {"latitude": "52.950793", "street": {"id": 2246851, "name": "On or near Stanford Street"}, "longitude": "-1.149896"}, "context": "", "outcome_status": null, "persistent_id": "", "id": 125470303, "location_subtype": "", "month": "2024-12"}, {"category": "anti-social-behaviour", "location_type": "Force", "location": {"latitude": "52.952962", "street": {"id": 2247807, "name": "On or near Eyre Street"}, "longitude": "-1.136635"}, "context": "", "outcome_status": null, "persistent_id": "", "id": 125470302, "location_subtype": "", "month": "2024-12"}, {"category": "anti-social-behaviour", "location_type": "Force", "location": {"latitude": "52.956035", "street": {"id": 2245832, "name": "On or near St Helen's Street"}, "longitude": "-1.162758"}, "context": "", "outcome_status": null, "persistent_id": "", "id": 125470309, "location_subtype": "", "month": "2024-12"}, {"category": "anti-social-behaviour", "location_type": "Force", "location": {"latitude": "52.961934", "street": {"id": 2246534, "name": "On or near Newstead Grove"}, "longitude": "-1.152863"}, "context": "", "outcome_status": null, "persistent_id": "", "id": 125470308, "location_subtype": "", "month": "2024-12"}, {"category": "anti-social-behaviour", "location_type": "Force", "location": {"latitude": "52.949344", "street": {"id": 2247084, "name": "On or near Parking Area"}, "longitude": "-1.147141"}, "context": "", "outcome_status": null, "persistent_id": "", "id": 125470305, "location_subtype": "", "month": "2024-12"}, {"category": "anti-social-behaviour", "location_type": "Force", "location": {"latitude": "52.963472", "street": {"id": 2246513, "name": "On or near Tudor Grove"}, "longitude": "-1.154203"}, "context": "", "outcome_status": null, "persistent_id": "", "id": 125470342, "location_subtype": "", "month": "2024-12"}, {"category": "anti-social-behaviour", "location_type": "Force", "location": {"latitude": "52.954355", "street": {"id": 2245180, "name": "On or near Rothesay Avenue"}, "longitude": "-1.171930"}, "context": "", "outcome_status": null, "persistent_id": "", "id": 125470341, "location_subtype": "", "month": "2024-12"}, {"category": "anti-social-behaviour", "location_type": "Force", "location": {"latitude": "52.946983", "street": {"id": 2247110, "name": "On or near Nottingham"}, "longitude": "-1.146369"}, "context": "", "outcome_status": null, "persistent_id": "", "id": 125470340, "location_subtype": "", "month": "2024-12"}, {"category": "anti-social-behaviour", "location_type": "Force", "location": {"latitude": "52.949344", "street": {"id": 2247084, "name": "On or near Parking Area"}, "longitude": "-1.147141"}, "context": "", "outcome_status": null, "persistent_id": "", "id": 125470354, "location_subtype": "", "month": "2024-12"}, {"category": "anti-social-behaviour", "location_type": "Force", "location": {"latitude": "52.951183", "street": {"id": 2247450, "name": "On or near Short Hill"}, "longitude": "-1.141657"}, "context": "", "outcome_status": null, "persistent_id": "", "id": 125470363, "location_subtype": "", "month": "2024-12"}, {"category": "anti-social-behaviour", "location_type": "Force", "location": {"latitude": "52.949646", "street": {"id": 2247017, "name": "On or near Collin Street"}, "longitude": "-1.147938"}, "context": "", "outcome_status": null, "persistent_id": "", "id": 125470368, "location_subtype": "", "month": "2024-12"}, {"category": "anti-social-behaviour", "location_type": "Force", "location": {"latitude": "52.950100", "street": {"id": 2248150, "name": "On or near St Stephen's Road"}, "longitude": "-1.130010"}, "context": "", "outcome_status": null, "persistent_id": "", "id": 125470372, "location_subtype": "", "month": "2024-12"}, {"category": "anti-social-behaviour", "location_type": "Force", "location": {"latitude": "52.965365", "street": {"id": 2247116, "name": "On or near Goldswong Terrace"}, "longitude": "-1.146230"}, "context": "", "outcome_status": null, "persistent_id": "", "id": 125470380, "location_subtype": "", "month": "2024-12"}, {"category": "anti-social-behaviour", "location_type": "Force", "location": {"latitude": "52.958706", "street": {"id": 2245052, "name": "On or near Leroy Wallace Avenue"}, "longitude": "-1.171981"}, "context": "", "outcome_status": null, "persistent_id": "", "id": 125470386, "location_subtype": "", "month": "2024-12"}, {"category": "anti-social-behaviour", "location_type": "Force", "location": {"latitude": "52.953323", "street": {"id": 2247469, "name": "On or near Woolpack Lane"}, "longitude": "-1.141734"}, "context": "", "outcome_status": null, "persistent_id": "", "id": 125470420, "location_subtype": "", "month": "2024-12"}, {"category": "anti-social-behaviour", "location_type": "Force", "location": {"latitude": "52.956194", "street": {"id": 2246946, "name": "On or near Milton Street"}, "longitude": "-1.148390"}, "context": "", "outcome_status": null, "persistent_id": "", "id": 125470424, "location_subtype": "", "month": "2024-12"}, {"category": "anti-social-behaviour", "location_type": "Force", "location": {"latitude": "52.949430", "street": {"id": 2247384, "name": "On or near Parking Area"}, "longitude": "-1.141647"}, "context": "", "outcome_status": null, "persistent_id": "", "id": 125470434, "location_subtype": "", "month": "2024-12"}, {"category": "anti-social-behaviour", "location_type": "Force", "location": {"latitude": "52.958737", "street": {"id": 2247051, "name": "On or near Cairns Street"}, "longitude": "-1.147075"}, "context": "", "outcome_status": null, "persistent_id": "", "id": 125470470, "location_subtype": "", "month": "2024-12"}, {"category": "anti-social-behaviour", "location_type": "Force", "location": {"latitude": "52.949344", "street": {"id": 2247084, "name": "On or near Parking Area"}, "longitude": "-1.147141"}, "context": "", "outcome_status": null, "persistent_id": "", "id": 125470467, "location_subtype": "", "month": "2024-12"}, {"category": "anti-social-behaviour", "location_type": "Force", "location": {"latitude": "52.949344", "street": {"id": 2247084, "name": "On or near Parking Area"}, "longitude": "-1.147141"}, "context": "", "outcome_status": null, "persistent_id": "", "id": 125470478, "location_subtype": "", "month": "2024-12"}, {"category": "anti-social-behaviour", "location_type": "Force", "location": {"latitude": "52.939463", "street": {"id": 2246647, "name": "On or near Sandays Close"}, "longitude": "-1.151963"}, "context": "", "outcome_status": null, "persistent_id": "", "id": 125470477, "location_subtype": "", "month": "2024-12"}, {"category": "anti-social-behaviour", "location_type": "Force", "location": {"latitude": "52.953688", "street": {"id": 2247042, "name": "On or near High Street"}, "longitude": "-1.147502"}, "context": "", "outcome_status": null, "persistent_id": "", "id": 125470476, "location_subtype": "", "month": "2024-12"}, {"category": "anti-social-behaviour", "location_type": "Force", "location": {"latitude": "52.952604", "street": {"id": 2247032, "name": "On or near Bank Place"}, "longitude": "-1.148059"}, "context": "", "outcome_status": null, "persistent_id": "", "id": 125470473, "location_subtype": "", "month": "2024-12"}, {"category": "anti-social-behaviour", "location_type": "Force", "location": {"latitude": "52.952881", "street": {"id": 2246779, "name": "On or near Bus/coach Station"}, "longitude": "-1.150256"}, "context": "", "outcome_status": null, "persistent_id": "", "id": 125470472, "location_subtype": "", "month": "2024-12"}, {"category": "anti-social-behaviour", "location_type": "Force", "location": {"latitude": "52.949344", "street": {"id": 2247084, "name": "On or near Parking Area"}, "longitude": "-1.147141"}, "context": "", "outcome_status": null, "persistent_id": "", "id": 125470487, "location_subtype": "", "month": "2024-12"}, {"category": "anti-social-behaviour", "location_type": "Force", "location": {"latitude": "52.954374", "street": {"id": 2246431, "name": "On or near Theme/adventure Park"}, "longitude": "-1.154231"}, "context": "", "outcome_status": null, "persistent_id": "", "id": 125470486, "location_subtype": "", "month": "2024-12"}, {"category": "anti-social-behaviour", "location_type": "Force", "location": {"latitude": "52.952312", "street": {"id": 2247367, "name": "On or near Parking Area"}, "longitude": "-1.143644"}, "context": "", "outcome_status": null, "persistent_id": "", "id": 125470506, "location_subtype": "", "month": "2024-12"}, {"category": "anti-social-behaviour", "location_type": "Force", "location": {"latitude": "52.961821", "street": {"id": 2246756, "name": "On or near Frogmore Street"}, "longitude": "-1.150930"}, "context": "", "outcome_status": null, "persistent_id": "", "id": 125470505, "location_subtype": "", "month": "2024-12"}, {"category": "anti-social-behaviour", "location_type": "Force", "location": {"latitude": "52.951894", "street": {"id": 2246676, "name": "On or near Spaniel Row"}, "longitude": "-1.151749"}, "context": "", "outcome_status": null, "persistent_id": "", "id": 125470540, "location_subtype": "", "month": "2024-12"}, {"category": "anti-social-behaviour", "location_type": "Force", "location": {"latitude": "52.955036", "street": {"id": 2247654, "name": "On or near Bedford Row"}, "longitude": "-1.138708"}, "context": "", "outcome_status": null, "persistent_id": "", "id": 125470548, "location_subtype": "", "month": "2024-12"}, {"category": "anti-social-behaviour", "location_type": "Force", "location": {"latitude": "52.953842", "street": {"id": 2246586, "name": "On or near Angel Row"}, "longitude": "-1.152649"}, "context": "", "outcome_status": null, "persistent_id": "", "id": 125470575, "location_subtype": "", "month": "2024-12"}, {"category": "anti-social-behaviour", "location_type": "Force", "location": {"latitude": "52.962746", "street": {"id": 2247773, "name": "On or near Livingstone Road"}, "longitude": "-1.137096"}, "context": "", "outcome_status": null, "persistent_id": "", "id": 125470579, "location_subtype": "", "month": "2024-12"}, {"category": "anti-social-behaviour", "location_type": "Force", "location": {"latitude": "52.949344", "street": {"id": 2247084, "name": "On or near Parking Area"}, "longitude": "-1.147141"}, "context": "", "outcome_status": null, "persistent_id": "", "id": 125470588, "location_subtype": "", "month": "2024-12"}, {"category": "anti-social-behaviour", "location_type": "Force", "location": {"latitude": "52.953688", "street": {"id": 2247042, "name": "On or near High Street"}, "longitude": "-1.147502"}, "context": "", "outcome_status": null, "persistent_id": "", "id": 125470620, "location_subtype": "", "month": "2024-12"}, {"category": "anti-social-behaviour", "location_type": "Force", "location": {"latitude": "52.952315", "street": {"id": 2247176, "name": "On or near Parking Area"}, "longitude": "-1.145371"}, "context": "", "outcome_status": null, "persistent_id": "", "id": 125470618, "location_subtype": "", "month": "2024-12"}, {"category": "anti-social-behaviour", "location_type": "Force", "location": {"latitude": "52.958241", "street": {"id": 2247177, "name": "On or near Supermarket"}, "longitude": "-1.145611"}, "context": "", "outcome_status": null, "persistent_id": "", "id": 125470643, "location_subtype": "", "month": "2024-12"}, {"category": "anti-social-behaviour", "location_type": "Force", "location": {"latitude": "52.950178", "street": {"id": 2246607, "name": "On or near Further/higher Educational Building"}, "longitude": "-1.152006"}, "context": "", "outcome_status": null, "persistent_id": "", "id": 125470663, "location_subtype": "", "month": "2024-12"}, {"category": "anti-social-behaviour", "location_type": "Force", "location": {"latitude": "52.963385", "street": {"id": 2246048, "name": "On or near Balmoral Road"}, "longitude": "-1.158537"}, "context": "", "outcome_status": null, "persistent_id": "", "id": 125470708, "location_subtype": "", "month": "2024-12"}, {"category": "anti-social-behaviour", "location_type": "Force", "location": {"latitude": "52.952312", "street": {"id": 2247367, "name": "On or near Parking Area"}, "longitude": "-1.143644"}, "context": "", "outcome_status": null, "persistent_id": "", "id": 125470715, "location_subtype": "", "month": "2024-12"}, {"category": "anti-social-behaviour", "location_type": "Force", "location": {"latitude": "52.961542", "street": {"id": 2247747, "name": "On or near St Ann's Well Road"}, "longitude": "-1.137134"}, "context": "", "outcome_status": null, "persistent_id": "", "id": 125470788, "location_subtype": "", "month": "2024-12"}, {"category": "anti-social-behaviour", "location_type": "Force", "location": {"latitude": "52.952776", "street": {"id": 2247173, "name": "On or near Fletcher Gate"}, "longitude": "-1.145615"}, "context": "", "outcome_status": null, "persistent_id": "", "id": 125470812, "location_subtype": "", "month": "2024-12"}, {"category": "anti-social-behaviour", "location_type": "Force", "location": {"latitude": "52.949344", "street": {"id": 2247084, "name": "On or near Parking Area"}, "longitude": "-1.147141"}, "context": "", "outcome_status": null, "persistent_id": "", "id": 125470853, "location_subtype": "", "month": "2024-12"}, {"category": "anti-social-behaviour", "location_type": "Force", "location": {"latitude": "52.953842", "street": {"id": 2246586, "name": "On or near Angel Row"}, "longitude": "-1.152649"}, "context": "", "outcome_status": null, "persistent_id": "", "id": 125470895, "location_subtype": "", "month": "2024-12"}, {"category": "anti-social-behaviour", "location_type": "Force", "location": {"latitude": "52.949430", "street": {"id": 2247384, "name": "On or near Parking Area"}, "longitude": "-1.141647"}, "context": "", "outcome_status": null, "persistent_id": "", "id": 125470915, "location_subtype": "", "month": "2024-12"}, {"category": "anti-social-behaviour", "location_type": "Force", "location": {"latitude": "52.948198", "street": {"id": 2247204, "name": "On or near Trent Street"}, "longitude": "-1.145333"}, "context": "", "outcome_status": null, "persistent_id": "", "id": 125470940, "location_subtype": "", "month": "2024-12"}, {"category": "anti-social-behaviour", "location_type": "Force", "location": {"latitude": "52.948987", "street": {"id": 2245274, "name": "On or near Allington Avenue"}, "longitude": "-1.170381"}, "context": "", "outcome_status": null, "persistent_id": "", "id": 125470970, "location_subtype": "", "month": "2024-12"}, {"category": "anti-social-behaviour", "location_type": "Force", "location": {"latitude": "52.958579", "street": {"id": 2247244, "name": "On or near Parking Area"}, "longitude": "-1.145143"}, "context": "", "outcome_status": null, "persistent_id": "", "id": 125471039, "location_subtype": "", "month": "2024-12"}, {"category": "anti-social-behaviour", "location_type": "Force", "location": {"latitude": "52.954851", "street": {"id": 2247497, "name": "On or near Nightclub"}, "longitude": "-1.141689"}, "context": "", "outcome_status": null, "persistent_id": "", "id": 125470557, "location_subtype": "", "month": "2024-12"}, {"category": "anti-social-behaviour", "location_type": "Force", "location": {"latitude": "52.943245", "street": {"id": 2246817, "name": "On or near Park/open Space"}, "longitude": "-1.150445"}, "context": "", "outcome_status": null, "persistent_id": "", "id": 125472002, "location_subtype": "", "month": "2024-12"}, {"category": "anti-social-behaviour", "location_type": "Force", "location": {"latitude": "52.950001", "street": {"id": 2247068, "name": "On or near Shopping Area"}, "longitude": "-1.147292"}, "context": "", "outcome_status": null, "persistent_id": "", "id": 125471983, "location_subtype": "", "month": "2024-12"}, {"category": "anti-social-behaviour", "location_type": "Force", "location": {"latitude": "52.950001", "street": {"id": 2247068, "name": "On or near Shopping Area"}, "longitude": "-1.147292"}, "context": "", "outcome_status": null, "persistent_id": "", "id": 125471984, "location_subtype": "", "month": "2024-12"}, {"category": "anti-social-behaviour", "location_type": "Force", "location": {"latitude": "52.950001", "street": {"id": 2247068, "name": "On or near Shopping Area"}, "longitude": "-1.147292"}, "context": "", "outcome_status": null, "persistent_id": "", "id": 125471985, "location_subtype": "", "month": "2024-12"}, {"category": "anti-social-behaviour", "location_type": "Force", "location": {"latitude": "52.952315", "street": {"id": 2247176, "name": "On or near Parking Area"}, "longitude": "-1.145371"}, "context": "", "outcome_status": null, "persistent_id": "", "id": 125472026, "location_subtype": "", "month": "2024-12"}, {"category": "anti-social-behaviour", "location_type": "Force", "location": {"latitude": "52.955231", "street": {"id": 2245397, "name": "On or near Douglas Road"}, "longitude": "-1.168549"}, "context": "", "outcome_status": null, "persistent_id": "", "id": 125472021, "location_subtype": "", "month": "2024-12"}, {"category": "anti-social-behaviour", "location_type": "Force", "location": {"latitude": "52.949736", "street": {"id": 2247122, "name": "On or near A6008"}, "longitude": "-1.146672"}, "context": "", "outcome_status": null, "persistent_id": "", "id": 125471961, "location_subtype": "", "month": "2024-12"}, {"category": "anti-social-behaviour", "location_type": "Force", "location": {"latitude": "52.956563", "street": {"id": 2247074, "name": "On or near Parking Area"}, "longitude": "-1.147326"}, "context": "", "outcome_status": null, "persistent_id": "", "id": 125472013, "location_subtype": "", "month": "2024-12"}, {"category": "anti-social-behaviour", "location_type": "Force", "location": {"latitude": "52.941178", "street": {"id": 2246557, "name": "On or near Helvellyn Close"}, "longitude": "-1.152986"}, "context": "", "outcome_status": null, "persistent_id": "", "id": 125470558, "location_subtype": "", "month": "2024-12"}, {"category": "anti-social-behaviour", "location_type": "Force", "location": {"latitude": "52.957733", "street": {"id": 2247107, "name": "On or near St Ann's Street"}, "longitude": "-1.146217"}, "context": "", "outcome_status": null, "persistent_id": "", "id": 125470400, "location_subtype": "", "month": "2024-12"}, {"category": "anti-social-behaviour", "location_type": "Force", "location": {"latitude": "52.952953", "street": {"id": 2247097, "name": "On or near Bottle Lane"}, "longitude": "-1.146489"}, "context": "", "outcome_status": null, "persistent_id": "", "id": 125470560, "location_subtype": "", "month": "2024-12"}, {"category": "anti-social-behaviour", "location_type": "Force", "location": {"latitude": "52.942292", "street": {"id": 2247459, "name": "On or near St Saviour's Gardens"}, "longitude": "-1.141639"}, "context": "", "outcome_status": null, "persistent_id": "", "id": 125470568, "location_subtype": "", "month": "2024-12"}, {"category": "anti-social-behaviour", "location_type": "Force", "location": {"latitude": "52.949344", "street": {"id": 2247084, "name": "On or near Parking Area"}, "longitude": "-1.147141"}, "context": "", "outcome_status": null, "persistent_id": "", "id": 125470582, "location_subtype": "", "month": "2024-12"}, {"category": "anti-social-behaviour", "location_type": "Force", "location": {"latitude": "52.958737", "street": {"id": 2247051, "name": "On or near Cairns Street"}, "longitude": "-1.147075"}, "context": "", "outcome_status": null, "persistent_id": "", "id": 125470586, "location_subtype": "", "month": "2024-12"}, {"category": "anti-social-behaviour", "location_type": "Force", "location": {"latitude": "52.947981", "street": {"id": 2246953, "name": "On or near Carrington Street"}, "longitude": "-1.147614"}, "context": "", "outcome_status": null, "persistent_id": "", "id": 125470634, "location_subtype": "", "month": "2024-12"}, {"category": "anti-social-behaviour", "location_type": "Force", "location": {"latitude": "52.953599", "street": {"id": 2247337, "name": "On or near Carlton Street"}, "longitude": "-1.143842"}, "context": "", "outcome_status": null, "persistent_id": "", "id": 125470649, "location_subtype": "", "month": "2024-12"}, {"category": "anti-social-behaviour", "location_type": "Force", "location": {"latitude": "52.949430", "street": {"id": 2247384, "name": "On or near Parking Area"}, "longitude": "-1.141647"}, "context": "", "outcome_status": null, "persistent_id": "", "id": 125470664, "location_subtype": "", "month": "2024-12"}, {"category": "anti-social-behaviour", "location_type": "Force", "location": {"latitude": "52.953648", "street": {"id": 2246876, "name": "On or near Long Row"}, "longitude": "-1.149438"}, "context": "", "outcome_status": null, "persistent_id": "", "id": 125470667, "location_subtype": "", "month": "2024-12"}, {"category": "anti-social-behaviour", "location_type": "Force", "location": {"latitude": "52.947913", "street": {"id": 2246219, "name": "On or near Palatine Street"}, "longitude": "-1.157096"}, "context": "", "outcome_status": null, "persistent_id": "", "id": 125470646, "location_subtype": "", "month": "2024-12"}, {"category": "anti-social-behaviour", "location_type": "Force", "location": {"latitude": "52.940057", "street": {"id": 2246996, "name": "On or near Barnsley Terrace"}, "longitude": "-1.148380"}, "context": "", "outcome_status": null, "persistent_id": "", "id": 125470687, "location_subtype": "", "month": "2024-12"}, {"category": "anti-social-behaviour", "location_type": "Force", "location": {"latitude": "52.956194", "street": {"id": 2246946, "name": "On or near Milton Street"}, "longitude": "-1.148390"}, "context": "", "outcome_status": null, "persistent_id": "", "id": 125470690, "location_subtype": "", "month": "2024-12"}, {"category": "anti-social-behaviour", "location_type": "Force", "location": {"latitude": "52.953625", "street": {"id": 2247148, "name": "On or near Pelham Street"}, "longitude": "-1.146238"}, "context": "", "outcome_status": null, "persistent_id": "", "id": 125470693, "location_subtype": "", "month": "2024-12"}, {"category": "anti-social-behaviour", "location_type": "Force", "location": {"latitude": "52.949430", "street": {"id": 2247384, "name": "On or near Parking Area"}, "longitude": "-1.141647"}, "context": "", "outcome_status": null, "persistent_id": "", "id": 125470707, "location_subtype": "", "month": "2024-12"}, {"category": "anti-social-behaviour", "location_type": "Force", "location": {"latitude": "52.953688", "street": {"id": 2247042, "name": "On or near High Street"}, "longitude": "-1.147502"}, "context": "", "outcome_status": null, "persistent_id": "", "id": 125470726, "location_subtype": "", "month": "2024-12"}, {"category": "anti-social-behaviour", "location_type": "Force", "location": {"latitude": "52.961195", "street": {"id": 2245539, "name": "On or near Forest Road West"}, "longitude": "-1.165338"}, "context": "", "outcome_status": null, "persistent_id": "", "id": 125470391, "location_subtype": "", "month": "2024-12"}, {"category": "anti-social-behaviour", "location_type": "Force", "location": {"latitude": "52.939405", "street": {"id": 2247121, "name": "On or near Beauvale Road"}, "longitude": "-1.146428"}, "context": "", "outcome_status": null, "persistent_id": "", "id": 125470727, "location_subtype": "", "month": "2024-12"}, {"category": "anti-social-behaviour", "location_type": "Force", "location": {"latitude": "52.958579", "street": {"id": 2247244, "name": "On or near Parking Area"}, "longitude": "-1.145143"}, "context": "", "outcome_status": null, "persistent_id": "", "id": 125470729, "location_subtype": "", "month": "2024-12"}, {"category": "anti-social-behaviour", "location_type": "Force", "location": {"latitude": "52.959178", "street": {"id": 2247072, "name": "On or near Watkin Street"}, "longitude": "-1.147141"}, "context": "", "outcome_status": null, "persistent_id": "", "id": 125470735, "location_subtype": "", "month": "2024-12"}, {"category": "anti-social-behaviour", "location_type": "Force", "location": {"latitude": "52.961813", "street": {"id": 2245302, "name": "On or near Aspley Place"}, "longitude": "-1.170120"}, "context": "", "outcome_status": null, "persistent_id": "", "id": 125470740, "location_subtype": "", "month": "2024-12"}, {"category": "anti-social-behaviour", "location_type": "Force", "location": {"latitude": "52.960943", "street": {"id": 2245368, "name": "On or near Peveril Street"}, "longitude": "-1.169095"}, "context": "", "outcome_status": null, "persistent_id": "", "id": 125470441, "location_subtype": "", "month": "2024-12"}, {"category": "anti-social-behaviour", "location_type": "Force", "location": {"latitude": "52.949344", "street": {"id": 2247084, "name": "On or near Parking Area"}, "longitude": "-1.147141"}, "context": "", "outcome_status": null, "persistent_id": "", "id": 125470500, "location_subtype": "", "month": "2024-12"}, {"category": "anti-social-behaviour", "location_type": "Force", "location": {"latitude": "52.955069", "street": {"id": 2247071, "name": "On or near Clinton Street West"}, "longitude": "-1.147013"}, "context": "", "outcome_status": null, "persistent_id": "", "id": 125470641, "location_subtype": "", "month": "2024-12"}, {"category": "anti-social-behaviour", "location_type": "Force", "location": {"latitude": "52.956563", "street": {"id": 2247074, "name": "On or near Parking Area"}, "longitude": "-1.147326"}, "context": "", "outcome_status": null, "persistent_id": "", "id": 125470647, "location_subtype": "", "month": "2024-12"}, {"category": "anti-social-behaviour", "location_type": "Force", "location": {"latitude": "52.949430", "street": {"id": 2247384, "name": "On or near Parking Area"}, "longitude": "-1.141647"}, "context": "", "outcome_status": null, "persistent_id": "", "id": 125470878, "location_subtype": "", "month": "2024-12"}, {"category": "anti-social-behaviour", "location_type": "Force", "location": {"latitude": "52.954458", "street": {"id": 2246670, "name": "On or near Parking Area"}, "longitude": "-1.152056"}, "context": "", "outcome_status": null, "persistent_id": "", "id": 125470888, "location_subtype": "", "month": "2024-12"}, {"category": "anti-social-behaviour", "location_type": "Force", "location": {"latitude": "52.960596", "street": {"id": 2245969, "name": "On or near Montgomery Street"}, "longitude": "-1.160720"}, "context": "", "outcome_status": null, "persistent_id": "", "id": 125470995, "location_subtype": "", "month": "2024-12"}, {"category": "anti-social-behaviour", "location_type": "Force", "location": {"latitude": "52.955036", "street": {"id": 2247654, "name": "On or near Bedford Row"}, "longitude": "-1.138708"}, "context": "", "outcome_status": null, "persistent_id": "", "id": 125471002, "location_subtype": "", "month": "2024-12"}, {"category": "anti-social-behaviour", "location_type": "Force", "location": {"latitude": "52.953179", "street": {"id": 2246892, "name": "On or near South Parade"}, "longitude": "-1.149253"}, "context": "", "outcome_status": null, "persistent_id": "", "id": 125471018, "location_subtype": "", "month": "2024-12"}, {"category": "anti-social-behaviour", "location_type": "Force", "location": {"latitude": "52.949344", "street": {"id": 2247084, "name": "On or near Parking Area"}, "longitude": "-1.147141"}, "context": "", "outcome_status": null, "persistent_id": "", "id": 125471051, "location_subtype": "", "month": "2024-12"}, {"category": "anti-social-behaviour", "location_type": "Force", "location": {"latitude": "52.958523", "street": {"id": 2248111, "name": "On or near Magson Close"}, "longitude": "-1.131180"}, "context": "", "outcome_status": null, "persistent_id": "", "id": 125471066, "location_subtype": "", "month": "2024-12"}, {"category": "anti-social-behaviour", "location_type": "Force", "location": {"latitude": "52.958317", "street": {"id": 2246744, "name": "On or near Matlock Court"}, "longitude": "-1.151207"}, "context": "", "outcome_status": null, "persistent_id": "", "id": 125471297, "location_subtype": "", "month": "2024-12"}, {"category": "anti-social-behaviour", "location_type": "Force", "location": {"latitude": "52.957733", "street": {"id": 2247107, "name": "On or near St Ann's Street"}, "longitude": "-1.146217"}, "context": "", "outcome_status": null, "persistent_id": "", "id": 125471701, "location_subtype": "", "month": "2024-12"}, {"category": "anti-social-behaviour", "location_type": "Force", "location": {"latitude": "52.958737", "street": {"id": 2247051, "name": "On or near Cairns Street"}, "longitude": "-1.147075"}, "context": "", "outcome_status": null, "persistent_id": "", "id": 125471788, "location_subtype": "", "month": "2024-12"}, {"category": "anti-social-behaviour", "location_type": "Force", "location": {"latitude": "52.962591", "street": {"id": 2247061, "name": "On or near Alfred Close"}, "longitude": "-1.146716"}, "context": "", "outcome_status": null, "persistent_id": "", "id": 125471791, "location_subtype": "", "month": "2024-12"}, {"category": "anti-social-behaviour", "location_type": "Force", "location": {"latitude": "52.959382", "street": {"id": 2247851, "name": "On or near Dennett Close"}, "longitude": "-1.135599"}, "context": "", "outcome_status": null, "persistent_id": "", "id": 125471890, "location_subtype": "", "month": "2024-12"}, {"category": "anti-social-behaviour", "location_type": "Force", "location": {"latitude": "52.949646", "street": {"id": 2247017, "name": "On or near Collin Street"}, "longitude": "-1.147938"}, "context": "", "outcome_status": null, "persistent_id": "", "id": 125471952, "location_subtype": "", "month": "2024-12"}, {"category": "anti-social-behaviour", "location_type": "Force", "location": {"latitude": "52.949646", "street": {"id": 2247017, "name": "On or near Collin Street"}, "longitude": "-1.147938"}, "context": "", "outcome_status": null, "persistent_id": "", "id": 125471954, "location_subtype": "", "month": "2024-12"}, {"category": "anti-social-behaviour", "location_type": "Force", "location": {"latitude": "52.950001", "street": {"id": 2247068, "name": "On or near Shopping Area"}, "longitude": "-1.147292"}, "context": "", "outcome_status": null, "persistent_id": "", "id": 125471979, "location_subtype": "", "month": "2024-12"}, {"category": "anti-social-behaviour", "location_type": "Force", "location": {"latitude": "52.956030", "street": {"id": 2246804, "name": "On or near Nightclub"}, "longitude": "-1.150671"}, "context": "", "outcome_status": null, "persistent_id": "", "id": 125470382, "location_subtype": "", "month": "2024-12"}, {"category": "anti-social-behaviour", "location_type": "Force", "location": {"latitude": "52.956121", "street": {"id": 2246761, "name": "On or near Burton Street"}, "longitude": "-1.150848"}, "context": "", "outcome_status": null, "persistent_id": "", "id": 125470744, "location_subtype": "", "month": "2024-12"}, {"category": "anti-social-behaviour", "location_type": "Force", "location": {"latitude": "52.952533", "street": {"id": 2247010, "name": "On or near St Peter's Gate"}, "longitude": "-1.148135"}, "context": "", "outcome_status": null, "persistent_id": "", "id": 125470745, "location_subtype": "", "month": "2024-12"}, {"category": "anti-social-behaviour", "location_type": "Force", "location": {"latitude": "52.951845", "street": {"id": 2246503, "name": "On or near Parking Area"}, "longitude": "-1.153745"}, "context": "", "outcome_status": null, "persistent_id": "", "id": 125470756, "location_subtype": "", "month": "2024-12"}, {"category": "anti-social-behaviour", "location_type": "Force", "location": {"latitude": "52.955450", "street": {"id": 2246850, "name": "On or near Forman Street"}, "longitude": "-1.150013"}, "context": "", "outcome_status": null, "persistent_id": "", "id": 125470376, "location_subtype": "", "month": "2024-12"}, {"category": "anti-social-behaviour", "location_type": "Force", "location": {"latitude": "52.957051", "street": {"id": 2247047, "name": "On or near Shopping Area"}, "longitude": "-1.147629"}, "context": "", "outcome_status": null, "persistent_id": "", "id": 125470761, "location_subtype": "", "month": "2024-12"}, {"category": "anti-social-behaviour", "location_type": "Force", "location": {"latitude": "52.966702", "street": {"id": 2247270, "name": "On or near Plowright Street"}, "longitude": "-1.144640"}, "context": "", "outcome_status": null, "persistent_id": "", "id": 125470766, "location_subtype": "", "month": "2024-12"}, {"category": "anti-social-behaviour", "location_type": "Force", "location": {"latitude": "52.954501", "street": {"id": 2246940, "name": "On or near Maypole Yard"}, "longitude": "-1.148096"}, "context": "", "outcome_status": null, "persistent_id": "", "id": 125470778, "location_subtype": "", "month": "2024-12"}, {"category": "anti-social-behaviour", "location_type": "Force", "location": {"latitude": "52.942245", "street": {"id": 2246426, "name": "On or near Middle Furlong Gardens"}, "longitude": "-1.155137"}, "context": "", "outcome_status": null, "persistent_id": "", "id": 125470388, "location_subtype": "", "month": "2024-12"}, {"category": "anti-social-behaviour", "location_type": "Force", "location": {"latitude": "52.960546", "street": {"id": 2245243, "name": "On or near Ossington Street"}, "longitude": "-1.170293"}, "context": "", "outcome_status": null, "persistent_id": "", "id": 125470553, "location_subtype": "", "month": "2024-12"}, {"category": "anti-social-behaviour", "location_type": "Force", "location": {"latitude": "52.960546", "street": {"id": 2245243, "name": "On or near Ossington Street"}, "longitude": "-1.170293"}, "context": "", "outcome_status": null, "persistent_id": "", "id": 125470571, "location_subtype": "", "month": "2024-12"}, {"category": "anti-social-behaviour", "location_type": "Force", "location": {"latitude": "52.949344", "street": {"id": 2247084, "name": "On or near Parking Area"}, "longitude": "-1.147141"}, "context": "", "outcome_status": null, "persistent_id": "", "id": 125470574, "location_subtype": "", "month": "2024-12"}, {"category": "anti-social-behaviour", "location_type": "Force", "location": {"latitude": "52.961512", "street": {"id": 2245876, "name": "On or near Arthur Street"}, "longitude": "-1.161774"}, "context": "", "outcome_status": null, "persistent_id": "", "id": 125470790, "location_subtype": "", "month": "2024-12"}, {"category": "anti-social-behaviour", "location_type": "Force", "location": {"latitude": "52.961600", "street": {"id": 2245745, "name": "On or near Gedling Grove"}, "longitude": "-1.162815"}, "context": "", "outcome_status": null, "persistent_id": "", "id": 125470826, "location_subtype": "", "month": "2024-12"}, {"category": "anti-social-behaviour", "location_type": "Force", "location": {"latitude": "52.955282", "street": {"id": 2245891, "name": "On or near Cottage Terrace"}, "longitude": "-1.160555"}, "context": "", "outcome_status": null, "persistent_id": "", "id": 125470459, "location_subtype": "", "month": "2024-12"}, {"category": "anti-social-behaviour", "location_type": "Force", "location": {"latitude": "52.953179", "street": {"id": 2246892, "name": "On or near South Parade"}, "longitude": "-1.149253"}, "context": "", "outcome_status": null, "persistent_id": "", "id": 125470842, "location_subtype": "", "month": "2024-12"}, {"category": "anti-social-behaviour", "location_type": "Force", "location": {"latitude": "52.952466", "street": {"id": 2246836, "name": "On or near Wheeler Gate"}, "longitude": "-1.150131"}, "context": "", "outcome_status": null, "persistent_id": "", "id": 125470862, "location_subtype": "", "month": "2024-12"}, {"category": "anti-social-behaviour", "location_type": "Force", "location": {"latitude": "52.948982", "street": {"id": 2245190, "name": "On or near Maxwell Close"}, "longitude": "-1.170961"}, "context": "", "outcome_status": null, "persistent_id": "", "id": 125471287, "location_subtype": "", "month": "2024-12"}, {"category": "anti-social-behaviour", "location_type": "Force", "location": {"latitude": "52.948198", "street": {"id": 2247204, "name": "On or near Trent Street"}, "longitude": "-1.145333"}, "context": "", "outcome_status": null, "persistent_id": "", "id": 125471288, "location_subtype": "", "month": "2024-12"}, {"category": "anti-social-behaviour", "location_type": "Force", "location": {"latitude": "52.949344", "street": {"id": 2247084, "name": "On or near Parking Area"}, "longitude": "-1.147141"}, "context": "", "outcome_status": null, "persistent_id": "", "id": 125470460, "location_subtype": "", "month": "2024-12"}, {"category": "anti-social-behaviour", "location_type": "Force", "location": {"latitude": "52.941443", "street": {"id": 2246613, "name": "On or near Wetherlam Close"}, "longitude": "-1.152311"}, "context": "", "outcome_status": null, "persistent_id": "", "id": 125471310, "location_subtype": "", "month": "2024-12"}, {"category": "anti-social-behaviour", "location_type": "Force", "location": {"latitude": "52.956883", "street": {"id": 2248006, "name": "On or near Supermarket"}, "longitude": "-1.132246"}, "context": "", "outcome_status": null, "persistent_id": "", "id": 125471322, "location_subtype": "", "month": "2024-12"}, {"category": "anti-social-behaviour", "location_type": "Force", "location": {"latitude": "52.945817", "street": {"id": 2246067, "name": "On or near Parking Area"}, "longitude": "-1.159428"}, "context": "", "outcome_status": null, "persistent_id": "", "id": 125470865, "location_subtype": "", "month": "2024-12"}, {"category": "anti-social-behaviour", "location_type": "Force", "location": {"latitude": "52.961600", "street": {"id": 2245745, "name": "On or near Gedling Grove"}, "longitude": "-1.162815"}, "context": "", "outcome_status": null, "persistent_id": "", "id": 125470462, "location_subtype": "", "month": "2024-12"}, {"category": "anti-social-behaviour", "location_type": "Force", "location": {"latitude": "52.964621", "street": {"id": 2246954, "name": "On or near Cranmer Street"}, "longitude": "-1.147674"}, "context": "", "outcome_status": null, "persistent_id": "", "id": 125470866, "location_subtype": "", "month": "2024-12"}, {"category": "anti-social-behaviour", "location_type": "Force", "location": {"latitude": "52.950178", "street": {"id": 2246607, "name": "On or near Further/higher Educational Building"}, "longitude": "-1.152006"}, "context": "", "outcome_status": null, "persistent_id": "", "id": 125470868, "location_subtype": "", "month": "2024-12"}, {"category": "anti-social-behaviour", "location_type": "Force", "location": {"latitude": "52.952962", "street": {"id": 2247807, "name": "On or near Eyre Street"}, "longitude": "-1.136635"}, "context": "", "outcome_status": null, "persistent_id": "", "id": 125470876, "location_subtype": "", "month": "2024-12"}, {"category": "anti-social-behaviour", "location_type": "Force", "location": {"latitude": "52.949794", "street": {"id": 2247371, "name": "On or near Shortwood Close"}, "longitude": "-1.143485"}, "context": "", "outcome_status": null, "persistent_id": "", "id": 125470905, "location_subtype": "", "month": "2024-12"}, {"category": "anti-social-behaviour", "location_type": "Force", "location": {"latitude": "52.954733", "street": {"id": 2246846, "name": "On or near Queen Street"}, "longitude": "-1.150250"}, "context": "", "outcome_status": null, "persistent_id": "", "id": 125470918, "location_subtype": "", "month": "2024-12"}, {"category": "anti-social-behaviour", "location_type": "Force", "location": {"latitude": "52.953842", "street": {"id": 2246586, "name": "On or near Angel Row"}, "longitude": "-1.152649"}, "context": "", "outcome_status": null, "persistent_id": "", "id": 125470921, "location_subtype": "", "month": "2024-12"}, {"category": "anti-social-behaviour", "location_type": "Force", "location": {"latitude": "52.955069", "street": {"id": 2247071, "name": "On or near Clinton Street West"}, "longitude": "-1.147013"}, "context": "", "outcome_status": null, "persistent_id": "", "id": 125470936, "location_subtype": "", "month": "2024-12"}, {"category": "anti-social-behaviour", "location_type": "Force", "location": {"latitude": "52.953792", "street": {"id": 2247095, "name": "On or near Nightclub"}, "longitude": "-1.146979"}, "context": "", "outcome_status": null, "persistent_id": "", "id": 125470951, "location_subtype": "", "month": "2024-12"}, {"category": "anti-social-behaviour", "location_type": "Force", "location": {"latitude": "52.955287", "street": {"id": 2247452, "name": "On or near Petrol Station"}, "longitude": "-1.142275"}, "context": "", "outcome_status": null, "persistent_id": "", "id": 125470965, "location_subtype": "", "month": "2024-12"}, {"category": "anti-social-behaviour", "location_type": "Force", "location": {"latitude": "52.946983", "street": {"id": 2247110, "name": "On or near Nottingham"}, "longitude": "-1.146369"}, "context": "", "outcome_status": null, "persistent_id": "", "id": 125470966, "location_subtype": "", "month": "2024-12"}, {"category": "anti-social-behaviour", "location_type": "Force", "location": {"latitude": "52.956000", "street": {"id": 2247039, "name": "On or near Shopping Area"}, "longitude": "-1.147709"}, "context": "", "outcome_status": null, "persistent_id": "", "id": 125470980, "location_subtype": "", "month": "2024-12"}, {"category": "anti-social-behaviour", "location_type": "Force", "location": {"latitude": "52.953688", "street": {"id": 2247042, "name": "On or near High Street"}, "longitude": "-1.147502"}, "context": "", "outcome_status": null, "persistent_id": "", "id": 125470464, "location_subtype": "", "month": "2024-12"}, {"category": "anti-social-behaviour", "location_type": "Force", "location": {"latitude": "52.949344", "street": {"id": 2247084, "name": "On or near Parking Area"}, "longitude": "-1.147141"}, "context": "", "outcome_status": null, "persistent_id": "", "id": 125470418, "location_subtype": "", "month": "2024-12"}, {"category": "anti-social-behaviour", "location_type": "Force", "location": {"latitude": "52.945831", "street": {"id": 2247446, "name": "On or near Summer Leys Lane"}, "longitude": "-1.142522"}, "context": "", "outcome_status": null, "persistent_id": "", "id": 125470984, "location_subtype": "", "month": "2024-12"}, {"category": "anti-social-behaviour", "location_type": "Force", "location": {"latitude": "52.947981", "street": {"id": 2246953, "name": "On or near Carrington Street"}, "longitude": "-1.147614"}, "context": "", "outcome_status": null, "persistent_id": "", "id": 125470999, "location_subtype": "", "month": "2024-12"}, {"category": "anti-social-behaviour", "location_type": "Force", "location": {"latitude": "52.956994", "street": {"id": 2246183, "name": "On or near Clarendon Street"}, "longitude": "-1.157262"}, "context": "", "outcome_status": null, "persistent_id": "", "id": 125471013, "location_subtype": "", "month": "2024-12"}, {"category": "anti-social-behaviour", "location_type": "Force", "location": {"latitude": "52.955582", "street": {"id": 2246343, "name": "On or near Hanley Street"}, "longitude": "-1.154714"}, "context": "", "outcome_status": null, "persistent_id": "", "id": 125470481, "location_subtype": "", "month": "2024-12"}, {"category": "anti-social-behaviour", "location_type": "Force", "location": {"latitude": "52.947783", "street": {"id": 2247354, "name": "On or near Station Street"}, "longitude": "-1.143823"}, "context": "", "outcome_status": null, "persistent_id": "", "id": 125470604, "location_subtype": "", "month": "2024-12"}, {"category": "anti-social-behaviour", "location_type": "Force", "location": {"latitude": "52.956563", "street": {"id": 2247074, "name": "On or near Parking Area"}, "longitude": "-1.147326"}, "context": "", "outcome_status": null, "persistent_id": "", "id": 125471035, "location_subtype": "", "month": "2024-12"}, {"category": "anti-social-behaviour", "location_type": "Force", "location": {"latitude": "52.948796", "street": {"id": 2247777, "name": "On or near Sneinton Hermitage"}, "longitude": "-1.133533"}, "context": "", "outcome_status": null, "persistent_id": "", "id": 125471047, "location_subtype": "", "month": "2024-12"}, {"category": "anti-social-behaviour", "location_type": "Force", "location": {"latitude": "52.948275", "street": {"id": 2246366, "name": "On or near Wharf Road"}, "longitude": "-1.154916"}, "context": "", "outcome_status": null, "persistent_id": "", "id": 125471073, "location_subtype": "", "month": "2024-12"}, {"category": "anti-social-behaviour", "location_type": "Force", "location": {"latitude": "52.957721", "street": {"id": 2247219, "name": "On or near St Marks Street"}, "longitude": "-1.144564"}, "context": "", "outcome_status": null, "persistent_id": "", "id": 125470482, "location_subtype": "", "month": "2024-12"}, {"category": "anti-social-behaviour", "location_type": "Force", "location": {"latitude": "52.948198", "street": {"id": 2247204, "name": "On or near Trent Street"}, "longitude": "-1.145333"}, "context": "", "outcome_status": null, "persistent_id": "", "id": 125471074, "location_subtype": "", "month": "2024-12"}, {"category": "anti-social-behaviour", "location_type": "Force", "location": {"latitude": "52.958737", "street": {"id": 2247051, "name": "On or near Cairns Street"}, "longitude": "-1.147075"}, "context": "", "outcome_status": null, "persistent_id": "", "id": 125470489, "location_subtype": "", "month": "2024-12"}, {"category": "anti-social-behaviour", "location_type": "Force", "location": {"latitude": "52.950178", "street": {"id": 2246607, "name": "On or near Further/higher Educational Building"}, "longitude": "-1.152006"}, "context": "", "outcome_status": null, "persistent_id": "", "id": 125470417, "location_subtype": "", "month": "2024-12"}, {"category": "anti-social-behaviour", "location_type": "Force", "location": {"latitude": "52.954374", "street": {"id": 2246431, "name": "On or near Theme/adventure Park"}, "longitude": "-1.154231"}, "context": "", "outcome_status": null, "persistent_id": "", "id": 125471076, "location_subtype": "", "month": "2024-12"}, {"category": "anti-social-behaviour", "location_type": "Force", "location": {"latitude": "52.943670", "street": {"id": 2246566, "name": "On or near St George's Drive"}, "longitude": "-1.153220"}, "context": "", "outcome_status": null, "persistent_id": "", "id": 125471081, "location_subtype": "", "month": "2024-12"}, {"category": "anti-social-behaviour", "location_type": "Force", "location": {"latitude": "52.956883", "street": {"id": 2248006, "name": "On or near Supermarket"}, "longitude": "-1.132246"}, "context": "", "outcome_status": null, "persistent_id": "", "id": 125471550, "location_subtype": "", "month": "2024-12"}, {"category": "anti-social-behaviour", "location_type": "Force", "location": {"latitude": "52.954311", "street": {"id": 2247128, "name": "On or near Thurland Street"}, "longitude": "-1.146626"}, "context": "", "outcome_status": null, "persistent_id": "", "id": 125471553, "location_subtype": "", "month": "2024-12"}, {"category": "anti-social-behaviour", "location_type": "Force", "location": {"latitude": "52.955491", "street": {"id": 2247144, "name": "On or near Clare Street"}, "longitude": "-1.145725"}, "context": "", "outcome_status": null, "persistent_id": "", "id": 125471581, "location_subtype": "", "month": "2024-12"}, {"category": "anti-social-behaviour", "location_type": "Force", "location": {"latitude": "52.958438", "street": {"id": 2248166, "name": "On or near Woodhouse Street"}, "longitude": "-1.129366"}, "context": "", "outcome_status": null, "persistent_id": "", "id": 125471126, "location_subtype": "", "month": "2024-12"}, {"category": "anti-social-behaviour", "location_type": "Force", "location": {"latitude": "52.956883", "street": {"id": 2248006, "name": "On or near Supermarket"}, "longitude": "-1.132246"}, "context": "", "outcome_status": null, "persistent_id": "", "id": 125471133, "location_subtype": "", "month": "2024-12"}, {"category": "anti-social-behaviour", "location_type": "Force", "location": {"latitude": "52.953599", "street": {"id": 2247337, "name": "On or near Carlton Street"}, "longitude": "-1.143842"}, "context": "", "outcome_status": null, "persistent_id": "", "id": 125471189, "location_subtype": "", "month": "2024-12"}, {"category": "anti-social-behaviour", "location_type": "Force", "location": {"latitude": "52.958737", "street": {"id": 2247051, "name": "On or near Cairns Street"}, "longitude": "-1.147075"}, "context": "", "outcome_status": null, "persistent_id": "", "id": 125471206, "location_subtype": "", "month": "2024-12"}, {"category": "anti-social-behaviour", "location_type": "Force", "location": {"latitude": "52.952881", "street": {"id": 2246779, "name": "On or near Bus/coach Station"}, "longitude": "-1.150256"}, "context": "", "outcome_status": null, "persistent_id": "", "id": 125471148, "location_subtype": "", "month": "2024-12"}, {"category": "anti-social-behaviour", "location_type": "Force", "location": {"latitude": "52.959742", "street": {"id": 2245315, "name": "On or near Independent Street"}, "longitude": "-1.169594"}, "context": "", "outcome_status": null, "persistent_id": "", "id": 125471207, "location_subtype": "", "month": "2024-12"}, {"category": "anti-social-behaviour", "location_type": "Force", "location": {"latitude": "52.954237", "street": {"id": 2247424, "name": "On or near Brightmoor Street"}, "longitude": "-1.142519"}, "context": "", "outcome_status": null, "persistent_id": "", "id": 125471226, "location_subtype": "", "month": "2024-12"}, {"category": "anti-social-behaviour", "location_type": "Force", "location": {"latitude": "52.959611", "street": {"id": 2245454, "name": "On or near Sunbourne Court"}, "longitude": "-1.167632"}, "context": "", "outcome_status": null, "persistent_id": "", "id": 125471228, "location_subtype": "", "month": "2024-12"}, {"category": "anti-social-behaviour", "location_type": "Force", "location": {"latitude": "52.955069", "street": {"id": 2247071, "name": "On or near Clinton Street West"}, "longitude": "-1.147013"}, "context": "", "outcome_status": null, "persistent_id": "", "id": 125471240, "location_subtype": "", "month": "2024-12"}, {"category": "anti-social-behaviour", "location_type": "Force", "location": {"latitude": "52.964721", "street": {"id": 2247218, "name": "On or near Raglan Close"}, "longitude": "-1.144188"}, "context": "", "outcome_status": null, "persistent_id": "", "id": 125471246, "location_subtype": "", "month": "2024-12"}, {"category": "anti-social-behaviour", "location_type": "Force", "location": {"latitude": "52.955069", "street": {"id": 2247071, "name": "On or near Clinton Street West"}, "longitude": "-1.147013"}, "context": "", "outcome_status": null, "persistent_id": "", "id": 125470490, "location_subtype": "", "month": "2024-12"}, {"category": "anti-social-behaviour", "location_type": "Force", "location": {"latitude": "52.958579", "street": {"id": 2247244, "name": "On or near Parking Area"}, "longitude": "-1.145143"}, "context": "", "outcome_status": null, "persistent_id": "", "id": 125470491, "location_subtype": "", "month": "2024-12"}, {"category": "anti-social-behaviour", "location_type": "Force", "location": {"latitude": "52.948198", "street": {"id": 2247204, "name": "On or near Trent Street"}, "longitude": "-1.145333"}, "context": "", "outcome_status": null, "persistent_id": "", "id": 125471253, "location_subtype": "", "month": "2024-12"}, {"category": "anti-social-behaviour", "location_type": "Force", "location": {"latitude": "52.956010", "street": {"id": 2246313, "name": "On or near Talbot Street"}, "longitude": "-1.156700"}, "context": "", "outcome_status": null, "persistent_id": "", "id": 125471261, "location_subtype": "", "month": "2024-12"}, {"category": "anti-social-behaviour", "location_type": "Force", "location": {"latitude": "52.952636", "street": {"id": 2247240, "name": "On or near St Mary's Place"}, "longitude": "-1.144947"}, "context": "", "outcome_status": null, "persistent_id": "", "id": 125471271, "location_subtype": "", "month": "2024-12"}, {"category": "anti-social-behaviour", "location_type": "Force", "location": {"latitude": "52.955450", "street": {"id": 2246850, "name": "On or near Forman Street"}, "longitude": "-1.150013"}, "context": "", "outcome_status": null, "persistent_id": "", "id": 125471276, "location_subtype": "", "month": "2024-12"}, {"category": "anti-social-behaviour", "location_type": "Force", "location": {"latitude": "52.954104", "street": {"id": 2245027, "name": "On or near Ashburnham Avenue"}, "longitude": "-1.173289"}, "context": "", "outcome_status": null, "persistent_id": "", "id": 125470292, "location_subtype": "", "month": "2024-12"}, {"category": "anti-social-behaviour", "location_type": "Force", "location": {"latitude": "52.954562", "street": {"id": 2247344, "name": "On or near Western Street"}, "longitude": "-1.144046"}, "context": "", "outcome_status": null, "persistent_id": "", "id": 125471277, "location_subtype": "", "month": "2024-12"}, {"category": "anti-social-behaviour", "location_type": "Force", "location": {"latitude": "52.952315", "street": {"id": 2247176, "name": "On or near Parking Area"}, "longitude": "-1.145371"}, "context": "", "outcome_status": null, "persistent_id": "", "id": 125471805, "location_subtype": "", "month": "2024-12"}, {"category": "anti-social-behaviour", "location_type": "Force", "location": {"latitude": "52.949344", "street": {"id": 2247084, "name": "On or near Parking Area"}, "longitude": "-1.147141"}, "context": "", "outcome_status": null, "persistent_id": "", "id": 125471806, "location_subtype": "", "month": "2024-12"}, {"category": "anti-social-behaviour", "location_type": "Force", "location": {"latitude": "52.958737", "street": {"id": 2247051, "name": "On or near Cairns Street"}, "longitude": "-1.147075"}, "context": "", "outcome_status": null, "persistent_id": "", "id": 125470312, "location_subtype": "", "month": "2024-12"}, {"category": "anti-social-behaviour", "location_type": "Force", "location": {"latitude": "52.946983", "street": {"id": 2247110, "name": "On or near Nottingham"}, "longitude": "-1.146369"}, "context": "", "outcome_status": null, "persistent_id": "", "id": 125471807, "location_subtype": "", "month": "2024-12"}, {"category": "anti-social-behaviour", "location_type": "Force", "location": {"latitude": "52.958706", "street": {"id": 2245052, "name": "On or near Leroy Wallace Avenue"}, "longitude": "-1.171981"}, "context": "", "outcome_status": null, "persistent_id": "", "id": 125471408, "location_subtype": "", "month": "2024-12"}, {"category": "anti-social-behaviour", "location_type": "Force", "location": {"latitude": "52.952023", "street": {"id": 2247050, "name": "On or near Bridlesmith Gate"}, "longitude": "-1.147162"}, "context": "", "outcome_status": null, "persistent_id": "", "id": 125471415, "location_subtype": "", "month": "2024-12"}, {"category": "anti-social-behaviour", "location_type": "Force", "location": {"latitude": "52.948459", "street": {"id": 2248252, "name": "On or near Lindum Grove"}, "longitude": "-1.128123"}, "context": "", "outcome_status": null, "persistent_id": "", "id": 125471421, "location_subtype": "", "month": "2024-12"}, {"category": "anti-social-behaviour", "location_type": "Force", "location": {"latitude": "52.951894", "street": {"id": 2246676, "name": "On or near Spaniel Row"}, "longitude": "-1.151749"}, "context": "", "outcome_status": null, "persistent_id": "", "id": 125470319, "location_subtype": "", "month": "2024-12"}, {"category": "anti-social-behaviour", "location_type": "Force", "location": {"latitude": "52.954374", "street": {"id": 2246431, "name": "On or near Theme/adventure Park"}, "longitude": "-1.154231"}, "context": "", "outcome_status": null, "persistent_id": "", "id": 125471439, "location_subtype": "", "month": "2024-12"}, {"category": "anti-social-behaviour", "location_type": "Force", "location": {"latitude": "52.949344", "street": {"id": 2247084, "name": "On or near Parking Area"}, "longitude": "-1.147141"}, "context": "", "outcome_status": null, "persistent_id": "", "id": 125470609, "location_subtype": "", "month": "2024-12"}, {"category": "anti-social-behaviour", "location_type": "Force", "location": {"latitude": "52.950178", "street": {"id": 2246607, "name": "On or near Further/higher Educational Building"}, "longitude": "-1.152006"}, "context": "", "outcome_status": null, "persistent_id": "", "id": 125470607, "location_subtype": "", "month": "2024-12"}, {"category": "anti-social-behaviour", "location_type": "Force", "location": {"latitude": "52.953648", "street": {"id": 2246876, "name": "On or near Long Row"}, "longitude": "-1.149438"}, "context": "", "outcome_status": null, "persistent_id": "", "id": 125470594, "location_subtype": "", "month": "2024-12"}, {"category": "anti-social-behaviour", "location_type": "Force", "location": {"latitude": "52.956030", "street": {"id": 2246804, "name": "On or near Nightclub"}, "longitude": "-1.150671"}, "context": "", "outcome_status": null, "persistent_id": "", "id": 125471452, "location_subtype": "", "month": "2024-12"}, {"category": "anti-social-behaviour", "location_type": "Force", "location": {"latitude": "52.954458", "street": {"id": 2246670, "name": "On or near Parking Area"}, "longitude": "-1.152056"}, "context": "", "outcome_status": null, "persistent_id": "", "id": 125471429, "location_subtype": "", "month": "2024-12"}, {"category": "anti-social-behaviour", "location_type": "Force", "location": {"latitude": "52.956035", "street": {"id": 2245832, "name": "On or near St Helen's Street"}, "longitude": "-1.162758"}, "context": "", "outcome_status": null, "persistent_id": "", "id": 125471482, "location_subtype": "", "month": "2024-12"}, {"category": "anti-social-behaviour", "location_type": "Force", "location": {"latitude": "52.950793", "street": {"id": 2246851, "name": "On or near Stanford Street"}, "longitude": "-1.149896"}, "context": "", "outcome_status": null, "persistent_id": "", "id": 125471430, "location_subtype": "", "month": "2024-12"}, {"category": "anti-social-behaviour", "location_type": "Force", "location": {"latitude": "52.954501", "street": {"id": 2248158, "name": "On or near Westhorpe Avenue"}, "longitude": "-1.129475"}, "context": "", "outcome_status": null, "persistent_id": "", "id": 125471584, "location_subtype": "", "month": "2024-12"}, {"category": "anti-social-behaviour", "location_type": "Force", "location": {"latitude": "52.948050", "street": {"id": 2245818, "name": "On or near Hermitage Walk"}, "longitude": "-1.162511"}, "context": "", "outcome_status": null, "persistent_id": "", "id": 125471585, "location_subtype": "", "month": "2024-12"}, {"category": "anti-social-behaviour", "location_type": "Force", "location": {"latitude": "52.964621", "street": {"id": 2246954, "name": "On or near Cranmer Street"}, "longitude": "-1.147674"}, "context": "", "outcome_status": null, "persistent_id": "", "id": 125471597, "location_subtype": "", "month": "2024-12"}, {"category": "anti-social-behaviour", "location_type": "Force", "location": {"latitude": "52.960776", "street": {"id": 2246790, "name": "On or near Nightclub"}, "longitude": "-1.150533"}, "context": "", "outcome_status": null, "persistent_id": "", "id": 125472035, "location_subtype": "", "month": "2024-12"}, {"category": "anti-social-behaviour", "location_type": "Force", "location": {"latitude": "52.953625", "street": {"id": 2247148, "name": "On or near Pelham Street"}, "longitude": "-1.146238"}, "context": "", "outcome_status": null, "persistent_id": "", "id": 125470593, "location_subtype": "", "month": "2024-12"}, {"category": "anti-social-behaviour", "location_type": "Force", "location": {"latitude": "52.942557", "street": {"id": 2247299, "name": "On or near Arkwright Walk"}, "longitude": "-1.143420"}, "context": "", "outcome_status": null, "persistent_id": "", "id": 125472037, "location_subtype": "", "month": "2024-12"}, {"category": "anti-social-behaviour", "location_type": "Force", "location": {"latitude": "52.958317", "street": {"id": 2246744, "name": "On or near Matlock Court"}, "longitude": "-1.151207"}, "context": "", "outcome_status": null, "persistent_id": "", "id": 125472040, "location_subtype": "", "month": "2024-12"}, {"category": "anti-social-behaviour", "location_type": "Force", "location": {"latitude": "52.953625", "street": {"id": 2247148, "name": "On or near Pelham Street"}, "longitude": "-1.146238"}, "context": "", "outcome_status": null, "persistent_id": "", "id": 125472044, "location_subtype": "", "month": "2024-12"}, {"category": "anti-social-behaviour", "location_type": "Force", "location": {"latitude": "52.954458", "street": {"id": 2246670, "name": "On or near Parking Area"}, "longitude": "-1.152056"}, "context": "", "outcome_status": null, "persistent_id": "", "id": 125472045, "location_subtype": "", "month": "2024-12"}, {"category": "anti-social-behaviour", "location_type": "Force", "location": {"latitude": "52.959611", "street": {"id": 2245454, "name": "On or near Sunbourne Court"}, "longitude": "-1.167632"}, "context": "", "outcome_status": null, "persistent_id": "", "id": 125472046, "location_subtype": "", "month": "2024-12"}, {"category": "anti-social-behaviour", "location_type": "Force", "location": {"latitude": "52.947981", "street": {"id": 2246953, "name": "On or near Carrington Street"}, "longitude": "-1.147614"}, "context": "", "outcome_status": null, "persistent_id": "", "id": 125472049, "location_subtype": "", "month": "2024-12"}, {"category": "anti-social-behaviour", "location_type": "Force", "location": {"latitude": "52.961934", "street": {"id": 2246534, "name": "On or near Newstead Grove"}, "longitude": "-1.152863"}, "context": "", "outcome_status": null, "persistent_id": "", "id": 125472053, "location_subtype": "", "month": "2024-12"}, {"category": "anti-social-behaviour", "location_type": "Force", "location": {"latitude": "52.957548", "street": {"id": 2248263, "name": "On or near Cardiff Street"}, "longitude": "-1.129324"}, "context": "", "outcome_status": null, "persistent_id": "", "id": 125470590, "location_subtype": "", "month": "2024-12"}, {"category": "anti-social-behaviour", "location_type": "Force", "location": {"latitude": "52.954355", "street": {"id": 2245180, "name": "On or near Rothesay Avenue"}, "longitude": "-1.171930"}, "context": "", "outcome_status": null, "persistent_id": "", "id": 125472043, "location_subtype": "", "month": "2024-12"}, {"category": "anti-social-behaviour", "location_type": "Force", "location": {"latitude": "52.958184", "street": {"id": 2247416, "name": "On or near Parking Area"}, "longitude": "-1.142665"}, "context": "", "outcome_status": null, "persistent_id": "", "id": 125471318, "location_subtype": "", "month": "2024-12"}, {"category": "anti-social-behaviour", "location_type": "Force", "location": {"latitude": "52.955901", "street": {"id": 2247616, "name": "On or near Bath Street"}, "longitude": "-1.138988"}, "context": "", "outcome_status": null, "persistent_id": "", "id": 125470328, "location_subtype": "", "month": "2024-12"}, {"category": "anti-social-behaviour", "location_type": "Force", "location": {"latitude": "52.949344", "street": {"id": 2247084, "name": "On or near Parking Area"}, "longitude": "-1.147141"}, "context": "", "outcome_status": null, "persistent_id": "", "id": 125470330, "location_subtype": "", "month": "2024-12"}, {"category": "anti-social-behaviour", "location_type": "Force", "location": {"latitude": "52.963882", "street": {"id": 2247366, "name": "On or near Furze Gardens"}, "longitude": "-1.142418"}, "context": "", "outcome_status": null, "persistent_id": "", "id": 125470338, "location_subtype": "", "month": "2024-12"}, {"category": "anti-social-behaviour", "location_type": "Force", "location": {"latitude": "52.958402", "street": {"id": 2245720, "name": "On or near Newdigate Street"}, "longitude": "-1.164484"}, "context": "", "outcome_status": null, "persistent_id": "", "id": 125470493, "location_subtype": "", "month": "2024-12"}, {"category": "anti-social-behaviour", "location_type": "Force", "location": {"latitude": "52.954501", "street": {"id": 2248158, "name": "On or near Westhorpe Avenue"}, "longitude": "-1.129475"}, "context": "", "outcome_status": null, "persistent_id": "", "id": 125471610, "location_subtype": "", "month": "2024-12"}, {"category": "anti-social-behaviour", "location_type": "Force", "location": {"latitude": "52.959344", "street": {"id": 2246820, "name": "On or near Bluecoat Street"}, "longitude": "-1.150174"}, "context": "", "outcome_status": null, "persistent_id": "", "id": 125471622, "location_subtype": "", "month": "2024-12"}, {"category": "anti-social-behaviour", "location_type": "Force", "location": {"latitude": "52.946983", "street": {"id": 2247110, "name": "On or near Nottingham"}, "longitude": "-1.146369"}, "context": "", "outcome_status": null, "persistent_id": "", "id": 125471629, "location_subtype": "", "month": "2024-12"}, {"category": "anti-social-behaviour", "location_type": "Force", "location": {"latitude": "52.953323", "street": {"id": 2247469, "name": "On or near Woolpack Lane"}, "longitude": "-1.141734"}, "context": "", "outcome_status": null, "persistent_id": "", "id": 125471648, "location_subtype": "", "month": "2024-12"}, {"category": "anti-social-behaviour", "location_type": "Force", "location": {"latitude": "52.954237", "street": {"id": 2247424, "name": "On or near Brightmoor Street"}, "longitude": "-1.142519"}, "context": "", "outcome_status": null, "persistent_id": "", "id": 125471651, "location_subtype": "", "month": "2024-12"}, {"category": "anti-social-behaviour", "location_type": "Force", "location": {"latitude": "52.956194", "street": {"id": 2246946, "name": "On or near Milton Street"}, "longitude": "-1.148390"}, "context": "", "outcome_status": null, "persistent_id": "", "id": 125470416, "location_subtype": "", "month": "2024-12"}, {"category": "anti-social-behaviour", "location_type": "Force", "location": {"latitude": "52.955488", "street": {"id": 2245638, "name": "On or near Hermon Street"}, "longitude": "-1.164287"}, "context": "", "outcome_status": null, "persistent_id": "", "id": 125471652, "location_subtype": "", "month": "2024-12"}, {"category": "anti-social-behaviour", "location_type": "Force", "location": {"latitude": "52.950178", "street": {"id": 2246607, "name": "On or near Further/higher Educational Building"}, "longitude": "-1.152006"}, "context": "", "outcome_status": null, "persistent_id": "", "id": 125470501, "location_subtype": "", "month": "2024-12"}, {"category": "anti-social-behaviour", "location_type": "Force", "location": {"latitude": "52.954577", "street": {"id": 2247368, "name": "On or near High Cross Street"}, "longitude": "-1.143659"}, "context": "", "outcome_status": null, "persistent_id": "", "id": 125470353, "location_subtype": "", "month": "2024-12"}, {"category": "anti-social-behaviour", "location_type": "Force", "location": {"latitude": "52.956010", "street": {"id": 2246313, "name": "On or near Talbot Street"}, "longitude": "-1.156700"}, "context": "", "outcome_status": null, "persistent_id": "", "id": 125470440, "location_subtype": "", "month": "2024-12"}, {"category": "anti-social-behaviour", "location_type": "Force", "location": {"latitude": "52.953323", "street": {"id": 2247469, "name": "On or near Woolpack Lane"}, "longitude": "-1.141734"}, "context": "", "outcome_status": null, "persistent_id": "", "id": 125471662, "location_subtype": "", "month": "2024-12"}, {"category": "anti-social-behaviour", "location_type": "Force", "location": {"latitude": "52.946983", "street": {"id": 2247110, "name": "On or near Nottingham"}, "longitude": "-1.146369"}, "context": "", "outcome_status": null, "persistent_id": "", "id": 125471664, "location_subtype": "", "month": "2024-12"}, {"category": "anti-social-behaviour", "location_type": "Force", "location": {"latitude": "52.953842", "street": {"id": 2246586, "name": "On or near Angel Row"}, "longitude": "-1.152649"}, "context": "", "outcome_status": null, "persistent_id": "", "id": 125470355, "location_subtype": "", "month": "2024-12"}, {"category": "anti-social-behaviour", "location_type": "Force", "location": {"latitude": "52.947981", "street": {"id": 2246953, "name": "On or near Carrington Street"}, "longitude": "-1.147614"}, "context": "", "outcome_status": null, "persistent_id": "", "id": 125471663, "location_subtype": "", "month": "2024-12"}, {"category": "anti-social-behaviour", "location_type": "Force", "location": {"latitude": "52.955678", "street": {"id": 2246897, "name": "On or near Trinity Square"}, "longitude": "-1.149219"}, "context": "", "outcome_status": null, "persistent_id": "", "id": 125471684, "location_subtype": "", "month": "2024-12"}, {"category": "anti-social-behaviour", "location_type": "Force", "location": {"latitude": "52.952533", "street": {"id": 2247010, "name": "On or near St Peter's Gate"}, "longitude": "-1.148135"}, "context": "", "outcome_status": null, "persistent_id": "", "id": 125471686, "location_subtype": "", "month": "2024-12"}, {"category": "anti-social-behaviour", "location_type": "Force", "location": {"latitude": "52.953842", "street": {"id": 2246586, "name": "On or near Angel Row"}, "longitude": "-1.152649"}, "context": "", "outcome_status": null, "persistent_id": "", "id": 125471717, "location_subtype": "", "month": "2024-12"}, {"category": "anti-social-behaviour", "location_type": "Force", "location": {"latitude": "52.958122", "street": {"id": 2246223, "name": "On or near Waverley Terrace"}, "longitude": "-1.156659"}, "context": "", "outcome_status": null, "persistent_id": "", "id": 125471729, "location_subtype": "", "month": "2024-12"}, {"category": "anti-social-behaviour", "location_type": "Force", "location": {"latitude": "52.954374", "street": {"id": 2246431, "name": "On or near Theme/adventure Park"}, "longitude": "-1.154231"}, "context": "", "outcome_status": null, "persistent_id": "", "id": 125470502, "location_subtype": "", "month": "2024-12"}, {"category": "anti-social-behaviour", "location_type": "Force", "location": {"latitude": "52.960758", "street": {"id": 2247946, "name": "On or near Melville Gardens"}, "longitude": "-1.133101"}, "context": "", "outcome_status": null, "persistent_id": "", "id": 125471749, "location_subtype": "", "month": "2024-12"}, {"category": "anti-social-behaviour", "location_type": "Force", "location": {"latitude": "52.950459", "street": {"id": 2248282, "name": "On or near Castle Street"}, "longitude": "-1.128588"}, "context": "", "outcome_status": null, "persistent_id": "", "id": 125471751, "location_subtype": "", "month": "2024-12"}, {"category": "anti-social-behaviour", "location_type": "Force", "location": {"latitude": "52.949344", "street": {"id": 2247084, "name": "On or near Parking Area"}, "longitude": "-1.147141"}, "context": "", "outcome_status": null, "persistent_id": "", "id": 125471755, "location_subtype": "", "month": "2024-12"}, {"category": "anti-social-behaviour", "location_type": "Force", "location": {"latitude": "52.956563", "street": {"id": 2247074, "name": "On or near Parking Area"}, "longitude": "-1.147326"}, "context": "", "outcome_status": null, "persistent_id": "", "id": 125471774, "location_subtype": "", "month": "2024-12"}, {"category": "anti-social-behaviour", "location_type": "Force", "location": {"latitude": "52.949344", "street": {"id": 2247084, "name": "On or near Parking Area"}, "longitude": "-1.147141"}, "context": "", "outcome_status": null, "persistent_id": "", "id": 125471775, "location_subtype": "", "month": "2024-12"}, {"category": "anti-social-behaviour", "location_type": "Force", "location": {"latitude": "52.942152", "street": {"id": 2246108, "name": "On or near Saffron Gardens"}, "longitude": "-1.158547"}, "context": "", "outcome_status": null, "persistent_id": "", "id": 125471776, "location_subtype": "", "month": "2024-12"}, {"category": "anti-social-behaviour", "location_type": "Force", "location": {"latitude": "52.949344", "street": {"id": 2247084, "name": "On or near Parking Area"}, "longitude": "-1.147141"}, "context": "", "outcome_status": null, "persistent_id": "", "id": 125471790, "location_subtype": "", "month": "2024-12"}, {"category": "anti-social-behaviour", "location_type": "Force", "location": {"latitude": "52.955678", "street": {"id": 2246897, "name": "On or near Trinity Square"}, "longitude": "-1.149219"}, "context": "", "outcome_status": null, "persistent_id": "", "id": 125471794, "location_subtype": "", "month": "2024-12"}, {"category": "anti-social-behaviour", "location_type": "Force", "location": {"latitude": "52.949430", "street": {"id": 2247384, "name": "On or near Parking Area"}, "longitude": "-1.141647"}, "context": "", "outcome_status": null, "persistent_id": "", "id": 125471822, "location_subtype": "", "month": "2024-12"}, {"category": "anti-social-behaviour", "location_type": "Force", "location": {"latitude": "52.950229", "street": {"id": 2248233, "name": "On or near Sneinton Hollows"}, "longitude": "-1.129188"}, "context": "", "outcome_status": null, "persistent_id": "", "id": 125471827, "location_subtype": "", "month": "2024-12"}, {"category": "anti-social-behaviour", "location_type": "Force", "location": {"latitude": "52.953179", "street": {"id": 2246892, "name": "On or near South Parade"}, "longitude": "-1.149253"}, "context": "", "outcome_status": null, "persistent_id": "", "id": 125471836, "location_subtype": "", "month": "2024-12"}, {"category": "anti-social-behaviour", "location_type": "Force", "location": {"latitude": "52.953688", "street": {"id": 2247042, "name": "On or near High Street"}, "longitude": "-1.147502"}, "context": "", "outcome_status": null, "persistent_id": "", "id": 125471844, "location_subtype": "", "month": "2024-12"}, {"category": "anti-social-behaviour", "location_type": "Force", "location": {"latitude": "52.953688", "street": {"id": 2247042, "name": "On or near High Street"}, "longitude": "-1.147502"}, "context": "", "outcome_status": null, "persistent_id": "", "id": 125471851, "location_subtype": "", "month": "2024-12"}, {"category": "anti-social-behaviour", "location_type": "Force", "location": {"latitude": "52.949344", "street": {"id": 2247084, "name": "On or near Parking Area"}, "longitude": "-1.147141"}, "context": "", "outcome_status": null, "persistent_id": "", "id": 125471853, "location_subtype": "", "month": "2024-12"}, {"category": "anti-social-behaviour", "location_type": "Force", "location": {"latitude": "52.949344", "street": {"id": 2247084, "name": "On or near Parking Area"}, "longitude": "-1.147141"}, "context": "", "outcome_status": null, "persistent_id": "", "id": 125471857, "location_subtype": "", "month": "2024-12"}, {"category": "anti-social-behaviour", "location_type": "Force", "location": {"latitude": "52.953179", "street": {"id": 2246892, "name": "On or near South Parade"}, "longitude": "-1.149253"}, "context": "", "outcome_status": null, "persistent_id": "", "id": 125471863, "location_subtype": "", "month": "2024-12"}, {"category": "anti-social-behaviour", "location_type": "Force", "location": {"latitude": "52.954636", "street": {"id": 2246065, "name": "On or near Upper College Street"}, "longitude": "-1.159406"}, "context": "", "outcome_status": null, "persistent_id": "", "id": 125471882, "location_subtype": "", "month": "2024-12"}, {"category": "anti-social-behaviour", "location_type": "Force", "location": {"latitude": "52.953842", "street": {"id": 2246586, "name": "On or near Angel Row"}, "longitude": "-1.152649"}, "context": "", "outcome_status": null, "persistent_id": "", "id": 125470364, "location_subtype": "", "month": "2024-12"}, {"category": "anti-social-behaviour", "location_type": "Force", "location": {"latitude": "52.951845", "street": {"id": 2246503, "name": "On or near Parking Area"}, "longitude": "-1.153745"}, "context": "", "outcome_status": null, "persistent_id": "", "id": 125470503, "location_subtype": "", "month": "2024-12"}, {"category": "anti-social-behaviour", "location_type": "Force", "location": {"latitude": "52.949344", "street": {"id": 2247084, "name": "On or near Parking Area"}, "longitude": "-1.147141"}, "context": "", "outcome_status": null, "persistent_id": "", "id": 125471894, "location_subtype": "", "month": "2024-12"}, {"category": "anti-social-behaviour", "location_type": "Force", "location": {"latitude": "52.946449", "street": {"id": 2245763, "name": "On or near Supermarket"}, "longitude": "-1.162363"}, "context": "", "outcome_status": null, "persistent_id": "", "id": 125471043, "location_subtype": "", "month": "2024-12"}, {"category": "anti-social-behaviour", "location_type": "Force", "location": {"latitude": "52.964773", "street": {"id": 2246630, "name": "On or near A60"}, "longitude": "-1.152599"}, "context": "", "outcome_status": null, "persistent_id": "", "id": 125471912, "location_subtype": "", "month": "2024-12"}, {"category": "anti-social-behaviour", "location_type": "Force", "location": {"latitude": "52.947981", "street": {"id": 2246953, "name": "On or near Carrington Street"}, "longitude": "-1.147614"}, "context": "", "outcome_status": null, "persistent_id": "", "id": 125471924, "location_subtype": "", "month": "2024-12"}, {"category": "anti-social-behaviour", "location_type": "Force", "location": {"latitude": "52.947981", "street": {"id": 2246953, "name": "On or near Carrington Street"}, "longitude": "-1.147614"}, "context": "", "outcome_status": null, "persistent_id": "", "id": 125471925, "location_subtype": "", "month": "2024-12"}, {"category": "anti-social-behaviour", "location_type": "Force", "location": {"latitude": "52.947981", "street": {"id": 2246953, "name": "On or near Carrington Street"}, "longitude": "-1.147614"}, "context": "", "outcome_status": null, "persistent_id": "", "id": 125471926, "location_subtype": "", "month": "2024-12"}, {"category": "anti-social-behaviour", "location_type": "Force", "location": {"latitude": "52.947783", "street": {"id": 2247354, "name": "On or near Station Street"}, "longitude": "-1.143823"}, "context": "", "outcome_status": null, "persistent_id": "", "id": 125470507, "location_subtype": "", "month": "2024-12"},