[{"category": "anti-social-behaviour", "location_type": "Force", "location": {"latitude": "52.637147", "street": {"id": 1738820, "name": "On or near Ann Street"}, "longitude": "-1.124807"}, "context": "", "outcome_status": null, "persistent_id": "", "id": 124491427, "location_subtype": "", "month": "2024-11"}, {"category": "anti-social-behaviour", "location_type": "Force", "location": {"latitude": "52.625551", "street": {"id": 1737260, "name": "On or near Petrol Station"}, "longitude": "-1.152191"}, "context": "", "outcome_status": null, "persistent_id": "", "id": 124491432, "location_subtype": "", "month": "2024-11"}, {"category": "anti-social-behaviour", "location_type": "Force", "location": {"latitude": "52.636041", "street": {"id": 1738351, "name": "On or near East Gates"}, "longitude": "-1.133444"}, "context": "", "outcome_status": null, "persistent_id": "", "id": 124491433, "location_subtype": "", "month": "2024-11"}, {"category": "anti-social-behaviour", "location_type": "Force", "location": {"latitude": "52.637101", "street": {"id": 1738524, "name": "On or near Shopping Area"}, "longitude": "-1.130778"}, "context": "", "outcome_status": null, "persistent_id": "", "id": 124491439, "location_subtype": "", "month": "2024-11"}, {"category": "anti-social-behaviour", "location_type": "Force", "location": {"latitude": "52.636041", "street": {"id": 1738351, "name": "On or near East Gates"}, "longitude": "-1.133444"}, "context": "", "outcome_status": null, "persistent_id": "", "id": 124491444, "location_subtype": "", "month": "2024-11"}, {"category": "anti-social-behaviour", "location_type": "Force", "location": {"latitude": "52.627903", "street": {"id": 1739501, "name": "On or near Conifer Close"}, "longitude": "-1.110084"}, "context": "", "outcome_status": null, "persistent_id": "", "id": 124491451, "location_subtype": "", "month": "2024-11"}, {"category": "anti-social-behaviour", "location_type": "Force", "location": {"latitude": "52.635797", "street": {"id": 1738449, "name": "On or near Fox Lane"}, "longitude": "-1.131926"}, "context": "", "outcome_status": null, "persistent_id": "", "id": 124491459, "location_subtype": "", "month": "2024-11"}, {"category": "anti-social-behaviour", "location_type": "Force", "location": {"latitude": "52.637146", "street": {"id": 1737432, "name": "On or near Vaughan Street"}, "longitude": "-1.149381"}, "context": "", "outcome_status": null, "persistent_id": "", "id": 124491178, "location_subtype": "", "month": "2024-11"}, {"category": "anti-social-behaviour", "location_type": "Force", "location": {"latitude": "52.625551", "street": {"id": 1737260, "name": "On or near Petrol Station"}, "longitude": "-1.152191"}, "context": "", "outcome_status": null, "persistent_id": "", "id": 124491181, "location_subtype": "", "month": "2024-11"}, {"category": "anti-social-behaviour", "location_type": "Force", "location": {"latitude": "52.630238", "street": {"id": 1737731, "name": "On or near Bede Island Road"}, "longitude": "-1.143842"}, "context": "", "outcome_status": null, "persistent_id": "", "id": 124490794, "location_subtype": "", "month": "2024-11"}, {"category": "anti-social-behaviour", "location_type": "Force", "location": {"latitude": "52.627798", "street": {"id": 1737705, "name": "On or near Tarragon Road"}, "longitude": "-1.144613"}, "context": "", "outcome_status": null, "persistent_id": "", "id": 124491284, "location_subtype": "", "month": "2024-11"}, {"category": "anti-social-behaviour", "location_type": "Force", "location": {"latitude": "52.631624", "street": {"id": 1738751, "name": "On or near Station Street"}, "longitude": "-1.125641"}, "context": "", "outcome_status": null, "persistent_id": "", "id": 124491209, "location_subtype": "", "month": "2024-11"}, {"category": "anti-social-behaviour", "location_type": "Force", "location": {"latitude": "52.632111", "street": {"id": 1738172, "name": "On or near Marble Street"}, "longitude": "-1.135723"}, "context": "", "outcome_status": null, "persistent_id": "", "id": 124491363, "location_subtype": "", "month": "2024-11"}, {"category": "anti-social-behaviour", "location_type": "Force", "location": {"latitude": "52.639316", "street": {"id": 1738483, "name": "On or near Nightclub"}, "longitude": "-1.131354"}, "context": "", "outcome_status": null, "persistent_id": "", "id": 124491608, "location_subtype": "", "month": "2024-11"}, {"category": "anti-social-behaviour", "location_type": "Force", "location": {"latitude": "52.625551", "street": {"id": 1737260, "name": "On or near Petrol Station"}, "longitude": "-1.152191"}, "context": "", "outcome_status": null, "persistent_id": "", "id": 124491413, "location_subtype": "", "month": "2024-11"}, {"category": "anti-social-behaviour", "location_type": "Force", "location": {"latitude": "52.632052", "street": {"id": 1737636, "name": "On or near Supermarket"}, "longitude": "-1.146096"}, "context": "", "outcome_status": null, "persistent_id": "", "id": 124491409, "location_subtype": "", "month": "2024-11"}, {"category": "anti-social-behaviour", "location_type": "Force", "location": {"latitude": "52.643191", "street": {"id": 1738592, "name": "On or near Memory Lane"}, "longitude": "-1.128869"}, "context": "", "outcome_status": null, "persistent_id": "", "id": 124491386, "location_subtype": "", "month": "2024-11"}, {"category": "anti-social-behaviour", "location_type": "Force", "location": {"latitude": "52.643191", "street": {"id": 1738592, "name": "On or near Memory Lane"}, "longitude": "-1.128869"}, "context": "", "outcome_status": null, "persistent_id": "", "id": 124491385, "location_subtype": "", "month": "2024-11"}, {"category": "anti-social-behaviour", "location_type": "Force", "location": {"latitude": "52.631985", "street": {"id": 1738367, "name": "On or near Welford Place"}, "longitude": "-1.133154"}, "context": "", "outcome_status": null, "persistent_id": "", "id": 124491468, "location_subtype": "", "month": "2024-11"}, {"category": "anti-social-behaviour", "location_type": "Force", "location": {"latitude": "52.631714", "street": {"id": 1738501, "name": "On or near Albion Street"}, "longitude": "-1.130515"}, "context": "", "outcome_status": null, "persistent_id": "", "id": 124491486, "location_subtype": "", "month": "2024-11"}, {"category": "anti-social-behaviour", "location_type": "Force", "location": {"latitude": "52.631302", "street": {"id": 1738955, "name": "On or near Lincoln Street"}, "longitude": "-1.120978"}, "context": "", "outcome_status": null, "persistent_id": "", "id": 124491485, "location_subtype": "", "month": "2024-11"}, {"category": "anti-social-behaviour", "location_type": "Force", "location": {"latitude": "52.627408", "street": {"id": 1738593, "name": "On or near West Street"}, "longitude": "-1.129389"}, "context": "", "outcome_status": null, "persistent_id": "", "id": 124491511, "location_subtype": "", "month": "2024-11"}, {"category": "anti-social-behaviour", "location_type": "Force", "location": {"latitude": "52.625551", "street": {"id": 1737260, "name": "On or near Petrol Station"}, "longitude": "-1.152191"}, "context": "", "outcome_status": null, "persistent_id": "", "id": 124491522, "location_subtype": "", "month": "2024-11"}, {"category": "anti-social-behaviour", "location_type": "Force", "location": {"latitude": "52.617509", "street": {"id": 1738992, "name": "On or near Howard Road"}, "longitude": "-1.120752"}, "context": "", "outcome_status": null, "persistent_id": "", "id": 124491583, "location_subtype": "", "month": "2024-11"}, {"category": "anti-social-behaviour", "location_type": "Force", "location": {"latitude": "52.642049", "street": {"id": 1738480, "name": "On or near Navigation Street"}, "longitude": "-1.131256"}, "context": "", "outcome_status": null, "persistent_id": "", "id": 124491615, "location_subtype": "", "month": "2024-11"}, {"category": "anti-social-behaviour", "location_type": "Force", "location": {"latitude": "52.632534", "street": {"id": 1738358, "name": "On or near Market Street"}, "longitude": "-1.133232"}, "context": "", "outcome_status": null, "persistent_id": "", "id": 124491187, "location_subtype": "", "month": "2024-11"}, {"category": "anti-social-behaviour", "location_type": "Force", "location": {"latitude": "52.634477", "street": {"id": 1738414, "name": "On or near Market Place Approach"}, "longitude": "-1.132159"}, "context": "", "outcome_status": null, "persistent_id": "", "id": 124491275, "location_subtype": "", "month": "2024-11"}, {"category": "anti-social-behaviour", "location_type": "Force", "location": {"latitude": "52.634585", "street": {"id": 1739206, "name": "On or near Taurus Close"}, "longitude": "-1.116450"}, "context": "", "outcome_status": null, "persistent_id": "", "id": 124491282, "location_subtype": "", "month": "2024-11"}, {"category": "anti-social-behaviour", "location_type": "Force", "location": {"latitude": "52.636041", "street": {"id": 1738351, "name": "On or near East Gates"}, "longitude": "-1.133444"}, "context": "", "outcome_status": null, "persistent_id": "", "id": 124491287, "location_subtype": "", "month": "2024-11"}, {"category": "anti-social-behaviour", "location_type": "Force", "location": {"latitude": "52.627212", "street": {"id": 1737850, "name": "On or near Rydal Street"}, "longitude": "-1.141877"}, "context": "", "outcome_status": null, "persistent_id": "", "id": 124491297, "location_subtype": "", "month": "2024-11"}, {"category": "anti-social-behaviour", "location_type": "Force", "location": {"latitude": "52.634585", "street": {"id": 1739206, "name": "On or near Taurus Close"}, "longitude": "-1.116450"}, "context": "", "outcome_status": null, "persistent_id": "", "id": 124491300, "location_subtype": "", "month": "2024-11"}, {"category": "anti-social-behaviour", "location_type": "Force", "location": {"latitude": "52.630690", "street": {"id": 1739537, "name": "On or near Egginton Street"}, "longitude": "-1.108919"}, "context": "", "outcome_status": null, "persistent_id": "", "id": 124491308, "location_subtype": "", "month": "2024-11"}, {"category": "anti-social-behaviour", "location_type": "Force", "location": {"latitude": "52.639155", "street": {"id": 1738074, "name": "On or near Junior Street"}, "longitude": "-1.137609"}, "context": "", "outcome_status": null, "persistent_id": "", "id": 124491313, "location_subtype": "", "month": "2024-11"}, {"category": "anti-social-behaviour", "location_type": "Force", "location": {"latitude": "52.626898", "street": {"id": 1739308, "name": "On or near Onslow Street"}, "longitude": "-1.113960"}, "context": "", "outcome_status": null, "persistent_id": "", "id": 124491316, "location_subtype": "", "month": "2024-11"}, {"category": "anti-social-behaviour", "location_type": "Force", "location": {"latitude": "52.631624", "street": {"id": 1738751, "name": "On or near Station Street"}, "longitude": "-1.125641"}, "context": "", "outcome_status": null, "persistent_id": "", "id": 124491318, "location_subtype": "", "month": "2024-11"}, {"category": "anti-social-behaviour", "location_type": "Force", "location": {"latitude": "52.636041", "street": {"id": 1738351, "name": "On or near East Gates"}, "longitude": "-1.133444"}, "context": "", "outcome_status": null, "persistent_id": "", "id": 124491067, "location_subtype": "", "month": "2024-11"}, {"category": "anti-social-behaviour", "location_type": "Force", "location": {"latitude": "52.634585", "street": {"id": 1739206, "name": "On or near Taurus Close"}, "longitude": "-1.116450"}, "context": "", "outcome_status": null, "persistent_id": "", "id": 124491343, "location_subtype": "", "month": "2024-11"}, {"category": "anti-social-behaviour", "location_type": "Force", "location": {"latitude": "52.634009", "street": {"id": 1738037, "name": "On or near Peacock Lane"}, "longitude": "-1.138330"}, "context": "", "outcome_status": null, "persistent_id": "", "id": 124491010, "location_subtype": "", "month": "2024-11"}, {"category": "anti-social-behaviour", "location_type": "Force", "location": {"latitude": "52.628748", "street": {"id": 1737764, "name": "On or near Western Boulevard"}, "longitude": "-1.143043"}, "context": "", "outcome_status": null, "persistent_id": "", "id": 124490983, "location_subtype": "", "month": "2024-11"}, {"category": "anti-social-behaviour", "location_type": "Force", "location": {"latitude": "52.634995", "street": {"id": 1737585, "name": "On or near Richard Iii Road"}, "longitude": "-1.144030"}, "context": "", "outcome_status": null, "persistent_id": "", "id": 124491345, "location_subtype": "", "month": "2024-11"}, {"category": "anti-social-behaviour", "location_type": "Force", "location": {"latitude": "52.625551", "street": {"id": 1737260, "name": "On or near Petrol Station"}, "longitude": "-1.152191"}, "context": "", "outcome_status": null, "persistent_id": "", "id": 124491346, "location_subtype": "", "month": "2024-11"}, {"category": "anti-social-behaviour", "location_type": "Force", "location": {"latitude": "52.620909", "street": {"id": 1739111, "name": "On or near St Marys Road"}, "longitude": "-1.116031"}, "context": "", "outcome_status": null, "persistent_id": "", "id": 124490870, "location_subtype": "", "month": "2024-11"}, {"category": "anti-social-behaviour", "location_type": "Force", "location": {"latitude": "52.636133", "street": {"id": 1738084, "name": "On or near Shopping Area"}, "longitude": "-1.137402"}, "context": "", "outcome_status": null, "persistent_id": "", "id": 124491349, "location_subtype": "", "month": "2024-11"}, {"category": "anti-social-behaviour", "location_type": "Force", "location": {"latitude": "52.625259", "street": {"id": 1737613, "name": "On or near Supermarket"}, "longitude": "-1.146539"}, "context": "", "outcome_status": null, "persistent_id": "", "id": 124491350, "location_subtype": "", "month": "2024-11"}, {"category": "anti-social-behaviour", "location_type": "Force", "location": {"latitude": "52.632999", "street": {"id": 1738125, "name": "On or near Friar Lane"}, "longitude": "-1.136548"}, "context": "", "outcome_status": null, "persistent_id": "", "id": 124491354, "location_subtype": "", "month": "2024-11"}, {"category": "anti-social-behaviour", "location_type": "Force", "location": {"latitude": "52.632746", "street": {"id": 1738674, "name": "On or near Northampton Street"}, "longitude": "-1.127791"}, "context": "", "outcome_status": null, "persistent_id": "", "id": 124491374, "location_subtype": "", "month": "2024-11"}, {"category": "anti-social-behaviour", "location_type": "Force", "location": {"latitude": "52.625551", "street": {"id": 1737260, "name": "On or near Petrol Station"}, "longitude": "-1.152191"}, "context": "", "outcome_status": null, "persistent_id": "", "id": 124491579, "location_subtype": "", "month": "2024-11"}, {"category": "anti-social-behaviour", "location_type": "Force", "location": {"latitude": "52.627798", "street": {"id": 1737705, "name": "On or near Tarragon Road"}, "longitude": "-1.144613"}, "context": "", "outcome_status": null, "persistent_id": "", "id": 124490799, "location_subtype": "", "month": "2024-11"}, {"category": "anti-social-behaviour", "location_type": "Force", "location": {"latitude": "52.637843", "street": {"id": 1738541, "name": "On or near Shopping Area"}, "longitude": "-1.130275"}, "context": "", "outcome_status": null, "persistent_id": "", "id": 124491380, "location_subtype": "", "month": "2024-11"}, {"category": "anti-social-behaviour", "location_type": "Force", "location": {"latitude": "52.620491", "street": {"id": 1738051, "name": "On or near Sports/recreation Area"}, "longitude": "-1.138014"}, "context": "", "outcome_status": null, "persistent_id": "", "id": 124491384, "location_subtype": "", "month": "2024-11"}, {"category": "anti-social-behaviour", "location_type": "Force", "location": {"latitude": "52.639155", "street": {"id": 1738074, "name": "On or near Junior Street"}, "longitude": "-1.137609"}, "context": "", "outcome_status": null, "persistent_id": "", "id": 124491397, "location_subtype": "", "month": "2024-11"}, {"category": "anti-social-behaviour", "location_type": "Force", "location": {"latitude": "52.625551", "street": {"id": 1737260, "name": "On or near Petrol Station"}, "longitude": "-1.152191"}, "context": "", "outcome_status": null, "persistent_id": "", "id": 124491390, "location_subtype": "", "month": "2024-11"}, {"category": "anti-social-behaviour", "location_type": "Force", "location": {"latitude": "52.634874", "street": {"id": 1738098, "name": "On or near Guildhall Lane"}, "longitude": "-1.137309"}, "context": "", "outcome_status": null, "persistent_id": "", "id": 124491399, "location_subtype": "", "month": "2024-11"}, {"category": "anti-social-behaviour", "location_type": "Force", "location": {"latitude": "52.637041", "street": {"id": 1738379, "name": "On or near Parking Area"}, "longitude": "-1.131222"}, "context": "", "outcome_status": null, "persistent_id": "", "id": 124491400, "location_subtype": "", "month": "2024-11"}, {"category": "anti-social-behaviour", "location_type": "Force", "location": {"latitude": "52.635078", "street": {"id": 1737968, "name": "On or near St Nicholas Place"}, "longitude": "-1.139462"}, "context": "", "outcome_status": null, "persistent_id": "", "id": 124491401, "location_subtype": "", "month": "2024-11"}, {"category": "anti-social-behaviour", "location_type": "Force", "location": {"latitude": "52.625551", "street": {"id": 1737260, "name": "On or near Petrol Station"}, "longitude": "-1.152191"}, "context": "", "outcome_status": null, "persistent_id": "", "id": 124491406, "location_subtype": "", "month": "2024-11"}, {"category": "anti-social-behaviour", "location_type": "Force", "location": {"latitude": "52.627798", "street": {"id": 1737705, "name": "On or near Tarragon Road"}, "longitude": "-1.144613"}, "context": "", "outcome_status": null, "persistent_id": "", "id": 124490796, "location_subtype": "", "month": "2024-11"}, {"category": "anti-social-behaviour", "location_type": "Force", "location": {"latitude": "52.637843", "street": {"id": 1738541, "name": "On or near Shopping Area"}, "longitude": "-1.130275"}, "context": "", "outcome_status": null, "persistent_id": "", "id": 124491408, "location_subtype": "", "month": "2024-11"}, {"category": "anti-social-behaviour", "location_type": "Force", "location": {"latitude": "52.628748", "street": {"id": 1737764, "name": "On or near Western Boulevard"}, "longitude": "-1.143043"}, "context": "", "outcome_status": null, "persistent_id": "", "id": 124491410, "location_subtype": "", "month": "2024-11"}, {"category": "anti-social-behaviour", "location_type": "Force", "location": {"latitude": "52.635078", "street": {"id": 1737968, "name": "On or near St Nicholas Place"}, "longitude": "-1.139462"}, "context": "", "outcome_status": null, "persistent_id": "", "id": 124491419, "location_subtype": "", "month": "2024-11"}, {"category": "anti-social-behaviour", "location_type": "Force", "location": {"latitude": "52.635528", "street": {"id": 1738700, "name": "On or near Theatre/concert Hall"}, "longitude": "-1.127553"}, "context": "", "outcome_status": null, "persistent_id": "", "id": 124490763, "location_subtype": "", "month": "2024-11"}, {"category": "anti-social-behaviour", "location_type": "Force", "location": {"latitude": "52.637697", "street": {"id": 1738064, "name": "On or near Causeway Lane"}, "longitude": "-1.137297"}, "context": "", "outcome_status": null, "persistent_id": "", "id": 124490764, "location_subtype": "", "month": "2024-11"}, {"category": "anti-social-behaviour", "location_type": "Force", "location": {"latitude": "52.639558", "street": {"id": 1738364, "name": "On or near Nightclub"}, "longitude": "-1.132473"}, "context": "", "outcome_status": null, "persistent_id": "", "id": 124490768, "location_subtype": "", "month": "2024-11"}, {"category": "anti-social-behaviour", "location_type": "Force", "location": {"latitude": "52.628748", "street": {"id": 1737764, "name": "On or near Western Boulevard"}, "longitude": "-1.143043"}, "context": "", "outcome_status": null, "persistent_id": "", "id": 124490548, "location_subtype": "", "month": "2024-11"}, {"category": "anti-social-behaviour", "location_type": "Force", "location": {"latitude": "52.634706", "street": {"id": 1737807, "name": "On or near Bath Lane"}, "longitude": "-1.142691"}, "context": "", "outcome_status": null, "persistent_id": "", "id": 124490560, "location_subtype": "", "month": "2024-11"}, {"category": "anti-social-behaviour", "location_type": "Force", "location": {"latitude": "52.632952", "street": {"id": 1737912, "name": "On or near Southgates"}, "longitude": "-1.138765"}, "context": "", "outcome_status": null, "persistent_id": "", "id": 124490564, "location_subtype": "", "month": "2024-11"}, {"category": "anti-social-behaviour", "location_type": "Force", "location": {"latitude": "52.632955", "street": {"id": 1737814, "name": "On or near Castle Street"}, "longitude": "-1.140434"}, "context": "", "outcome_status": null, "persistent_id": "", "id": 124490568, "location_subtype": "", "month": "2024-11"}, {"category": "anti-social-behaviour", "location_type": "Force", "location": {"latitude": "52.627212", "street": {"id": 1737850, "name": "On or near Rydal Street"}, "longitude": "-1.141877"}, "context": "", "outcome_status": null, "persistent_id": "", "id": 124490570, "location_subtype": "", "month": "2024-11"}, {"category": "anti-social-behaviour", "location_type": "Force", "location": {"latitude": "52.632985", "street": {"id": 1737285, "name": "On or near Fosse Road Central"}, "longitude": "-1.152092"}, "context": "", "outcome_status": null, "persistent_id": "", "id": 124490571, "location_subtype": "", "month": "2024-11"}, {"category": "anti-social-behaviour", "location_type": "Force", "location": {"latitude": "52.632111", "street": {"id": 1738172, "name": "On or near Marble Street"}, "longitude": "-1.135723"}, "context": "", "outcome_status": null, "persistent_id": "", "id": 124490573, "location_subtype": "", "month": "2024-11"}, {"category": "anti-social-behaviour", "location_type": "Force", "location": {"latitude": "52.621857", "street": {"id": 1737629, "name": "On or near Quainton Road"}, "longitude": "-1.146029"}, "context": "", "outcome_status": null, "persistent_id": "", "id": 124490586, "location_subtype": "", "month": "2024-11"}, {"category": "anti-social-behaviour", "location_type": "Force", "location": {"latitude": "52.625259", "street": {"id": 1737613, "name": "On or near Supermarket"}, "longitude": "-1.146539"}, "context": "", "outcome_status": null, "persistent_id": "", "id": 124490587, "location_subtype": "", "month": "2024-11"}, {"category": "anti-social-behaviour", "location_type": "Force", "location": {"latitude": "52.636111", "street": {"id": 1738000, "name": "On or near Freeschool Lane"}, "longitude": "-1.138053"}, "context": "", "outcome_status": null, "persistent_id": "", "id": 124490600, "location_subtype": "", "month": "2024-11"}, {"category": "anti-social-behaviour", "location_type": "Force", "location": {"latitude": "52.639558", "street": {"id": 1738364, "name": "On or near Nightclub"}, "longitude": "-1.132473"}, "context": "", "outcome_status": null, "persistent_id": "", "id": 124490610, "location_subtype": "", "month": "2024-11"}, {"category": "anti-social-behaviour", "location_type": "Force", "location": {"latitude": "52.642883", "street": {"id": 1738841, "name": "On or near Calgary Road"}, "longitude": "-1.124914"}, "context": "", "outcome_status": null, "persistent_id": "", "id": 124490611, "location_subtype": "", "month": "2024-11"}, {"category": "anti-social-behaviour", "location_type": "Force", "location": {"latitude": "52.629483", "street": {"id": 1738118, "name": "On or near Grange Lane"}, "longitude": "-1.136425"}, "context": "", "outcome_status": null, "persistent_id": "", "id": 124490622, "location_subtype": "", "month": "2024-11"}, {"category": "anti-social-behaviour", "location_type": "Force", "location": {"latitude": "52.642883", "street": {"id": 1738841, "name": "On or near Calgary Road"}, "longitude": "-1.124914"}, "context": "", "outcome_status": null, "persistent_id": "", "id": 124490615, "location_subtype": "", "month": "2024-11"}, {"category": "anti-social-behaviour", "location_type": "Force", "location": {"latitude": "52.641941", "street": {"id": 1738876, "name": "On or near Montreal Road"}, "longitude": "-1.123972"}, "context": "", "outcome_status": null, "persistent_id": "", "id": 124490630, "location_subtype": "", "month": "2024-11"}, {"category": "anti-social-behaviour", "location_type": "Force", "location": {"latitude": "52.627352", "street": {"id": 1739480, "name": "On or near Myrtle Road"}, "longitude": "-1.110952"}, "context": "", "outcome_status": null, "persistent_id": "", "id": 124490656, "location_subtype": "", "month": "2024-11"}, {"category": "anti-social-behaviour", "location_type": "Force", "location": {"latitude": "52.635797", "street": {"id": 1738449, "name": "On or near Fox Lane"}, "longitude": "-1.131926"}, "context": "", "outcome_status": null, "persistent_id": "", "id": 124490667, "location_subtype": "", "month": "2024-11"}, {"category": "anti-social-behaviour", "location_type": "Force", "location": {"latitude": "52.634995", "street": {"id": 1737585, "name": "On or near Richard Iii Road"}, "longitude": "-1.144030"}, "context": "", "outcome_status": null, "persistent_id": "", "id": 124490679, "location_subtype": "", "month": "2024-11"}, {"category": "anti-social-behaviour", "location_type": "Force", "location": {"latitude": "52.634009", "street": {"id": 1738037, "name": "On or near Peacock Lane"}, "longitude": "-1.138330"}, "context": "", "outcome_status": null, "persistent_id": "", "id": 124490686, "location_subtype": "", "month": "2024-11"}, {"category": "anti-social-behaviour", "location_type": "Force", "location": {"latitude": "52.637581", "street": {"id": 1738327, "name": "On or near Parking Area"}, "longitude": "-1.133709"}, "context": "", "outcome_status": null, "persistent_id": "", "id": 124490694, "location_subtype": "", "month": "2024-11"}, {"category": "anti-social-behaviour", "location_type": "Force", "location": {"latitude": "52.634995", "street": {"id": 1737585, "name": "On or near Richard Iii Road"}, "longitude": "-1.144030"}, "context": "", "outcome_status": null, "persistent_id": "", "id": 124490700, "location_subtype": "", "month": "2024-11"}, {"category": "anti-social-behaviour", "location_type": "Force", "location": {"latitude": "52.635488", "street": {"id": 1738121, "name": "On or near Carts Lane"}, "longitude": "-1.136395"}, "context": "", "outcome_status": null, "persistent_id": "", "id": 124490710, "location_subtype": "", "month": "2024-11"}, {"category": "anti-social-behaviour", "location_type": "Force", "location": {"latitude": "52.628320", "street": {"id": 1739209, "name": "On or near Upper Tichborne Street"}, "longitude": "-1.116591"}, "context": "", "outcome_status": null, "persistent_id": "", "id": 124490719, "location_subtype": "", "month": "2024-11"}, {"category": "anti-social-behaviour", "location_type": "Force", "location": {"latitude": "52.634764", "street": {"id": 1738562, "name": "On or near Halford Street"}, "longitude": "-1.129612"}, "context": "", "outcome_status": null, "persistent_id": "", "id": 124490683, "location_subtype": "", "month": "2024-11"}, {"category": "anti-social-behaviour", "location_type": "Force", "location": {"latitude": "52.622852", "street": {"id": 1737331, "name": "On or near Bisley Street"}, "longitude": "-1.150707"}, "context": "", "outcome_status": null, "persistent_id": "", "id": 124490723, "location_subtype": "", "month": "2024-11"}, {"category": "anti-social-behaviour", "location_type": "Force", "location": {"latitude": "52.641941", "street": {"id": 1738876, "name": "On or near Montreal Road"}, "longitude": "-1.123972"}, "context": "", "outcome_status": null, "persistent_id": "", "id": 124490724, "location_subtype": "", "month": "2024-11"}, {"category": "anti-social-behaviour", "location_type": "Force", "location": {"latitude": "52.624980", "street": {"id": 1738909, "name": "On or near Theatre/concert Hall"}, "longitude": "-1.121947"}, "context": "", "outcome_status": null, "persistent_id": "", "id": 124490728, "location_subtype": "", "month": "2024-11"}, {"category": "anti-social-behaviour", "location_type": "Force", "location": {"latitude": "52.627300", "street": {"id": 1739284, "name": "On or near Skipworth Street"}, "longitude": "-1.114706"}, "context": "", "outcome_status": null, "persistent_id": "", "id": 124490729, "location_subtype": "", "month": "2024-11"}, {"category": "anti-social-behaviour", "location_type": "Force", "location": {"latitude": "52.626591", "street": {"id": 1739538, "name": "On or near Glossop Street"}, "longitude": "-1.108899"}, "context": "", "outcome_status": null, "persistent_id": "", "id": 124490734, "location_subtype": "", "month": "2024-11"}, {"category": "anti-social-behaviour", "location_type": "Force", "location": {"latitude": "52.636689", "street": {"id": 1739257, "name": "On or near Maynard Road"}, "longitude": "-1.115240"}, "context": "", "outcome_status": null, "persistent_id": "", "id": 124490744, "location_subtype": "", "month": "2024-11"}, {"category": "anti-social-behaviour", "location_type": "Force", "location": {"latitude": "52.636557", "street": {"id": 1737701, "name": "On or near All Saints Road"}, "longitude": "-1.143748"}, "context": "", "outcome_status": null, "persistent_id": "", "id": 124490788, "location_subtype": "", "month": "2024-11"}, {"category": "anti-social-behaviour", "location_type": "Force", "location": {"latitude": "52.625259", "street": {"id": 1737613, "name": "On or near Supermarket"}, "longitude": "-1.146539"}, "context": "", "outcome_status": null, "persistent_id": "", "id": 124490803, "location_subtype": "", "month": "2024-11"}, {"category": "anti-social-behaviour", "location_type": "Force", "location": {"latitude": "52.630282", "street": {"id": 1738149, "name": "On or near Oxford Street"}, "longitude": "-1.136306"}, "context": "", "outcome_status": null, "persistent_id": "", "id": 124490830, "location_subtype": "", "month": "2024-11"}, {"category": "anti-social-behaviour", "location_type": "Force", "location": {"latitude": "52.631624", "street": {"id": 1738751, "name": "On or near Station Street"}, "longitude": "-1.125641"}, "context": "", "outcome_status": null, "persistent_id": "", "id": 124490831, "location_subtype": "", "month": "2024-11"}, {"category": "anti-social-behaviour", "location_type": "Force", "location": {"latitude": "52.642049", "street": {"id": 1738480, "name": "On or near Navigation Street"}, "longitude": "-1.131256"}, "context": "", "outcome_status": null, "persistent_id": "", "id": 124490833, "location_subtype": "", "month": "2024-11"}, {"category": "anti-social-behaviour", "location_type": "Force", "location": {"latitude": "52.627798", "street": {"id": 1737705, "name": "On or near Tarragon Road"}, "longitude": "-1.144613"}, "context": "", "outcome_status": null, "persistent_id": "", "id": 124490835, "location_subtype": "", "month": "2024-11"}, {"category": "anti-social-behaviour", "location_type": "Force", "location": {"latitude": "52.630043", "street": {"id": 1738964, "name": "On or near Brookhouse Street"}, "longitude": "-1.122156"}, "context": "", "outcome_status": null, "persistent_id": "", "id": 124490837, "location_subtype": "", "month": "2024-11"}, {"category": "anti-social-behaviour", "location_type": "Force", "location": {"latitude": "52.637581", "street": {"id": 1738327, "name": "On or near Parking Area"}, "longitude": "-1.133709"}, "context": "", "outcome_status": null, "persistent_id": "", "id": 124490845, "location_subtype": "", "month": "2024-11"}, {"category": "anti-social-behaviour", "location_type": "Force", "location": {"latitude": "52.636041", "street": {"id": 1738351, "name": "On or near East Gates"}, "longitude": "-1.133444"}, "context": "", "outcome_status": null, "persistent_id": "", "id": 124490847, "location_subtype": "", "month": "2024-11"}, {"category": "anti-social-behaviour", "location_type": "Force", "location": {"latitude": "52.633879", "street": {"id": 1738375, "name": "On or near Horsefair Street"}, "longitude": "-1.132821"}, "context": "", "outcome_status": null, "persistent_id": "", "id": 124490851, "location_subtype": "", "month": "2024-11"}, {"category": "anti-social-behaviour", "location_type": "Force", "location": {"latitude": "52.636857", "street": {"id": 1738642, "name": "On or near St James Street"}, "longitude": "-1.128211"}, "context": "", "outcome_status": null, "persistent_id": "", "id": 124490856, "location_subtype": "", "month": "2024-11"}, {"category": "anti-social-behaviour", "location_type": "Force", "location": {"latitude": "52.631193", "street": {"id": 1738645, "name": "On or near Calais Hill"}, "longitude": "-1.128220"}, "context": "", "outcome_status": null, "persistent_id": "", "id": 124490857, "location_subtype": "", "month": "2024-11"}, {"category": "anti-social-behaviour", "location_type": "Force", "location": {"latitude": "52.630568", "street": {"id": 1737160, "name": "On or near Cherryleas Drive"}, "longitude": "-1.154872"}, "context": "", "outcome_status": null, "persistent_id": "", "id": 124490859, "location_subtype": "", "month": "2024-11"}, {"category": "anti-social-behaviour", "location_type": "Force", "location": {"latitude": "52.633709", "street": {"id": 1738109, "name": "On or near New Street"}, "longitude": "-1.136563"}, "context": "", "outcome_status": null, "persistent_id": "", "id": 124490875, "location_subtype": "", "month": "2024-11"}, {"category": "anti-social-behaviour", "location_type": "Force", "location": {"latitude": "52.627052", "street": {"id": 1737887, "name": "On or near Ullswater Street"}, "longitude": "-1.140875"}, "context": "", "outcome_status": null, "persistent_id": "", "id": 124490879, "location_subtype": "", "month": "2024-11"}, {"category": "anti-social-behaviour", "location_type": "Force", "location": {"latitude": "52.637627", "street": {"id": 1738668, "name": "On or near Eldon Street"}, "longitude": "-1.127782"}, "context": "", "outcome_status": null, "persistent_id": "", "id": 124490888, "location_subtype": "", "month": "2024-11"}, {"category": "anti-social-behaviour", "location_type": "Force", "location": {"latitude": "52.641230", "street": {"id": 1738983, "name": "On or near Chester Close"}, "longitude": "-1.121415"}, "context": "", "outcome_status": null, "persistent_id": "", "id": 124490890, "location_subtype": "", "month": "2024-11"}, {"category": "anti-social-behaviour", "location_type": "Force", "location": {"latitude": "52.629483", "street": {"id": 1738118, "name": "On or near Grange Lane"}, "longitude": "-1.136425"}, "context": "", "outcome_status": null, "persistent_id": "", "id": 124490892, "location_subtype": "", "month": "2024-11"}, {"category": "anti-social-behaviour", "location_type": "Force", "location": {"latitude": "52.625937", "street": {"id": 1739392, "name": "On or near Tennyson Street"}, "longitude": "-1.112783"}, "context": "", "outcome_status": null, "persistent_id": "", "id": 124490897, "location_subtype": "", "month": "2024-11"}, {"category": "anti-social-behaviour", "location_type": "Force", "location": {"latitude": "52.629734", "street": {"id": 1738975, "name": "On or near Brookhouse Avenue"}, "longitude": "-1.121660"}, "context": "", "outcome_status": null, "persistent_id": "", "id": 124490899, "location_subtype": "", "month": "2024-11"}, {"category": "anti-social-behaviour", "location_type": "Force", "location": {"latitude": "52.636041", "street": {"id": 1738351, "name": "On or near East Gates"}, "longitude": "-1.133444"}, "context": "", "outcome_status": null, "persistent_id": "", "id": 124490901, "location_subtype": "", "month": "2024-11"}, {"category": "anti-social-behaviour", "location_type": "Force", "location": {"latitude": "52.637843", "street": {"id": 1738541, "name": "On or near Shopping Area"}, "longitude": "-1.130275"}, "context": "", "outcome_status": null, "persistent_id": "", "id": 124490907, "location_subtype": "", "month": "2024-11"}, {"category": "anti-social-behaviour", "location_type": "Force", "location": {"latitude": "52.635399", "street": {"id": 1738303, "name": "On or near Shopping Area"}, "longitude": "-1.134107"}, "context": "", "outcome_status": null, "persistent_id": "", "id": 124490920, "location_subtype": "", "month": "2024-11"}, {"category": "anti-social-behaviour", "location_type": "Force", "location": {"latitude": "52.629864", "street": {"id": 1739236, "name": "On or near Petrol Station"}, "longitude": "-1.115038"}, "context": "", "outcome_status": null, "persistent_id": "", "id": 124490929, "location_subtype": "", "month": "2024-11"}, {"category": "anti-social-behaviour", "location_type": "Force", "location": {"latitude": "52.627798", "street": {"id": 1737705, "name": "On or near Tarragon Road"}, "longitude": "-1.144613"}, "context": "", "outcome_status": null, "persistent_id": "", "id": 124490937, "location_subtype": "", "month": "2024-11"}, {"category": "anti-social-behaviour", "location_type": "Force", "location": {"latitude": "52.642492", "street": {"id": 1738941, "name": "On or near Vancouver Road"}, "longitude": "-1.123074"}, "context": "", "outcome_status": null, "persistent_id": "", "id": 124490952, "location_subtype": "", "month": "2024-11"}, {"category": "anti-social-behaviour", "location_type": "Force", "location": {"latitude": "52.637041", "street": {"id": 1738379, "name": "On or near Parking Area"}, "longitude": "-1.131222"}, "context": "", "outcome_status": null, "persistent_id": "", "id": 124490956, "location_subtype": "", "month": "2024-11"}, {"category": "anti-social-behaviour", "location_type": "Force", "location": {"latitude": "52.636623", "street": {"id": 1737784, "name": "On or near Ruding Street"}, "longitude": "-1.142978"}, "context": "", "outcome_status": null, "persistent_id": "", "id": 124490960, "location_subtype": "", "month": "2024-11"}, {"category": "anti-social-behaviour", "location_type": "Force", "location": {"latitude": "52.634995", "street": {"id": 1737585, "name": "On or near Richard Iii Road"}, "longitude": "-1.144030"}, "context": "", "outcome_status": null, "persistent_id": "", "id": 124490961, "location_subtype": "", "month": "2024-11"}, {"category": "anti-social-behaviour", "location_type": "Force", "location": {"latitude": "52.637616", "street": {"id": 1739087, "name": "On or near Kent Street"}, "longitude": "-1.119034"}, "context": "", "outcome_status": null, "persistent_id": "", "id": 124490962, "location_subtype": "", "month": "2024-11"}, {"category": "anti-social-behaviour", "location_type": "Force", "location": {"latitude": "52.620491", "street": {"id": 1738051, "name": "On or near Sports/recreation Area"}, "longitude": "-1.138014"}, "context": "", "outcome_status": null, "persistent_id": "", "id": 124491225, "location_subtype": "", "month": "2024-11"}, {"category": "anti-social-behaviour", "location_type": "Force", "location": {"latitude": "52.632931", "street": {"id": 1738486, "name": "On or near Belvoir Street"}, "longitude": "-1.131038"}, "context": "", "outcome_status": null, "persistent_id": "", "id": 124491236, "location_subtype": "", "month": "2024-11"}, {"category": "anti-social-behaviour", "location_type": "Force", "location": {"latitude": "52.625999", "street": {"id": 1739014, "name": "On or near Salisbury Road"}, "longitude": "-1.121173"}, "context": "", "outcome_status": null, "persistent_id": "", "id": 124491242, "location_subtype": "", "month": "2024-11"}, {"category": "anti-social-behaviour", "location_type": "Force", "location": {"latitude": "52.626513", "street": {"id": 1738976, "name": "On or near Salisbury Road Backways"}, "longitude": "-1.121414"}, "context": "", "outcome_status": null, "persistent_id": "", "id": 124491247, "location_subtype": "", "month": "2024-11"}, {"category": "anti-social-behaviour", "location_type": "Force", "location": {"latitude": "52.634503", "street": {"id": 1737385, "name": "On or near Kate Street"}, "longitude": "-1.149403"}, "context": "", "outcome_status": null, "persistent_id": "", "id": 124491248, "location_subtype": "", "month": "2024-11"}, {"category": "anti-social-behaviour", "location_type": "Force", "location": {"latitude": "52.632171", "street": {"id": 1738533, "name": "On or near Stamford Street"}, "longitude": "-1.130358"}, "context": "", "outcome_status": null, "persistent_id": "", "id": 124490933, "location_subtype": "", "month": "2024-11"}, {"category": "anti-social-behaviour", "location_type": "Force", "location": {"latitude": "52.629221", "street": {"id": 1737316, "name": "On or near Shaftesbury Road"}, "longitude": "-1.151204"}, "context": "", "outcome_status": null, "persistent_id": "", "id": 124490968, "location_subtype": "", "month": "2024-11"}, {"category": "anti-social-behaviour", "location_type": "Force", "location": {"latitude": "52.622807", "street": {"id": 1737917, "name": "On or near Burnmoor Street"}, "longitude": "-1.139451"}, "context": "", "outcome_status": null, "persistent_id": "", "id": 124490970, "location_subtype": "", "month": "2024-11"}, {"category": "anti-social-behaviour", "location_type": "Force", "location": {"latitude": "52.636041", "street": {"id": 1738351, "name": "On or near East Gates"}, "longitude": "-1.133444"}, "context": "", "outcome_status": null, "persistent_id": "", "id": 124490971, "location_subtype": "", "month": "2024-11"}, {"category": "anti-social-behaviour", "location_type": "Force", "location": {"latitude": "52.629221", "street": {"id": 1737316, "name": "On or near Shaftesbury Road"}, "longitude": "-1.151204"}, "context": "", "outcome_status": null, "persistent_id": "", "id": 124490972, "location_subtype": "", "month": "2024-11"}, {"category": "anti-social-behaviour", "location_type": "Force", "location": {"latitude": "52.629217", "street": {"id": 1737192, "name": "On or near Westcotes Drive"}, "longitude": "-1.154484"}, "context": "", "outcome_status": null, "persistent_id": "", "id": 124490979, "location_subtype": "", "month": "2024-11"}, {"category": "anti-social-behaviour", "location_type": "Force", "location": {"latitude": "52.626733", "street": {"id": 1737627, "name": "On or near Mint Road"}, "longitude": "-1.145358"}, "context": "", "outcome_status": null, "persistent_id": "", "id": 124490985, "location_subtype": "", "month": "2024-11"}, {"category": "anti-social-behaviour", "location_type": "Force", "location": {"latitude": "52.635797", "street": {"id": 1738449, "name": "On or near Fox Lane"}, "longitude": "-1.131926"}, "context": "", "outcome_status": null, "persistent_id": "", "id": 124490991, "location_subtype": "", "month": "2024-11"}, {"category": "anti-social-behaviour", "location_type": "Force", "location": {"latitude": "52.624092", "street": {"id": 1739337, "name": "On or near Mayfield Road"}, "longitude": "-1.113810"}, "context": "", "outcome_status": null, "persistent_id": "", "id": 124491004, "location_subtype": "", "month": "2024-11"}, {"category": "anti-social-behaviour", "location_type": "Force", "location": {"latitude": "52.637627", "street": {"id": 1738668, "name": "On or near Eldon Street"}, "longitude": "-1.127782"}, "context": "", "outcome_status": null, "persistent_id": "", "id": 124491014, "location_subtype": "", "month": "2024-11"}, {"category": "anti-social-behaviour", "location_type": "Force", "location": {"latitude": "52.631813", "street": {"id": 1738223, "name": "On or near Newarke Street"}, "longitude": "-1.135537"}, "context": "", "outcome_status": null, "persistent_id": "", "id": 124491016, "location_subtype": "", "month": "2024-11"}, {"category": "anti-social-behaviour", "location_type": "Force", "location": {"latitude": "52.642883", "street": {"id": 1738841, "name": "On or near Calgary Road"}, "longitude": "-1.124914"}, "context": "", "outcome_status": null, "persistent_id": "", "id": 124491049, "location_subtype": "", "month": "2024-11"}, {"category": "anti-social-behaviour", "location_type": "Force", "location": {"latitude": "52.634995", "street": {"id": 1737585, "name": "On or near Richard Iii Road"}, "longitude": "-1.144030"}, "context": "", "outcome_status": null, "persistent_id": "", "id": 124491054, "location_subtype": "", "month": "2024-11"}, {"category": "anti-social-behaviour", "location_type": "Force", "location": {"latitude": "52.628586", "street": {"id": 1739123, "name": "On or near Highfield Street"}, "longitude": "-1.118432"}, "context": "", "outcome_status": null, "persistent_id": "", "id": 124491077, "location_subtype": "", "month": "2024-11"}, {"category": "anti-social-behaviour", "location_type": "Force", "location": {"latitude": "52.637740", "street": {"id": 1738170, "name": "On or near Church Gate"}, "longitude": "-1.134563"}, "context": "", "outcome_status": null, "persistent_id": "", "id": 124491079, "location_subtype": "", "month": "2024-11"}, {"category": "anti-social-behaviour", "location_type": "Force", "location": {"latitude": "52.637581", "street": {"id": 1738327, "name": "On or near Parking Area"}, "longitude": "-1.133709"}, "context": "", "outcome_status": null, "persistent_id": "", "id": 124491082, "location_subtype": "", "month": "2024-11"}, {"category": "anti-social-behaviour", "location_type": "Force", "location": {"latitude": "52.629982", "street": {"id": 1738203, "name": "On or near Lower Brown Street"}, "longitude": "-1.134642"}, "context": "", "outcome_status": null, "persistent_id": "", "id": 124491084, "location_subtype": "", "month": "2024-11"}, {"category": "anti-social-behaviour", "location_type": "Force", "location": {"latitude": "52.637581", "street": {"id": 1738327, "name": "On or near Parking Area"}, "longitude": "-1.133709"}, "context": "", "outcome_status": null, "persistent_id": "", "id": 124491090, "location_subtype": "", "month": "2024-11"}, {"category": "anti-social-behaviour", "location_type": "Force", "location": {"latitude": "52.637581", "street": {"id": 1738327, "name": "On or near Parking Area"}, "longitude": "-1.133709"}, "context": "", "outcome_status": null, "persistent_id": "", "id": 124491091, "location_subtype": "", "month": "2024-11"}, {"category": "anti-social-behaviour", "location_type": "Force", "location": {"latitude": "52.635797", "street": {"id": 1738449, "name": "On or near Fox Lane"}, "longitude": "-1.131926"}, "context": "", "outcome_status": null, "persistent_id": "", "id": 124491092, "location_subtype": "", "month": "2024-11"}, {"category": "anti-social-behaviour", "location_type": "Force", "location": {"latitude": "52.630202", "street": {"id": 1737556, "name": "On or near Ruding Road"}, "longitude": "-1.147639"}, "context": "", "outcome_status": null, "persistent_id": "", "id": 124491104, "location_subtype": "", "month": "2024-11"}, {"category": "anti-social-behaviour", "location_type": "Force", "location": {"latitude": "52.633053", "street": {"id": 1738548, "name": "On or near Granby Street"}, "longitude": "-1.129306"}, "context": "", "outcome_status": null, "persistent_id": "", "id": 124491113, "location_subtype": "", "month": "2024-11"}, {"category": "anti-social-behaviour", "location_type": "Force", "location": {"latitude": "52.633880", "street": {"id": 1739287, "name": "On or near Mensa Close"}, "longitude": "-1.114617"}, "context": "", "outcome_status": null, "persistent_id": "", "id": 124491120, "location_subtype": "", "month": "2024-11"}, {"category": "anti-social-behaviour", "location_type": "Force", "location": {"latitude": "52.634409", "street": {"id": 1738338, "name": "On or near Shopping Area"}, "longitude": "-1.133652"}, "context": "", "outcome_status": null, "persistent_id": "", "id": 124491128, "location_subtype": "", "month": "2024-11"}, {"category": "anti-social-behaviour", "location_type": "Force", "location": {"latitude": "52.635647", "street": {"id": 1738106, "name": "On or near Shires Lane"}, "longitude": "-1.137293"}, "context": "", "outcome_status": null, "persistent_id": "", "id": 124491138, "location_subtype": "", "month": "2024-11"}, {"category": "anti-social-behaviour", "location_type": "Force", "location": {"latitude": "52.634846", "street": {"id": 1738716, "name": "On or near Queen Street"}, "longitude": "-1.124853"}, "context": "", "outcome_status": null, "persistent_id": "", "id": 124491143, "location_subtype": "", "month": "2024-11"}, {"category": "anti-social-behaviour", "location_type": "Force", "location": {"latitude": "52.635066", "street": {"id": 1739289, "name": "On or near Wilson Street"}, "longitude": "-1.114534"}, "context": "", "outcome_status": null, "persistent_id": "", "id": 124491144, "location_subtype": "", "month": "2024-11"}, {"category": "anti-social-behaviour", "location_type": "Force", "location": {"latitude": "52.627379", "street": {"id": 1738753, "name": "On or near De Montfort Street"}, "longitude": "-1.125445"}, "context": "", "outcome_status": null, "persistent_id": "", "id": 124491153, "location_subtype": "", "month": "2024-11"}, {"category": "anti-social-behaviour", "location_type": "Force", "location": {"latitude": "52.632832", "street": {"id": 1737491, "name": "On or near Dane Street"}, "longitude": "-1.148327"}, "context": "", "outcome_status": null, "persistent_id": "", "id": 124491159, "location_subtype": "", "month": "2024-11"}, {"category": "anti-social-behaviour", "location_type": "Force", "location": {"latitude": "52.618023", "street": {"id": 1738421, "name": "On or near Putney Road"}, "longitude": "-1.129457"}, "context": "", "outcome_status": null, "persistent_id": "", "id": 124491161, "location_subtype": "", "month": "2024-11"}, {"category": "anti-social-behaviour", "location_type": "Force", "location": {"latitude": "52.635797", "street": {"id": 1738449, "name": "On or near Fox Lane"}, "longitude": "-1.131926"}, "context": "", "outcome_status": null, "persistent_id": "", "id": 124491162, "location_subtype": "", "month": "2024-11"}, {"category": "anti-social-behaviour", "location_type": "Force", "location": {"latitude": "52.635399", "street": {"id": 1738303, "name": "On or near Shopping Area"}, "longitude": "-1.134107"}, "context": "", "outcome_status": null, "persistent_id": "", "id": 124491169, "location_subtype": "", "month": "2024-11"}, {"category": "anti-social-behaviour", "location_type": "Force", "location": {"latitude": "52.637041", "street": {"id": 1738379, "name": "On or near Parking Area"}, "longitude": "-1.131222"}, "context": "", "outcome_status": null, "persistent_id": "", "id": 124491173, "location_subtype": "", "month": "2024-11"}, {"category": "anti-social-behaviour", "location_type": "Force", "location": {"latitude": "52.639155", "street": {"id": 1738074, "name": "On or near Junior Street"}, "longitude": "-1.137609"}, "context": "", "outcome_status": null, "persistent_id": "", "id": 124491175, "location_subtype": "", "month": "2024-11"}, {"category": "anti-social-behaviour", "location_type": "Force", "location": {"latitude": "52.633880", "street": {"id": 1739287, "name": "On or near Mensa Close"}, "longitude": "-1.114617"}, "context": "", "outcome_status": null, "persistent_id": "", "id": 124491183, "location_subtype": "", "month": "2024-11"}, {"category": "anti-social-behaviour", "location_type": "Force", "location": {"latitude": "52.625551", "street": {"id": 1737260, "name": "On or near Petrol Station"}, "longitude": "-1.152191"}, "context": "", "outcome_status": null, "persistent_id": "", "id": 124491182, "location_subtype": "", "month": "2024-11"}, {"category": "anti-social-behaviour", "location_type": "Force", "location": {"latitude": "52.628320", "street": {"id": 1739209, "name": "On or near Upper Tichborne Street"}, "longitude": "-1.116591"}, "context": "", "outcome_status": null, "persistent_id": "", "id": 124491482, "location_subtype": "", "month": "2024-11"}, {"category": "anti-social-behaviour", "location_type": "Force", "location": {"latitude": "52.630162", "street": {"id": 1737864, "name": "On or near Newarke Close"}, "longitude": "-1.140873"}, "context": "", "outcome_status": null, "persistent_id": "", "id": 124491484, "location_subtype": "", "month": "2024-11"}, {"category": "anti-social-behaviour", "location_type": "Force", "location": {"latitude": "52.642712", "street": {"id": 1738508, "name": "On or near Gas Street"}, "longitude": "-1.131036"}, "context": "", "outcome_status": null, "persistent_id": "", "id": 124491490, "location_subtype": "", "month": "2024-11"}, {"category": "anti-social-behaviour", "location_type": "Force", "location": {"latitude": "52.637843", "street": {"id": 1738541, "name": "On or near Shopping Area"}, "longitude": "-1.130275"}, "context": "", "outcome_status": null, "persistent_id": "", "id": 124491503, "location_subtype": "", "month": "2024-11"}, {"category": "anti-social-behaviour", "location_type": "Force", "location": {"latitude": "52.636041", "street": {"id": 1738351, "name": "On or near East Gates"}, "longitude": "-1.133444"}, "context": "", "outcome_status": null, "persistent_id": "", "id": 124491505, "location_subtype": "", "month": "2024-11"}, {"category": "anti-social-behaviour", "location_type": "Force", "location": {"latitude": "52.626513", "street": {"id": 1738976, "name": "On or near Salisbury Road Backways"}, "longitude": "-1.121414"}, "context": "", "outcome_status": null, "persistent_id": "", "id": 124491513, "location_subtype": "", "month": "2024-11"}, {"category": "anti-social-behaviour", "location_type": "Force", "location": {"latitude": "52.632743", "street": {"id": 1737208, "name": "On or near Stretton Road"}, "longitude": "-1.153471"}, "context": "", "outcome_status": null, "persistent_id": "", "id": 124491517, "location_subtype": "", "month": "2024-11"}, {"category": "anti-social-behaviour", "location_type": "Force", "location": {"latitude": "52.639558", "street": {"id": 1738364, "name": "On or near Nightclub"}, "longitude": "-1.132473"}, "context": "", "outcome_status": null, "persistent_id": "", "id": 124491518, "location_subtype": "", "month": "2024-11"}, {"category": "anti-social-behaviour", "location_type": "Force", "location": {"latitude": "52.636041", "street": {"id": 1738351, "name": "On or near East Gates"}, "longitude": "-1.133444"}, "context": "", "outcome_status": null, "persistent_id": "", "id": 124491529, "location_subtype": "", "month": "2024-11"}, {"category": "anti-social-behaviour", "location_type": "Force", "location": {"latitude": "52.628543", "street": {"id": 1738086, "name": "On or near Henshaw Street"}, "longitude": "-1.137064"}, "context": "", "outcome_status": null, "persistent_id": "", "id": 124491532, "location_subtype": "", "month": "2024-11"}, {"category": "anti-social-behaviour", "location_type": "Force", "location": {"latitude": "52.634237", "street": {"id": 1738695, "name": "On or near Conference/exhibition Centre"}, "longitude": "-1.127731"}, "context": "", "outcome_status": null, "persistent_id": "", "id": 124491538, "location_subtype": "", "month": "2024-11"}, {"category": "anti-social-behaviour", "location_type": "Force", "location": {"latitude": "52.637843", "street": {"id": 1738541, "name": "On or near Shopping Area"}, "longitude": "-1.130275"}, "context": "", "outcome_status": null, "persistent_id": "", "id": 124491540, "location_subtype": "", "month": "2024-11"}, {"category": "anti-social-behaviour", "location_type": "Force", "location": {"latitude": "52.631013", "street": {"id": 1738526, "name": "On or near Park Street"}, "longitude": "-1.130544"}, "context": "", "outcome_status": null, "persistent_id": "", "id": 124491547, "location_subtype": "", "month": "2024-11"}, {"category": "anti-social-behaviour", "location_type": "Force", "location": {"latitude": "52.636041", "street": {"id": 1738351, "name": "On or near East Gates"}, "longitude": "-1.133444"}, "context": "", "outcome_status": null, "persistent_id": "", "id": 124491549, "location_subtype": "", "month": "2024-11"}, {"category": "anti-social-behaviour", "location_type": "Force", "location": {"latitude": "52.629847", "street": {"id": 1737521, "name": "On or near Celt Street"}, "longitude": "-1.148341"}, "context": "", "outcome_status": null, "persistent_id": "", "id": 124491551, "location_subtype": "", "month": "2024-11"}, {"category": "anti-social-behaviour", "location_type": "Force", "location": {"latitude": "52.632071", "street": {"id": 1738551, "name": "On or near Chatham Street"}, "longitude": "-1.130183"}, "context": "", "outcome_status": null, "persistent_id": "", "id": 124491557, "location_subtype": "", "month": "2024-11"}, {"category": "anti-social-behaviour", "location_type": "Force", "location": {"latitude": "52.635488", "street": {"id": 1738121, "name": "On or near Carts Lane"}, "longitude": "-1.136395"}, "context": "", "outcome_status": null, "persistent_id": "", "id": 124491569, "location_subtype": "", "month": "2024-11"}, {"category": "anti-social-behaviour", "location_type": "Force", "location": {"latitude": "52.625551", "street": {"id": 1737260, "name": "On or near Petrol Station"}, "longitude": "-1.152191"}, "context": "", "outcome_status": null, "persistent_id": "", "id": 124491588, "location_subtype": "", "month": "2024-11"}, {"category": "anti-social-behaviour", "location_type": "Force", "location": {"latitude": "52.642049", "street": {"id": 1738480, "name": "On or near Navigation Street"}, "longitude": "-1.131256"}, "context": "", "outcome_status": null, "persistent_id": "", "id": 124491601, "location_subtype": "", "month": "2024-11"}, {"category": "anti-social-behaviour", "location_type": "Force", "location": {"latitude": "52.630075", "street": {"id": 1738412, "name": "On or near Duke Street"}, "longitude": "-1.132586"}, "context": "", "outcome_status": null, "persistent_id": "", "id": 124491605, "location_subtype": "", "month": "2024-11"}, {"category": "anti-social-behaviour", "location_type": "Force", "location": {"latitude": "52.639316", "street": {"id": 1738483, "name": "On or near Nightclub"}, "longitude": "-1.131354"}, "context": "", "outcome_status": null, "persistent_id": "", "id": 124491609, "location_subtype": "", "month": "2024-11"}, {"category": "anti-social-behaviour", "location_type": "Force", "location": {"latitude": "52.635797", "street": {"id": 1738449, "name": "On or near Fox Lane"}, "longitude": "-1.131926"}, "context": "", "outcome_status": null, "persistent_id": "", "id": 124491630, "location_subtype": "", "month": "2024-11"}, {"category": "anti-social-behaviour", "location_type": "Force", "location": {"latitude": "52.633317", "street": {"id": 1738721, "name": "On or near Church Street"}, "longitude": "-1.127203"}, "context": "", "outcome_status": null, "persistent_id": "", "id": 124491631, "location_subtype": "", "month": "2024-11"}, {"category": "anti-social-behaviour", "location_type": "Force", "location": {"latitude": "52.639558", "street": {"id": 1738364, "name": "On or near Nightclub"}, "longitude": "-1.132473"}, "context": "", "outcome_status": null, "persistent_id": "", "id": 124491637, "location_subtype": "", "month": "2024-11"}, {"category": "anti-social-behaviour", "location_type": "Force", "location": {"latitude": "52.633158", "street": {"id": 1738173, "name": "On or near Wycliffe Street"}, "longitude": "-1.136205"}, "context": "", "outcome_status": null, "persistent_id": "", "id": 124490813, "location_subtype": "", "month": "2024-11"}, {"category": "anti-social-behaviour", "location_type": "Force", "location": {"latitude": "52.634009", "street": {"id": 1738037, "name": "On or near Peacock Lane"}, "longitude": "-1.138330"}, "context": "", "outcome_status": null, "persistent_id": "", "id": 124490928, "location_subtype": "", "month": "2024-11"}, {"category": "anti-social-behaviour", "location_type": "Force", "location": {"latitude": "52.634169", "street": {"id": 1738654, "name": "On or near Colton Street"}, "longitude": "-1.128191"}, "context": "", "outcome_status": null, "persistent_id": "", "id": 124491211, "location_subtype": "", "month": "2024-11"}, {"category": "anti-social-behaviour", "location_type": "Force", "location": {"latitude": "52.636041", "street": {"id": 1738351, "name": "On or near East Gates"}, "longitude": "-1.133444"}, "context": "", "outcome_status": null, "persistent_id": "", "id": 124490992, "location_subtype": "", "month": "2024-11"}, {"category": "anti-social-behaviour", "location_type": "Force", "location": {"latitude": "52.632985", "street": {"id": 1737285, "name": "On or near Fosse Road Central"}, "longitude": "-1.152092"}, "context": "", "outcome_status": null, "persistent_id": "", "id": 124491038, "location_subtype": "", "month": "2024-11"}, {"category": "anti-social-behaviour", "location_type": "Force", "location": {"latitude": "52.637791", "street": {"id": 1737446, "name": "On or near Tudor Road"}, "longitude": "-1.147906"}, "context": "", "outcome_status": null, "persistent_id": "", "id": 124491172, "location_subtype": "", "month": "2024-11"}, {"category": "anti-social-behaviour", "location_type": "Force", "location": {"latitude": "52.637146", "street": {"id": 1737432, "name": "On or near Vaughan Street"}, "longitude": "-1.149381"}, "context": "", "outcome_status": null, "persistent_id": "", "id": 124491196, "location_subtype": "", "month": "2024-11"}, {"category": "anti-social-behaviour", "location_type": "Force", "location": {"latitude": "52.627960", "street": {"id": 1739460, "name": "On or near Bartholomew Street"}, "longitude": "-1.111619"}, "context": "", "outcome_status": null, "persistent_id": "", "id": 124491206, "location_subtype": "", "month": "2024-11"}, {"category": "anti-social-behaviour", "location_type": "Force", "location": {"latitude": "52.626513", "street": {"id": 1738976, "name": "On or near Salisbury Road Backways"}, "longitude": "-1.121414"}, "context": "", "outcome_status": null, "persistent_id": "", "id": 124491241, "location_subtype": "", "month": "2024-11"}, {"category": "anti-social-behaviour", "location_type": "Force", "location": {"latitude": "52.625469", "street": {"id": 1739341, "name": "On or near Chaucer Street"}, "longitude": "-1.112807"}, "context": "", "outcome_status": null, "persistent_id": "", "id": 124491252, "location_subtype": "", "month": "2024-11"}, {"category": "bicycle-theft", "location_type": "Force", "location": {"latitude": "52.630723", "street": {"id": 1737239, "name": "On or near Livingstone Street"}, "longitude": "-1.152623"}, "context": "", "outcome_status": {"category": "Investigation complete; no suspect identified", "date": "2024-11"}, "persistent_id": "00cbb35f1cf4d98cdca33049cc543afed874c86dbcc6df7f4f992effc2c003bb", "id": 124485073, "location_subtype": "", "month": "2024-11"}, {"category": "bicycle-theft", "location_type": "Force", "location": {"latitude": "52.624946", "street": {"id": 1737734, "name": "On or near Coniston Avenue"}, "longitude": "-1.141891"}, "context": "", "outcome_status": {"category": "Investigation complete; no suspect identified", "date": "2024-12"}, "persistent_id": "6f09fe1fa9d75ea77269d08f78de0c9812e72fd1ae81c56c95a98fc00de89a4d", "id": 124489375, "location_subtype": "", "month": "2024-11"}, {"category": "bicycle-theft", "location_type": "Force", "location": {"latitude": "52.630803", "street": {"id": 1737674, "name": "On or near Bede Street"}, "longitude": "-1.144983"}, "context": "", "outcome_status": {"category": "Investigation complete; no suspect identified", "date": "2024-11"}, "persistent_id": "c0e9b6b1e97d3eaa539044f44a0a309b3b7731ca780aefec34aaad614a5a40e2", "id": 124486845, "location_subtype": "", "month": "2024-11"}, {"category": "bicycle-theft", "location_type": "Force", "location": {"latitude": "52.619400", "street": {"id": 1738734, "name": "On or near Further/higher Educational Building"}, "longitude": "-1.123094"}, "context": "", "outcome_status": {"category": "Investigation complete; no suspect identified", "date": "2024-11"}, "persistent_id": "e1d54f1dc31ad2df6ec19993c18b5a355c01a8cfba9530ef1cba1dda48efc7c0", "id": 124486580, "location_subtype": "", "month": "2024-11"}, {"category": "bicycle-theft", "location_type": "Force", "location": {"latitude": "52.618429", "street": {"id": 1739131, "name": "On or near Edward Road"}, "longitude": "-1.118666"}, "context": "", "outcome_status": {"category": "Investigation complete; no suspect identified", "date": "2024-11"}, "persistent_id": "696dbfb57f106e36b5a0d32bc0ede809744d25b67c3b71f067f60134ddf240de", "id": 124486398, "location_subtype": "", "month": "2024-11"}, {"category": "bicycle-theft", "location_type": "Force", "location": {"latitude": "52.638752", "street": {"id": 1738958, "name": "On or near Brunswick Street"}, "longitude": "-1.121908"}, "context": "", "outcome_status": {"category": "Investigation complete; no suspect identified", "date": "2024-11"}, "persistent_id": "f799d67a04be5e4b89a3a01b4534e48ef21264076ce59841556acd297d16dc94", "id": 124486335, "location_subtype": "", "month": "2024-11"}, {"category": "bicycle-theft", "location_type": "Force", "location": {"latitude": "52.629831", "street": {"id": 1738423, "name": "On or near Marquis Street"}, "longitude": "-1.132503"}, "context": "", "outcome_status": {"category": "Investigation complete; no suspect identified", "date": "2024-11"}, "persistent_id": "69034af77cc20af5eedd14aabffb1313dc97edb9d61d9c7f77e01d49248ce174", "id": 124486107, "location_subtype": "", "month": "2024-11"}, {"category": "bicycle-theft", "location_type": "Force", "location": {"latitude": "52.630324", "street": {"id": 1738115, "name": "On or near Bonners Lane"}, "longitude": "-1.137103"}, "context": "", "outcome_status": {"category": "Investigation complete; no suspect identified", "date": "2024-11"}, "persistent_id": "3143d1c0fae79941128978a6e4a409008237b0f15acdcc0209e274a5a9e8751b", "id": 124489216, "location_subtype": "", "month": "2024-11"}, {"category": "bicycle-theft", "location_type": "Force", "location": {"latitude": "52.625559", "street": {"id": 1737478, "name": "On or near Sheffield Street"}, "longitude": "-1.148380"}, "context": "", "outcome_status": {"category": "Investigation complete; no suspect identified", "date": "2024-11"}, "persistent_id": "b89d0ca7637beded0711e0d751822169f8cc7cf91cc233ba968f07234be63f7c", "id": 124489028, "location_subtype": "", "month": "2024-11"}, {"category": "bicycle-theft", "location_type": "Force", "location": {"latitude": "52.634252", "street": {"id": 1738481, "name": "On or near Granby Place"}, "longitude": "-1.130997"}, "context": "", "outcome_status": {"category": "Investigation complete; no suspect identified", "date": "2024-11"}, "persistent_id": "89ce4aeab253bcc486971efdfb11e659d6c0738c55177d287961be4f11902468", "id": 124483874, "location_subtype": "", "month": "2024-11"}, {"category": "bicycle-theft", "location_type": "Force", "location": {"latitude": "52.619036", "street": {"id": 1739145, "name": "On or near Orlando Road"}, "longitude": "-1.116866"}, "context": "", "outcome_status": {"category": "Investigation complete; no suspect identified", "date": "2024-11"}, "persistent_id": "59f8c628d99c695d5a0678f917839510e3cf1d62c1e91a3d6f23c276db259be8", "id": 124488435, "location_subtype": "", "month": "2024-11"}, {"category": "bicycle-theft", "location_type": "Force", "location": {"latitude": "52.623507", "street": {"id": 1738182, "name": "On or near Aylestone Walk"}, "longitude": "-1.133174"}, "context": "", "outcome_status": {"category": "Investigation complete; no suspect identified", "date": "2024-11"}, "persistent_id": "9e8b7ed33b107500af4dc2fdaf014a031aa679163d173b544e21b3a1c9280c2c", "id": 124488398, "location_subtype": "", "month": "2024-11"}, {"category": "bicycle-theft", "location_type": "Force", "location": {"latitude": "52.640498", "street": {"id": 1737983, "name": "On or near St Margaret's Street"}, "longitude": "-1.136799"}, "context": "", "outcome_status": {"category": "Investigation complete; no suspect identified", "date": "2024-11"}, "persistent_id": "2d943b163293b93e785a3fc012504cf210204145d185dc71056cfb3b26eca4e1", "id": 124487462, "location_subtype": "", "month": "2024-11"}, {"category": "bicycle-theft", "location_type": "Force", "location": {"latitude": "52.625264", "street": {"id": 1737915, "name": "On or near Sports/recreation Area"}, "longitude": "-1.140129"}, "context": "", "outcome_status": {"category": "Investigation complete; no suspect identified", "date": "2024-11"}, "persistent_id": "0c00ca051be3977267804c5823d7baac3580dc352edc19c5dde0483fd01d8581", "id": 124484005, "location_subtype": "", "month": "2024-11"}, {"category": "bicycle-theft", "location_type": "Force", "location": {"latitude": "52.636041", "street": {"id": 1738351, "name": "On or near East Gates"}, "longitude": "-1.133444"}, "context": "", "outcome_status": {"category": "Investigation complete; no suspect identified", "date": "2024-11"}, "persistent_id": "e035ac3eb7fd9c09ccb8a9609e59e38199d144f3aa635507f2f55e63d56df096", "id": 124483724, "location_subtype": "", "month": "2024-11"}, {"category": "bicycle-theft", "location_type": "Force", "location": {"latitude": "52.634995", "street": {"id": 1737585, "name": "On or near Richard Iii Road"}, "longitude": "-1.144030"}, "context": "", "outcome_status": {"category": "Investigation complete; no suspect identified", "date": "2024-12"}, "persistent_id": "d0618020cd76dc8202d2ca7c63659fde571d641deec262aa03838e7efcb73255", "id": 124484744, "location_subtype": "", "month": "2024-11"}, {"category": "bicycle-theft", "location_type": "Force", "location": {"latitude": "52.634252", "street": {"id": 1738481, "name": "On or near Granby Place"}, "longitude": "-1.130997"}, "context": "", "outcome_status": {"category": "Investigation complete; no suspect identified", "date": "2024-11"}, "persistent_id": "47b7a4246177ccdf0388876d29f56262d4c62718fff76db5edd7ede14c54dd54", "id": 124484530, "location_subtype": "", "month": "2024-11"}, {"category": "bicycle-theft", "location_type": "Force", "location": {"latitude": "52.632111", "street": {"id": 1738172, "name": "On or near Marble Street"}, "longitude": "-1.135723"}, "context": "", "outcome_status": {"category": "Awaiting court outcome", "date": "2024-12"}, "persistent_id": "38e3b16ab54c007090d905b6c6c99180bf751ab2d7f653583f1a16bd1e343406", "id": 124485224, "location_subtype": "", "month": "2024-11"}, {"category": "bicycle-theft", "location_type": "Force", "location": {"latitude": "52.635797", "street": {"id": 1738449, "name": "On or near Fox Lane"}, "longitude": "-1.131926"}, "context": "", "outcome_status": {"category": "Investigation complete; no suspect identified", "date": "2024-11"}, "persistent_id": "6f740bbf8c369859af6eaf108fe211beeaa4495c40b593a0c588c9221888c8fa", "id": 124485574, "location_subtype": "", "month": "2024-11"}, {"category": "bicycle-theft", "location_type": "Force", "location": {"latitude": "52.637556", "street": {"id": 1738177, "name": "On or near St Peters Lane"}, "longitude": "-1.135305"}, "context": "", "outcome_status": {"category": "Investigation complete; no suspect identified", "date": "2024-11"}, "persistent_id": "ed2dfba3c612810dd947c4971feb83541fc5ec446958e4f4441905fe2d3d3137", "id": 124485577, "location_subtype": "", "month": "2024-11"}, {"category": "bicycle-theft", "location_type": "Force", "location": {"latitude": "52.632795", "street": {"id": 1738185, "name": "On or near Millstone Lane"}, "longitude": "-1.135798"}, "context": "", "outcome_status": {"category": "Awaiting court outcome", "date": "2025-02"}, "persistent_id": "c2952f4f3372db06114406b5ef440d0d3c9da200097116eec73224361fd17de4", "id": 124489029, "location_subtype": "", "month": "2024-11"}, {"category": "bicycle-theft", "location_type": "Force", "location": {"latitude": "52.618023", "street": {"id": 1738421, "name": "On or near Putney Road"}, "longitude": "-1.129457"}, "context": "", "outcome_status": {"category": "Investigation complete; no suspect identified", "date": "2024-12"}, "persistent_id": "2122d63154f383ceb206992af229a9949453425f76c6886388748ceda99c24b5", "id": 124486436, "location_subtype": "", "month": "2024-11"}, {"category": "bicycle-theft", "location_type": "Force", "location": {"latitude": "52.633274", "street": {"id": 1738832, "name": "On or near Fox Street"}, "longitude": "-1.125120"}, "context": "", "outcome_status": {"category": "Investigation complete; no suspect identified", "date": "2024-12"}, "persistent_id": "8ba740059cbab1fe482b6a58250948734c7b4bf7dc076c07472e20e7f9210e4f", "id": 124487063, "location_subtype": "", "month": "2024-11"}, {"category": "bicycle-theft", "location_type": "Force", "location": {"latitude": "52.632832", "street": {"id": 1737491, "name": "On or near Dane Street"}, "longitude": "-1.148327"}, "context": "", "outcome_status": {"category": "Investigation complete; no suspect identified", "date": "2024-11"}, "persistent_id": "f5e41f6ee98a427b148f3912419d851c67be6a55932e570fd4cf01cc8bd5d92e", "id": 124487359, "location_subtype": "", "month": "2024-11"}, {"category": "bicycle-theft", "location_type": "Force", "location": {"latitude": "52.625469", "street": {"id": 1739341, "name": "On or near Chaucer Street"}, "longitude": "-1.112807"}, "context": "", "outcome_status": {"category": "Investigation complete; no suspect identified", "date": "2024-11"}, "persistent_id": "29f46c23c148249d93c99062f536a9060f6e4c7e515684e8b48dc0ccb2113610", "id": 124483153, "location_subtype": "", "month": "2024-11"}, {"category": "bicycle-theft", "location_type": "Force", "location": {"latitude": "52.635488", "street": {"id": 1738121, "name": "On or near Carts Lane"}, "longitude": "-1.136395"}, "context": "", "outcome_status": {"category": "Investigation complete; no suspect identified", "date": "2024-12"}, "persistent_id": "500fd005ed79fc5017f2eb797f63a2a55785b5ede8433ba8a8a4d4e4044a5f1c", "id": 124487247, "location_subtype": "", "month": "2024-11"}, {"category": "bicycle-theft", "location_type": "Force", "location": {"latitude": "52.637791", "street": {"id": 1737446, "name": "On or near Tudor Road"}, "longitude": "-1.147906"}, "context": "", "outcome_status": {"category": "Investigation complete; no suspect identified", "date": "2024-12"}, "persistent_id": "c7a159cab017e672b90d963a43b27e59d2f77d6323e880535e061f648c446385", "id": 124487801, "location_subtype": "", "month": "2024-11"}, {"category": "bicycle-theft", "location_type": "Force", "location": {"latitude": "52.632111", "street": {"id": 1738172, "name": "On or near Marble Street"}, "longitude": "-1.135723"}, "context": "", "outcome_status": {"category": "Awaiting court outcome", "date": "2024-12"}, "persistent_id": "d4c07c785d0221416f318b19b417f8790e1bbdcacd90db0b176221ad6ecece98", "id": 124488044, "location_subtype": "", "month": "2024-11"}, {"category": "bicycle-theft", "location_type": "Force", "location": {"latitude": "52.630157", "street": {"id": 1737299, "name": "On or near Tyndale Street"}, "longitude": "-1.151423"}, "context": "", "outcome_status": {"category": "Investigation complete; no suspect identified", "date": "2024-12"}, "persistent_id": "9cfa89e5f6a2d976090e2e71e5ff62cc5e3c634c48213bb76d9a620c25b563c8", "id": 124488552, "location_subtype": "", "month": "2024-11"}, {"category": "bicycle-theft", "location_type": "Force", "location": {"latitude": "52.630129", "street": {"id": 1737982, "name": "On or near Conference/exhibition Centre"}, "longitude": "-1.137182"}, "context": "", "outcome_status": {"category": "Investigation complete; no suspect identified", "date": "2024-12"}, "persistent_id": "3e2240cbc12014f1c1b206d9a9b6d1483c1b5d4be4504d22e17c17741d039897", "id": 124488364, "location_subtype": "", "month": "2024-11"}, {"category": "bicycle-theft", "location_type": "Force", "location": {"latitude": "52.639709", "street": {"id": 1739017, "name": "On or near Arnold Street"}, "longitude": "-1.120041"}, "context": "", "outcome_status": {"category": "Investigation complete; no suspect identified", "date": "2025-01"}, "persistent_id": "ec23c77b3b0fa35153661e544899beff99d931647fde8cd70d002062afc9c9cd", "id": 124489123, "location_subtype": "", "month": "2024-11"}, {"category": "bicycle-theft", "location_type": "Force", "location": {"latitude": "52.632778", "street": {"id": 1737719, "name": "On or near Westbridge Close"}, "longitude": "-1.143349"}, "context": "", "outcome_status": {"category": "Investigation complete; no suspect identified", "date": "2024-12"}, "persistent_id": "241945dcf165aeb2804dd20dce354bb7411e322d440bfbadd9b3a33cac2a92d1", "id": 124489186, "location_subtype": "", "month": "2024-11"}, {"category": "bicycle-theft", "location_type": "Force", "location": {"latitude": "52.636041", "street": {"id": 1738351, "name": "On or near East Gates"}, "longitude": "-1.133444"}, "context": "", "outcome_status": {"category": "Investigation complete; no suspect identified", "date": "2024-11"}, "persistent_id": "c751cdc18d2de252e4ac246d19a7b536b87267cb638ce28211d83ad98a61d2f3", "id": 124489773, "location_subtype": "", "month": "2024-11"}, {"category": "bicycle-theft", "location_type": "Force", "location": {"latitude": "52.631131", "street": {"id": 1737644, "name": "On or near Earl Howe Terrace"}, "longitude": "-1.145568"}, "context": "", "outcome_status": {"category": "Investigation complete; no suspect identified", "date": "2024-12"}, "persistent_id": "eaa1b2254fd6c2ee2621634c89446a7084abd3f8a4fa313bd54fd48c0b083023", "id": 124490478, "location_subtype": "", "month": "2024-11"}, {"category": "bicycle-theft", "location_type": "Force", "location": {"latitude": "52.640046", "street": {"id": 1738382, "name": "On or near Nightclub"}, "longitude": "-1.132433"}, "context": "", "outcome_status": {"category": "Investigation complete; no suspect identified", "date": "2024-11"}, "persistent_id": "c8a991105d9d1ca0bbcc1d4004e6f46f56fa2579787ef3ad24925fdacdccaa2e", "id": 124485319, "location_subtype": "", "month": "2024-11"}, {"category": "bicycle-theft", "location_type": "Force", "location": {"latitude": "52.625820", "street": {"id": 1737867, "name": "On or near Windermere Street"}, "longitude": "-1.140899"}, "context": "", "outcome_status": {"category": "Investigation complete; no suspect identified", "date": "2024-12"}, "persistent_id": "a71df7a3d181ac9d361b71c61863d257cb646bc4c672151fbd409380c0b0d2d4", "id": 124488380, "location_subtype": "", "month": "2024-11"}, {"category": "bicycle-theft", "location_type": "Force", "location": {"latitude": "52.637101", "street": {"id": 1738524, "name": "On or near Shopping Area"}, "longitude": "-1.130778"}, "context": "", "outcome_status": {"category": "Investigation complete; no suspect identified", "date": "2024-11"}, "persistent_id": "0f14ea770cb34982e0ddad34081a5b92a87fce40e278a209591bd38909a89cbd", "id": 124487884, "location_subtype": "", "month": "2024-11"}, {"category": "bicycle-theft", "location_type": "Force", "location": {"latitude": "52.635797", "street": {"id": 1738449, "name": "On or near Fox Lane"}, "longitude": "-1.131926"}, "context": "", "outcome_status": {"category": "Investigation complete; no suspect identified", "date": "2024-11"}, "persistent_id": "e9af4b5d910bca18280a0345cf89c2532e29057630e9f3a9c13fe8cca447c815", "id": 124487155, "location_subtype": "", "month": "2024-11"}, {"category": "bicycle-theft", "location_type": "Force", "location": {"latitude": "52.636857", "street": {"id": 1738642, "name": "On or near St James Street"}, "longitude": "-1.128211"}, "context": "", "outcome_status": {"category": "Investigation complete; no suspect identified", "date": "2024-11"}, "persistent_id": "13cdb6bd670593e222d057e06cabdc4739a56241c07807bf32ee14ab1b60d229", "id": 124483507, "location_subtype": "", "month": "2024-11"}, {"category": "bicycle-theft", "location_type": "BTP", "location": {"latitude": "52.629997", "street": {"id": 2347995, "name": "Leicester (station)"}, "longitude": "-1.125659"}, "context": "", "outcome_status": {"category": "Under investigation", "date": "2024-11"}, "persistent_id": "", "id": 126084161, "location_subtype": "STATION", "month": "2024-11"}, {"category": "bicycle-theft", "location_type": "Force", "location": {"latitude": "52.638366", "street": {"id": 1738144, "name": "On or near Short Street"}, "longitude": "-1.134122"}, "context": "", "outcome_status": {"category": "Investigation complete; no suspect identified", "date": "2024-11"}, "persistent_id": "6dd8cf4f3c7d4b4bad8d28a0aadd38a681e16c012554c2025fd2f08d0581ee94", "id": 124484585, "location_subtype": "", "month": "2024-11"}, {"category": "bicycle-theft", "location_type": "Force", "location": {"latitude": "52.632999", "street": {"id": 1738125, "name": "On or near Friar Lane"}, "longitude": "-1.136548"}, "context": "", "outcome_status": {"category": "Investigation complete; no suspect identified", "date": "2024-12"}, "persistent_id": "edbe46fb3a1fdc43f2be23205f0e19f1c922360753ce00a7b6d57dec3f005303", "id": 124488525, "location_subtype": "", "month": "2024-11"}, {"category": "bicycle-theft", "location_type": "Force", "location": {"latitude": "52.630999", "street": {"id": 1737834, "name": "On or near The Newarke"}, "longitude": "-1.140931"}, "context": "", "outcome_status": {"category": "Investigation complete; no suspect identified", "date": "2024-11"}, "persistent_id": "6541d9a47cd356cd565c62f03b9efc57014fdd50b24052d0b3db2d4c1c7627eb", "id": 124486059, "location_subtype": "", "month": "2024-11"}, {"category": "bicycle-theft", "location_type": "Force", "location": {"latitude": "52.631779", "street": {"id": 1737744, "name": "On or near Conference/exhibition Centre"}, "longitude": "-1.143221"}, "context": "", "outcome_status": {"category": "Unable to prosecute suspect", "date": "2024-12"}, "persistent_id": "1b63a99dea3bd2478bac33673901b78b64d363b4cf6051c4a785caea480cfc64", "id": 124487676, "location_subtype": "", "month": "2024-11"}, {"category": "bicycle-theft", "location_type": "Force", "location": {"latitude": "52.636041", "street": {"id": 1738351, "name": "On or near East Gates"}, "longitude": "-1.133444"}, "context": "", "outcome_status": {"category": "Investigation complete; no suspect identified", "date": "2024-11"}, "persistent_id": "3f5121c15bc7f204ef39543349ba1acb73e1ea08db57ee963dbb69654ee07e72", "id": 124484617, "location_subtype": "", "month": "2024-11"}, {"category": "bicycle-theft", "location_type": "Force", "location": {"latitude": "52.634237", "street": {"id": 1738695, "name": "On or near Conference/exhibition Centre"}, "longitude": "-1.127731"}, "context": "", "outcome_status": {"category": "Investigation complete; no suspect identified", "date": "2024-11"}, "persistent_id": "1b678081caff9cdc6ce38538338ca8ae57a911730e1822a88845ca93f2921591", "id": 124484810, "location_subtype": "", "month": "2024-11"}, {"category": "bicycle-theft", "location_type": "Force", "location": {"latitude": "52.627299", "street": {"id": 1737468, "name": "On or near Norman Street"}, "longitude": "-1.148966"}, "context": "", "outcome_status": {"category": "Investigation complete; no suspect identified", "date": "2025-01"}, "persistent_id": "05a6c36551b5d7186acc2f5e127e2f21480340c5cba86729eb60e5d45bce38e6", "id": 124483605, "location_subtype": "", "month": "2024-11"}, {"category": "bicycle-theft", "location_type": "Force", "location": {"latitude": "52.637581", "street": {"id": 1738327, "name": "On or near Parking Area"}, "longitude": "-1.133709"}, "context": "", "outcome_status": {"category": "Investigation complete; no suspect identified", "date": "2024-11"}, "persistent_id": "a9bfd6f77c3bcf3873c23f2e238139e4d81bd20c63ab7b294b75407707b5ee77", "id": 124482904, "location_subtype": "", "month": "2024-11"}, {"category": "bicycle-theft", "location_type": "Force", "location": {"latitude": "52.636041", "street": {"id": 1738351, "name": "On or near East Gates"}, "longitude": "-1.133444"}, "context": "", "outcome_status": {"category": "Investigation complete; no suspect identified", "date": "2024-11"}, "persistent_id": "0c5f57f2f36f013d4da0f017da2695778f40e485cb86de6ad2d578f407594470", "id": 124483644, "location_subtype": "", "month": "2024-11"}, {"category": "bicycle-theft", "location_type": "Force", "location": {"latitude": "52.636857", "street": {"id": 1738642, "name": "On or near St James Street"}, "longitude": "-1.128211"}, "context": "", "outcome_status": {"category": "Investigation complete; no suspect identified", "date": "2024-11"}, "persistent_id": "a3bef8d6ab17db3eb7a89bbccdca23126739ed33567921022f045cc92c5a7ceb", "id": 124482861, "location_subtype": "", "month": "2024-11"}, {"category": "burglary", "location_type": "Force", "location": {"latitude": "52.635647", "street": {"id": 1738106, "name": "On or near Shires Lane"}, "longitude": "-1.137293"}, "context": "", "outcome_status": {"category": "Awaiting court outcome", "date": "2024-11"}, "persistent_id": "02de67d51ceb3be3e69c4477bf28daba689fccb8d5e484f6918b1dc548d71686", "id": 124489037, "location_subtype": "", "month": "2024-11"}, {"category": "burglary", "location_type": "Force", "location": {"latitude": "52.631507", "street": {"id": 1737695, "name": "On or near Nightclub"}, "longitude": "-1.145324"}, "context": "", "outcome_status": {"category": "Investigation complete; no suspect identified", "date": "2024-12"}, "persistent_id": "40d45857377c952a350d22213bc12a7febb61b156abab17c02a68a11db6b0634", "id": 124489340, "location_subtype": "", "month": "2024-11"}, {"category": "burglary", "location_type": "Force", "location": {"latitude": "52.634991", "street": {"id": 1738162, "name": "On or near Loseby Lane"}, "longitude": "-1.136050"}, "context": "", "outcome_status": {"category": "Awaiting court outcome", "date": "2024-12"}, "persistent_id": "369f23f5aae4db84bc80d49b49566381ea6912b060dadbc00004188e944b0843", "id": 124489373, "location_subtype": "", "month": "2024-11"}, {"category": "burglary", "location_type": "Force", "location": {"latitude": "52.627308", "street": {"id": 1737263, "name": "On or near Browning Street"}, "longitude": "-1.152778"}, "context": "", "outcome_status": {"category": "Investigation complete; no suspect identified", "date": "2024-12"}, "persistent_id": "aa7740755558b331690067a57079405f62bc0eebc6dd81be14b4aab580ce6fa4", "id": 124490308, "location_subtype": "", "month": "2024-11"}, {"category": "burglary", "location_type": "Force", "location": {"latitude": "52.630574", "street": {"id": 1738432, "name": "On or near King Street"}, "longitude": "-1.131985"}, "context": "", "outcome_status": {"category": "Investigation complete; no suspect identified", "date": "2024-12"}, "persistent_id": "2d32ebe3ec2532b347286c84112dbc72ee1056d7db482774eadc1cd029698e71", "id": 124487399, "location_subtype": "", "month": "2024-11"}, {"category": "burglary", "location_type": "Force", "location": {"latitude": "52.623968", "street": {"id": 1737354, "name": "On or near Walton Street"}, "longitude": "-1.150789"}, "context": "", "outcome_status": {"category": "Investigation complete; no suspect identified", "date": "2024-12"}, "persistent_id": "2d7183ad2d35abe7bdd8e3d21d9f90006d72954d69d11e0857f27d0e5a788ba5", "id": 124488972, "location_subtype": "", "month": "2024-11"}, {"category": "burglary", "location_type": "Force", "location": {"latitude": "52.626137", "street": {"id": 1737324, "name": "On or near Upperton Road"}, "longitude": "-1.151235"}, "context": "", "outcome_status": {"category": "Under investigation", "date": "2024-11"}, "persistent_id": "edbc6f75355a0bfcfe6e829c73ddc323d908a8df7ce79dbff038f6e148ce7263", "id": 124483109, "location_subtype": "", "month": "2024-11"}, {"category": "burglary", "location_type": "Force", "location": {"latitude": "52.633709", "street": {"id": 1738109, "name": "On or near New Street"}, "longitude": "-1.136563"}, "context": "", "outcome_status": {"category": "Awaiting court outcome", "date": "2024-11"}, "persistent_id": "2e84b92968aa5a9599da3142d221a8e6d81a4d2498cc443d86b1c905f6647505", "id": 124484507, "location_subtype": "", "month": "2024-11"}, {"category": "burglary", "location_type": "Force", "location": {"latitude": "52.634409", "street": {"id": 1738338, "name": "On or near Shopping Area"}, "longitude": "-1.133652"}, "context": "", "outcome_status": {"category": "Unable to prosecute suspect", "date": "2024-12"}, "persistent_id": "9297b7c30a1ca6468b321fb03fc0a741e0141d56c914a262961742588f4ea2db", "id": 124485370, "location_subtype": "", "month": "2024-11"}, {"category": "burglary", "location_type": "Force", "location": {"latitude": "52.623968", "street": {"id": 1737354, "name": "On or near Walton Street"}, "longitude": "-1.150789"}, "context": "", "outcome_status": {"category": "Investigation complete; no suspect identified", "date": "2024-11"}, "persistent_id": "f69682fd6684f63658946ab0880f9d55e87c82f4d129be1a4fdd556539974a13", "id": 124485936, "location_subtype": "", "month": "2024-11"}, {"category": "burglary", "location_type": "Force", "location": {"latitude": "52.621217", "street": {"id": 1737965, "name": "On or near Pavilion Close"}, "longitude": "-1.138404"}, "context": "", "outcome_status": {"category": "Investigation complete; no suspect identified", "date": "2024-12"}, "persistent_id": "ac72a58fc5bb8eda405d8d3b2766bc5d4b2eccfb20d47a296ca3952827c1c5af", "id": 124490244, "location_subtype": "", "month": "2024-11"}, {"category": "burglary", "location_type": "Force", "location": {"latitude": "52.632111", "street": {"id": 1738172, "name": "On or near Marble Street"}, "longitude": "-1.135723"}, "context": "", "outcome_status": {"category": "Unable to prosecute suspect", "date": "2025-01"}, "persistent_id": "ddc4aad42d4bc0196033895e1a2ca221ff1e67f55fd7b766ba02502f26a2b903", "id": 124489924, "location_subtype": "", "month": "2024-11"}, {"category": "burglary", "location_type": "Force", "location": {"latitude": "52.634849", "street": {"id": 1738676, "name": "On or near Rutland Street"}, "longitude": "-1.127749"}, "context": "", "outcome_status": {"category": "Investigation complete; no suspect identified", "date": "2024-12"}, "persistent_id": "70b1a4f3b30bcec777864b921ee16792b4db9cc6397a12f4423a3e7dfeb3a0c6", "id": 124489886, "location_subtype": "", "month": "2024-11"}, {"category": "burglary", "location_type": "Force", "location": {"latitude": "52.630803", "street": {"id": 1737674, "name": "On or near Bede Street"}, "longitude": "-1.144983"}, "context": "", "outcome_status": {"category": "Investigation complete; no suspect identified", "date": "2024-12"}, "persistent_id": "8c884b966b1a57fe90769c42e11e1441f801813b3ba61bea6131e0cc5625e6b3", "id": 124489817, "location_subtype": "", "month": "2024-11"}, {"category": "burglary", "location_type": "Force", "location": {"latitude": "52.635647", "street": {"id": 1738106, "name": "On or near Shires Lane"}, "longitude": "-1.137293"}, "context": "", "outcome_status": {"category": "Investigation complete; no suspect identified", "date": "2024-12"}, "persistent_id": "c8498ec098885c05dcc95f2c9bbb3a6349e943482a8a10ad9ea503ab6c767f97", "id": 124490117, "location_subtype": "", "month": "2024-11"}, {"category": "burglary", "location_type": "Force", "location": {"latitude": "52.624679", "street": {"id": 1739302, "name": "On or near St James Terrace"}, "longitude": "-1.114123"}, "context": "", "outcome_status": {"category": "Awaiting court outcome", "date": "2025-02"}, "persistent_id": "0eaabcd1353fd2a06bbf73aab50c5173f84c91b1dec4f3e6d67d262d435e3098", "id": 124489258, "location_subtype": "", "month": "2024-11"}, {"category": "burglary", "location_type": "Force", "location": {"latitude": "52.618429", "street": {"id": 1739131, "name": "On or near Edward Road"}, "longitude": "-1.118666"}, "context": "", "outcome_status": {"category": "Investigation complete; no suspect identified", "date": "2024-12"}, "persistent_id": "989dd6e046d4e570a7ce84ccf4770aeee36e33b0a8c946349d3b5b66c6e7cfd0", "id": 124489640, "location_subtype": "", "month": "2024-11"}, {"category": "burglary", "location_type": "Force", "location": {"latitude": "52.634991", "street": {"id": 1738162, "name": "On or near Loseby Lane"}, "longitude": "-1.136050"}, "context": "", "outcome_status": {"category": "Awaiting court outcome", "date": "2024-11"}, "persistent_id": "86a5ac6317b42503600943e44313af5ef3866158516345e1d3d7ae9c091aa06e", "id": 124489561, "location_subtype": "", "month": "2024-11"}, {"category": "burglary", "location_type": "Force", "location": {"latitude": "52.640579", "street": {"id": 1738507, "name": "On or near Wood Street"}, "longitude": "-1.130635"}, "context": "", "outcome_status": {"category": "Unable to prosecute suspect", "date": "2024-12"}, "persistent_id": "82f45784e90002950158283167c4b60f171a5608ec1614bf0548f0ea51c3057b", "id": 124488971, "location_subtype": "", "month": "2024-11"}, {"category": "burglary", "location_type": "Force", "location": {"latitude": "52.623456", "street": {"id": 1737332, "name": "On or near Eastleigh Road"}, "longitude": "-1.150932"}, "context": "", "outcome_status": {"category": "Under investigation", "date": "2024-11"}, "persistent_id": "961b2e183ee2dec3d506674d9fbde6e0a7ed0e4fb4094a89490db13e390569a2", "id": 124488117, "location_subtype": "", "month": "2024-11"}, {"category": "burglary", "location_type": "Force", "location": {"latitude": "52.635797", "street": {"id": 1738449, "name": "On or near Fox Lane"}, "longitude": "-1.131926"}, "context": "", "outcome_status": {"category": "Investigation complete; no suspect identified", "date": "2024-12"}, "persistent_id": "5c9984fed4295758a98b70399eebe16ecba66d1c455505086d8950208e6f6e41", "id": 124489449, "location_subtype": "", "month": "2024-11"}, {"category": "burglary", "location_type": "Force", "location": {"latitude": "52.631767", "street": {"id": 1738612, "name": "On or near Dover Street"}, "longitude": "-1.129155"}, "context": "", "outcome_status": {"category": "Investigation complete; no suspect identified", "date": "2024-12"}, "persistent_id": "e51834e58492231e46423095ccd4a1a0f06f47847c82c7f5db3ac6697e560922", "id": 124487887, "location_subtype": "", "month": "2024-11"}, {"category": "burglary", "location_type": "Force", "location": {"latitude": "52.631767", "street": {"id": 1738612, "name": "On or near Dover Street"}, "longitude": "-1.129155"}, "context": "", "outcome_status": {"category": "Investigation complete; no suspect identified", "date": "2024-12"}, "persistent_id": "3186948875bf4622c3781401468614c6b472ac9f2b82b57f4447e6993b8be329", "id": 124487888, "location_subtype": "", "month": "2024-11"}, {"category": "burglary", "location_type": "Force", "location": {"latitude": "52.628256", "street": {"id": 1737513, "name": "On or near Briton Street"}, "longitude": "-1.148327"}, "context": "", "outcome_status": {"category": "Action to be taken by another organisation", "date": "2024-12"}, "persistent_id": "e5401c38953be5ba0018eedbe6b4763cb8a8d683b2aaec9fc40e9241c2b43dfe", "id": 124487115, "location_subtype": "", "month": "2024-11"}, {"category": "burglary", "location_type": "Force", "location": {"latitude": "52.628111", "street": {"id": 1737188, "name": "On or near Barclay Street"}, "longitude": "-1.154417"}, "context": "", "outcome_status": {"category": "Unable to prosecute suspect", "date": "2024-12"}, "persistent_id": "af0ab106542a5259b9102029555afb3fcdf283f4cf78309bb3cd58ea086596a4", "id": 124487374, "location_subtype": "", "month": "2024-11"}, {"category": "burglary", "location_type": "Force", "location": {"latitude": "52.626576", "street": {"id": 1737515, "name": "On or near Paton Street"}, "longitude": "-1.148404"}, "context": "", "outcome_status": {"category": "Investigation complete; no suspect identified", "date": "2024-12"}, "persistent_id": "f6f7f10d8aec53128107fc93dcd1be0ad9e255e78fa0cd8aac99aec7804e5ac1", "id": 124486756, "location_subtype": "", "month": "2024-11"}, {"category": "burglary", "location_type": "Force", "location": {"latitude": "52.634392", "street": {"id": 1737937, "name": "On or near Parking Area"}, "longitude": "-1.140229"}, "context": "", "outcome_status": {"category": "Awaiting court outcome", "date": "2025-01"}, "persistent_id": "a16bae36698cd764e13bc592356ab47ca216b3d5e04ca82d0ff5a83b1d267b9c", "id": 124486799, "location_subtype": "", "month": "2024-11"}, {"category": "burglary", "location_type": "Force", "location": {"latitude": "52.636041", "street": {"id": 1738351, "name": "On or near East Gates"}, "longitude": "-1.133444"}, "context": "", "outcome_status": {"category": "Under investigation", "date": "2024-11"}, "persistent_id": "6be500b543b52b6c78b4de7ae1fb3724c4e50424ea57299e7354902c79774bf5", "id": 124486203, "location_subtype": "", "month": "2024-11"}, {"category": "burglary", "location_type": "Force", "location": {"latitude": "52.634833", "street": {"id": 1739349, "name": "On or near Duffield Street"}, "longitude": "-1.113475"}, "context": "", "outcome_status": {"category": "Investigation complete; no suspect identified", "date": "2024-12"}, "persistent_id": "86ed252042747d0fce693f3764639feb1382d2ae7f18dc0b6171525454bd8d7b", "id": 124485799, "location_subtype": "", "month": "2024-11"}, {"category": "burglary", "location_type": "Force", "location": {"latitude": "52.627432", "street": {"id": 1737986, "name": "On or near Jarrom Street"}, "longitude": "-1.138755"}, "context": "", "outcome_status": {"category": "Investigation complete; no suspect identified", "date": "2024-12"}, "persistent_id": "bd0e3de9556f5e26891fd16dace719fe80729f615a5eb2b17e4e6706e456ad28", "id": 124485726, "location_subtype": "", "month": "2024-11"}, {"category": "burglary", "location_type": "Force", "location": {"latitude": "52.632901", "street": {"id": 1738395, "name": "On or near Nightclub"}, "longitude": "-1.131836"}, "context": "", "outcome_status": {"category": "Investigation complete; no suspect identified", "date": "2024-11"}, "persistent_id": "787db2ead6afbaf73aab97bfdeea1d076ede2c3a0b8f4956462eb444925a461a", "id": 124485142, "location_subtype": "", "month": "2024-11"}, {"category": "burglary", "location_type": "Force", "location": {"latitude": "52.623968", "street": {"id": 1737354, "name": "On or near Walton Street"}, "longitude": "-1.150789"}, "context": "", "outcome_status": {"category": "Investigation complete; no suspect identified", "date": "2024-11"}, "persistent_id": "4e2d51b4407b5efdd8837c333a6d826d2d3469dd07d95797ee0a1861036a931b", "id": 124484247, "location_subtype": "", "month": "2024-11"}, {"category": "burglary", "location_type": "Force", "location": {"latitude": "52.628473", "street": {"id": 1737234, "name": "On or near Harrow Road"}, "longitude": "-1.153553"}, "context": "", "outcome_status": {"category": "Unable to prosecute suspect", "date": "2024-12"}, "persistent_id": "e16d35f2c4707aa33449a08b8f663f1b4431a6658dd00365d24fc96bf5215968", "id": 124483813, "location_subtype": "", "month": "2024-11"}, {"category": "burglary", "location_type": "Force", "location": {"latitude": "52.621991", "street": {"id": 1737463, "name": "On or near Blue Fox Close"}, "longitude": "-1.149705"}, "context": "", "outcome_status": {"category": "Investigation complete; no suspect identified", "date": "2024-11"}, "persistent_id": "eb8aad5a4a09541148b42bb7eddc0d4228745773c923e3f39fed8b1304066960", "id": 124484158, "location_subtype": "", "month": "2024-11"}, {"category": "burglary", "location_type": "Force", "location": {"latitude": "52.636857", "street": {"id": 1738642, "name": "On or near St James Street"}, "longitude": "-1.128211"}, "context": "", "outcome_status": {"category": "Awaiting court outcome", "date": "2024-11"}, "persistent_id": "eb7de429751b1d6aabf5d861c9175cddc9b1dda21f8ccfa9cdbc19e4127771cf", "id": 124484148, "location_subtype": "", "month": "2024-11"}, {"category": "burglary", "location_type": "Force", "location": {"latitude": "52.640550", "street": {"id": 1738447, "name": "On or near Orchard Street"}, "longitude": "-1.131581"}, "context": "", "outcome_status": {"category": "Under investigation", "date": "2024-11"}, "persistent_id": "b9ecfb87b2b07ce57af998d9a68128a73db195cb68b74b3d906e2f239973bdce", "id": 124483518, "location_subtype": "", "month": "2024-11"},