[{"category": "anti-social-behaviour", "location_type": "Force", "location": {"latitude": "51.514064", "street": {"id": 1679774, "name": "On or near Kean Street"}, "longitude": "-0.118890"}, "context": "", "outcome_status": null, "persistent_id": "", "id": 123086486, "location_subtype": "", "month": "2024-03"}, {"category": "anti-social-behaviour", "location_type": "Force", "location": {"latitude": "51.499894", "street": {"id": 1677725, "name": "On or near Shopping Area"}, "longitude": "-0.132899"}, "context": "", "outcome_status": null, "persistent_id": "", "id": 123120354, "location_subtype": "", "month": "2024-03"}, {"category": "anti-social-behaviour", "location_type": "Force", "location": {"latitude": "51.497580", "street": {"id": 1680887, "name": "On or near Police Station"}, "longitude": "-0.111573"}, "context": "", "outcome_status": null, "persistent_id": "", "id": 123120193, "location_subtype": "", "month": "2024-03"}, {"category": "anti-social-behaviour", "location_type": "Force", "location": {"latitude": "51.519378", "street": {"id": 1677300, "name": "On or near Goodge Street"}, "longitude": "-0.135737"}, "context": "", "outcome_status": null, "persistent_id": "", "id": 123120111, "location_subtype": "", "month": "2024-03"}, {"category": "anti-social-behaviour", "location_type": "Force", "location": {"latitude": "51.518281", "street": {"id": 1680923, "name": "On or near Chancery Lane"}, "longitude": "-0.111596"}, "context": "", "outcome_status": null, "persistent_id": "", "id": 123119863, "location_subtype": "", "month": "2024-03"}, {"category": "anti-social-behaviour", "location_type": "Force", "location": {"latitude": "51.514286", "street": {"id": 1677663, "name": "On or near Chapone Place"}, "longitude": "-0.132818"}, "context": "", "outcome_status": null, "persistent_id": "", "id": 123119822, "location_subtype": "", "month": "2024-03"}, {"category": "anti-social-behaviour", "location_type": "Force", "location": {"latitude": "51.517114", "street": {"id": 1679776, "name": "On or near Gate Street"}, "longitude": "-0.119009"}, "context": "", "outcome_status": null, "persistent_id": "", "id": 123119755, "location_subtype": "", "month": "2024-03"}, {"category": "anti-social-behaviour", "location_type": "Force", "location": {"latitude": "51.510900", "street": {"id": 1678414, "name": "On or near Theatre/concert Hall"}, "longitude": "-0.127984"}, "context": "", "outcome_status": null, "persistent_id": "", "id": 123119682, "location_subtype": "", "month": "2024-03"}, {"category": "anti-social-behaviour", "location_type": "Force", "location": {"latitude": "51.510520", "street": {"id": 1677019, "name": "On or near Glasshouse Street"}, "longitude": "-0.137439"}, "context": "", "outcome_status": null, "persistent_id": "", "id": 123119654, "location_subtype": "", "month": "2024-03"}, {"category": "anti-social-behaviour", "location_type": "Force", "location": {"latitude": "51.499907", "street": {"id": 1681271, "name": "On or near Frazier Street"}, "longitude": "-0.109805"}, "context": "", "outcome_status": null, "persistent_id": "", "id": 123119574, "location_subtype": "", "month": "2024-03"}, {"category": "anti-social-behaviour", "location_type": "Force", "location": {"latitude": "51.499907", "street": {"id": 1681271, "name": "On or near Frazier Street"}, "longitude": "-0.109805"}, "context": "", "outcome_status": null, "persistent_id": "", "id": 123119571, "location_subtype": "", "month": "2024-03"}, {"category": "anti-social-behaviour", "location_type": "Force", "location": {"latitude": "51.514286", "street": {"id": 1677663, "name": "On or near Chapone Place"}, "longitude": "-0.132818"}, "context": "", "outcome_status": null, "persistent_id": "", "id": 123119518, "location_subtype": "", "month": "2024-03"}, {"category": "anti-social-behaviour", "location_type": "Force", "location": {"latitude": "51.500978", "street": {"id": 1678704, "name": "On or near Bridge Street"}, "longitude": "-0.125524"}, "context": "", "outcome_status": null, "persistent_id": "", "id": 123119486, "location_subtype": "", "month": "2024-03"}, {"category": "anti-social-behaviour", "location_type": "Force", "location": {"latitude": "51.514286", "street": {"id": 1677663, "name": "On or near Chapone Place"}, "longitude": "-0.132818"}, "context": "", "outcome_status": null, "persistent_id": "", "id": 123119453, "location_subtype": "", "month": "2024-03"}, {"category": "anti-social-behaviour", "location_type": "Force", "location": {"latitude": "51.512855", "street": {"id": 1678860, "name": "On or near B402"}, "longitude": "-0.124820"}, "context": "", "outcome_status": null, "persistent_id": "", "id": 123119394, "location_subtype": "", "month": "2024-03"}, {"category": "anti-social-behaviour", "location_type": "Force", "location": {"latitude": "51.507725", "street": {"id": 1678750, "name": "On or near Corner House Street"}, "longitude": "-0.125708"}, "context": "", "outcome_status": null, "persistent_id": "", "id": 123119291, "location_subtype": "", "month": "2024-03"}, {"category": "anti-social-behaviour", "location_type": "Force", "location": {"latitude": "51.517803", "street": {"id": 1677586, "name": "On or near Percy Mews"}, "longitude": "-0.133971"}, "context": "", "outcome_status": null, "persistent_id": "", "id": 123119198, "location_subtype": "", "month": "2024-03"}, {"category": "anti-social-behaviour", "location_type": "Force", "location": {"latitude": "51.500978", "street": {"id": 1678704, "name": "On or near Bridge Street"}, "longitude": "-0.125524"}, "context": "", "outcome_status": null, "persistent_id": "", "id": 123118967, "location_subtype": "", "month": "2024-03"}, {"category": "anti-social-behaviour", "location_type": "Force", "location": {"latitude": "51.510141", "street": {"id": 1676248, "name": "On or near Grafton Street"}, "longitude": "-0.143046"}, "context": "", "outcome_status": null, "persistent_id": "", "id": 123118727, "location_subtype": "", "month": "2024-03"}, {"category": "anti-social-behaviour", "location_type": "Force", "location": {"latitude": "51.513205", "street": {"id": 1678985, "name": "On or near Long Acre"}, "longitude": "-0.124229"}, "context": "", "outcome_status": null, "persistent_id": "", "id": 123118611, "location_subtype": "", "month": "2024-03"}, {"category": "anti-social-behaviour", "location_type": "Force", "location": {"latitude": "51.507197", "street": {"id": 1680641, "name": "On or near Theatre/concert Hall"}, "longitude": "-0.113626"}, "context": "", "outcome_status": null, "persistent_id": "", "id": 123118501, "location_subtype": "", "month": "2024-03"}, {"category": "anti-social-behaviour", "location_type": "Force", "location": {"latitude": "51.510468", "street": {"id": 1678029, "name": "On or near Leicester Square"}, "longitude": "-0.130769"}, "context": "", "outcome_status": null, "persistent_id": "", "id": 123118189, "location_subtype": "", "month": "2024-03"}, {"category": "anti-social-behaviour", "location_type": "Force", "location": {"latitude": "51.513753", "street": {"id": 1678851, "name": "On or near Shelton Street"}, "longitude": "-0.125331"}, "context": "", "outcome_status": null, "persistent_id": "", "id": 123118034, "location_subtype": "", "month": "2024-03"}, {"category": "anti-social-behaviour", "location_type": "Force", "location": {"latitude": "51.514684", "street": {"id": 1676465, "name": "On or near Argyll Street"}, "longitude": "-0.140844"}, "context": "", "outcome_status": null, "persistent_id": "", "id": 123117902, "location_subtype": "", "month": "2024-03"}, {"category": "anti-social-behaviour", "location_type": "Force", "location": {"latitude": "51.513848", "street": {"id": 1678270, "name": "On or near Old Compton Street"}, "longitude": "-0.129593"}, "context": "", "outcome_status": null, "persistent_id": "", "id": 123117649, "location_subtype": "", "month": "2024-03"}, {"category": "anti-social-behaviour", "location_type": "Force", "location": {"latitude": "51.514916", "street": {"id": 1679680, "name": "On or near Keeley Street"}, "longitude": "-0.119850"}, "context": "", "outcome_status": null, "persistent_id": "", "id": 123117047, "location_subtype": "", "month": "2024-03"}, {"category": "anti-social-behaviour", "location_type": "Force", "location": {"latitude": "51.516178", "street": {"id": 1677833, "name": "On or near Further/higher Educational Building"}, "longitude": "-0.131904"}, "context": "", "outcome_status": null, "persistent_id": "", "id": 123117018, "location_subtype": "", "month": "2024-03"}, {"category": "anti-social-behaviour", "location_type": "Force", "location": {"latitude": "51.520719", "street": {"id": 1679428, "name": "On or near Boswell Street"}, "longitude": "-0.121182"}, "context": "", "outcome_status": null, "persistent_id": "", "id": 123116898, "location_subtype": "", "month": "2024-03"}, {"category": "anti-social-behaviour", "location_type": "Force", "location": {"latitude": "51.517803", "street": {"id": 1677586, "name": "On or near Percy Mews"}, "longitude": "-0.133971"}, "context": "", "outcome_status": null, "persistent_id": "", "id": 123116840, "location_subtype": "", "month": "2024-03"}, {"category": "anti-social-behaviour", "location_type": "Force", "location": {"latitude": "51.499042", "street": {"id": 1680867, "name": "On or near Lambeth North"}, "longitude": "-0.111930"}, "context": "", "outcome_status": null, "persistent_id": "", "id": 123116832, "location_subtype": "", "month": "2024-03"}, {"category": "anti-social-behaviour", "location_type": "Force", "location": {"latitude": "51.517803", "street": {"id": 1677586, "name": "On or near Percy Mews"}, "longitude": "-0.133971"}, "context": "", "outcome_status": null, "persistent_id": "", "id": 123116781, "location_subtype": "", "month": "2024-03"}, {"category": "anti-social-behaviour", "location_type": "Force", "location": {"latitude": "51.519092", "street": {"id": 1679240, "name": "On or near Bloomsbury Square"}, "longitude": "-0.122330"}, "context": "", "outcome_status": null, "persistent_id": "", "id": 123114946, "location_subtype": "", "month": "2024-03"}, {"category": "anti-social-behaviour", "location_type": "Force", "location": {"latitude": "51.510468", "street": {"id": 1678029, "name": "On or near Leicester Square"}, "longitude": "-0.130769"}, "context": "", "outcome_status": null, "persistent_id": "", "id": 123114918, "location_subtype": "", "month": "2024-03"}, {"category": "anti-social-behaviour", "location_type": "Force", "location": {"latitude": "51.495415", "street": {"id": 1678026, "name": "On or near Monck Street"}, "longitude": "-0.130794"}, "context": "", "outcome_status": null, "persistent_id": "", "id": 123114886, "location_subtype": "", "month": "2024-03"}, {"category": "anti-social-behaviour", "location_type": "Force", "location": {"latitude": "51.517741", "street": {"id": 1676209, "name": "On or near Langham Place"}, "longitude": "-0.143126"}, "context": "", "outcome_status": null, "persistent_id": "", "id": 123114852, "location_subtype": "", "month": "2024-03"}, {"category": "anti-social-behaviour", "location_type": "Force", "location": {"latitude": "51.516820", "street": {"id": 1678501, "name": "On or near Dyott Street"}, "longitude": "-0.127583"}, "context": "", "outcome_status": null, "persistent_id": "", "id": 123114712, "location_subtype": "", "month": "2024-03"}, {"category": "anti-social-behaviour", "location_type": "Force", "location": {"latitude": "51.507394", "street": {"id": 1678399, "name": "On or near Charing Cross"}, "longitude": "-0.128042"}, "context": "", "outcome_status": null, "persistent_id": "", "id": 123114640, "location_subtype": "", "month": "2024-03"}, {"category": "anti-social-behaviour", "location_type": "Force", "location": {"latitude": "51.514537", "street": {"id": 1678431, "name": "On or near St Giles Passage"}, "longitude": "-0.128196"}, "context": "", "outcome_status": null, "persistent_id": "", "id": 123113474, "location_subtype": "", "month": "2024-03"}, {"category": "anti-social-behaviour", "location_type": "Force", "location": {"latitude": "51.516751", "street": {"id": 1677076, "name": "On or near Eastcastle Street"}, "longitude": "-0.137401"}, "context": "", "outcome_status": null, "persistent_id": "", "id": 123113335, "location_subtype": "", "month": "2024-03"}, {"category": "anti-social-behaviour", "location_type": "Force", "location": {"latitude": "51.512166", "street": {"id": 1678947, "name": "On or near Shopping Area"}, "longitude": "-0.123818"}, "context": "", "outcome_status": null, "persistent_id": "", "id": 123113307, "location_subtype": "", "month": "2024-03"}, {"category": "anti-social-behaviour", "location_type": "Force", "location": {"latitude": "51.516341", "street": {"id": 1679597, "name": "On or near Nightclub"}, "longitude": "-0.120151"}, "context": "", "outcome_status": null, "persistent_id": "", "id": 123113300, "location_subtype": "", "month": "2024-03"}, {"category": "anti-social-behaviour", "location_type": "Force", "location": {"latitude": "51.495745", "street": {"id": 1677734, "name": "On or near Parking Area"}, "longitude": "-0.132308"}, "context": "", "outcome_status": null, "persistent_id": "", "id": 123111324, "location_subtype": "", "month": "2024-03"}, {"category": "anti-social-behaviour", "location_type": "Force", "location": {"latitude": "51.518231", "street": {"id": 1490726, "name": "On or near Southampton Buildings"}, "longitude": "-0.112953"}, "context": "", "outcome_status": null, "persistent_id": "", "id": 123111274, "location_subtype": "", "month": "2024-03"}, {"category": "anti-social-behaviour", "location_type": "Force", "location": {"latitude": "51.517287", "street": {"id": 1678024, "name": "On or near Parking Area"}, "longitude": "-0.130403"}, "context": "", "outcome_status": null, "persistent_id": "", "id": 123109884, "location_subtype": "", "month": "2024-03"}, {"category": "anti-social-behaviour", "location_type": "Force", "location": {"latitude": "51.499783", "street": {"id": 1681546, "name": "On or near Cooper Close"}, "longitude": "-0.108240"}, "context": "", "outcome_status": null, "persistent_id": "", "id": 123109843, "location_subtype": "", "month": "2024-03"}, {"category": "anti-social-behaviour", "location_type": "Force", "location": {"latitude": "51.500978", "street": {"id": 1678704, "name": "On or near Bridge Street"}, "longitude": "-0.125524"}, "context": "", "outcome_status": null, "persistent_id": "", "id": 123109810, "location_subtype": "", "month": "2024-03"}, {"category": "anti-social-behaviour", "location_type": "Force", "location": {"latitude": "51.511856", "street": {"id": 1678534, "name": "On or near Great Newport Street"}, "longitude": "-0.127570"}, "context": "", "outcome_status": null, "persistent_id": "", "id": 123109796, "location_subtype": "", "month": "2024-03"}, {"category": "anti-social-behaviour", "location_type": "Force", "location": {"latitude": "51.508087", "street": {"id": 1678961, "name": "On or near Nightclub"}, "longitude": "-0.124122"}, "context": "", "outcome_status": null, "persistent_id": "", "id": 123109769, "location_subtype": "", "month": "2024-03"}, {"category": "anti-social-behaviour", "location_type": "Force", "location": {"latitude": "51.518456", "street": {"id": 1677599, "name": "On or near Percy Street"}, "longitude": "-0.133209"}, "context": "", "outcome_status": null, "persistent_id": "", "id": 123109760, "location_subtype": "", "month": "2024-03"}, {"category": "anti-social-behaviour", "location_type": "Force", "location": {"latitude": "51.513205", "street": {"id": 1678985, "name": "On or near Long Acre"}, "longitude": "-0.124229"}, "context": "", "outcome_status": null, "persistent_id": "", "id": 123109739, "location_subtype": "", "month": "2024-03"}, {"category": "anti-social-behaviour", "location_type": "Force", "location": {"latitude": "51.502823", "street": {"id": 1679478, "name": "On or near Theme/adventure Park"}, "longitude": "-0.119257"}, "context": "", "outcome_status": null, "persistent_id": "", "id": 123109713, "location_subtype": "", "month": "2024-03"}, {"category": "anti-social-behaviour", "location_type": "Force", "location": {"latitude": "51.519933", "street": {"id": 1677494, "name": "On or near Shopping Area"}, "longitude": "-0.133899"}, "context": "", "outcome_status": null, "persistent_id": "", "id": 123109687, "location_subtype": "", "month": "2024-03"}, {"category": "anti-social-behaviour", "location_type": "Force", "location": {"latitude": "51.508087", "street": {"id": 1678961, "name": "On or near Nightclub"}, "longitude": "-0.124122"}, "context": "", "outcome_status": null, "persistent_id": "", "id": 123109682, "location_subtype": "", "month": "2024-03"}, {"category": "anti-social-behaviour", "location_type": "Force", "location": {"latitude": "51.507159", "street": {"id": 1682020, "name": "On or near Rennie Street"}, "longitude": "-0.105571"}, "context": "", "outcome_status": null, "persistent_id": "", "id": 123108819, "location_subtype": "", "month": "2024-03"}, {"category": "anti-social-behaviour", "location_type": "Force", "location": {"latitude": "51.515984", "street": {"id": 1679703, "name": "On or near Conference/exhibition Centre"}, "longitude": "-0.118595"}, "context": "", "outcome_status": null, "persistent_id": "", "id": 123108713, "location_subtype": "", "month": "2024-03"}, {"category": "anti-social-behaviour", "location_type": "Force", "location": {"latitude": "51.518456", "street": {"id": 1677599, "name": "On or near Percy Street"}, "longitude": "-0.133209"}, "context": "", "outcome_status": null, "persistent_id": "", "id": 123108321, "location_subtype": "", "month": "2024-03"}, {"category": "anti-social-behaviour", "location_type": "Force", "location": {"latitude": "51.515939", "street": {"id": 1677739, "name": "On or near Soho Street"}, "longitude": "-0.132693"}, "context": "", "outcome_status": null, "persistent_id": "", "id": 123108112, "location_subtype": "", "month": "2024-03"}, {"category": "anti-social-behaviour", "location_type": "Force", "location": {"latitude": "51.511022", "street": {"id": 1679585, "name": "On or near Strand"}, "longitude": "-0.119880"}, "context": "", "outcome_status": null, "persistent_id": "", "id": 123108007, "location_subtype": "", "month": "2024-03"}, {"category": "anti-social-behaviour", "location_type": "Force", "location": {"latitude": "51.500978", "street": {"id": 1678704, "name": "On or near Bridge Street"}, "longitude": "-0.125524"}, "context": "", "outcome_status": null, "persistent_id": "", "id": 123107989, "location_subtype": "", "month": "2024-03"}, {"category": "anti-social-behaviour", "location_type": "Force", "location": {"latitude": "51.499086", "street": {"id": 1681507, "name": "On or near Gerridge Street"}, "longitude": "-0.108471"}, "context": "", "outcome_status": null, "persistent_id": "", "id": 123107505, "location_subtype": "", "month": "2024-03"}, {"category": "anti-social-behaviour", "location_type": "Force", "location": {"latitude": "51.512495", "street": {"id": 1676635, "name": "On or near Nightclub"}, "longitude": "-0.138915"}, "context": "", "outcome_status": null, "persistent_id": "", "id": 123107474, "location_subtype": "", "month": "2024-03"}, {"category": "anti-social-behaviour", "location_type": "Force", "location": {"latitude": "51.498553", "street": {"id": 1677378, "name": "On or near Caxton Street"}, "longitude": "-0.135291"}, "context": "", "outcome_status": null, "persistent_id": "", "id": 123107444, "location_subtype": "", "month": "2024-03"}, {"category": "anti-social-behaviour", "location_type": "Force", "location": {"latitude": "51.505921", "street": {"id": 1681295, "name": "On or near Aquinas Street"}, "longitude": "-0.109067"}, "context": "", "outcome_status": null, "persistent_id": "", "id": 123107017, "location_subtype": "", "month": "2024-03"}, {"category": "anti-social-behaviour", "location_type": "Force", "location": {"latitude": "51.503196", "street": {"id": 1678183, "name": "On or near Downing Street"}, "longitude": "-0.127032"}, "context": "", "outcome_status": null, "persistent_id": "", "id": 123106831, "location_subtype": "", "month": "2024-03"}, {"category": "anti-social-behaviour", "location_type": "Force", "location": {"latitude": "51.517858", "street": {"id": 1678162, "name": "On or near Adeline Place"}, "longitude": "-0.130120"}, "context": "", "outcome_status": null, "persistent_id": "", "id": 123106633, "location_subtype": "", "month": "2024-03"}, {"category": "anti-social-behaviour", "location_type": "Force", "location": {"latitude": "51.514536", "street": {"id": 1676666, "name": "On or near Nightclub"}, "longitude": "-0.140043"}, "context": "", "outcome_status": null, "persistent_id": "", "id": 123106211, "location_subtype": "", "month": "2024-03"}, {"category": "anti-social-behaviour", "location_type": "Force", "location": {"latitude": "51.505921", "street": {"id": 1681295, "name": "On or near Aquinas Street"}, "longitude": "-0.109067"}, "context": "", "outcome_status": null, "persistent_id": "", "id": 123089871, "location_subtype": "", "month": "2024-03"}, {"category": "anti-social-behaviour", "location_type": "Force", "location": {"latitude": "51.519933", "street": {"id": 1677494, "name": "On or near Shopping Area"}, "longitude": "-0.133899"}, "context": "", "outcome_status": null, "persistent_id": "", "id": 123089784, "location_subtype": "", "month": "2024-03"}, {"category": "anti-social-behaviour", "location_type": "Force", "location": {"latitude": "51.511783", "street": {"id": 1678199, "name": "On or near Nightclub"}, "longitude": "-0.129778"}, "context": "", "outcome_status": null, "persistent_id": "", "id": 123088102, "location_subtype": "", "month": "2024-03"}, {"category": "anti-social-behaviour", "location_type": "Force", "location": {"latitude": "51.512449", "street": {"id": 1680063, "name": "On or near Surrey Street"}, "longitude": "-0.115772"}, "context": "", "outcome_status": null, "persistent_id": "", "id": 123087501, "location_subtype": "", "month": "2024-03"}, {"category": "anti-social-behaviour", "location_type": "Force", "location": {"latitude": "51.510468", "street": {"id": 1678029, "name": "On or near Leicester Square"}, "longitude": "-0.130769"}, "context": "", "outcome_status": null, "persistent_id": "", "id": 123087407, "location_subtype": "", "month": "2024-03"}, {"category": "anti-social-behaviour", "location_type": "Force", "location": {"latitude": "51.500978", "street": {"id": 1678704, "name": "On or near Bridge Street"}, "longitude": "-0.125524"}, "context": "", "outcome_status": null, "persistent_id": "", "id": 123087353, "location_subtype": "", "month": "2024-03"}, {"category": "anti-social-behaviour", "location_type": "Force", "location": {"latitude": "51.514064", "street": {"id": 1679774, "name": "On or near Kean Street"}, "longitude": "-0.118890"}, "context": "", "outcome_status": null, "persistent_id": "", "id": 123087293, "location_subtype": "", "month": "2024-03"}, {"category": "anti-social-behaviour", "location_type": "Force", "location": {"latitude": "51.513288", "street": {"id": 1675603, "name": "On or near South Molton Lane"}, "longitude": "-0.147530"}, "context": "", "outcome_status": null, "persistent_id": "", "id": 123087266, "location_subtype": "", "month": "2024-03"}, {"category": "anti-social-behaviour", "location_type": "Force", "location": {"latitude": "51.517596", "street": {"id": 1677320, "name": "On or near Newman Street"}, "longitude": "-0.135680"}, "context": "", "outcome_status": null, "persistent_id": "", "id": 123086859, "location_subtype": "", "month": "2024-03"}, {"category": "anti-social-behaviour", "location_type": "Force", "location": {"latitude": "51.516001", "street": {"id": 1679229, "name": "On or near Macklin Street"}, "longitude": "-0.122471"}, "context": "", "outcome_status": null, "persistent_id": "", "id": 123086751, "location_subtype": "", "month": "2024-03"}, {"category": "anti-social-behaviour", "location_type": "Force", "location": {"latitude": "51.504066", "street": {"id": 1681189, "name": "On or near Theatre/concert Hall"}, "longitude": "-0.110037"}, "context": "", "outcome_status": null, "persistent_id": "", "id": 123086733, "location_subtype": "", "month": "2024-03"}, {"category": "anti-social-behaviour", "location_type": "Force", "location": {"latitude": "51.515598", "street": {"id": 1678536, "name": "On or near St Giles High Street"}, "longitude": "-0.127633"}, "context": "", "outcome_status": null, "persistent_id": "", "id": 123086671, "location_subtype": "", "month": "2024-03"}, {"category": "anti-social-behaviour", "location_type": "Force", "location": {"latitude": "51.510729", "street": {"id": 1677342, "name": "On or near Denman Street"}, "longitude": "-0.135283"}, "context": "", "outcome_status": null, "persistent_id": "", "id": 123086640, "location_subtype": "", "month": "2024-03"}, {"category": "anti-social-behaviour", "location_type": "Force", "location": {"latitude": "51.510729", "street": {"id": 1677342, "name": "On or near Denman Street"}, "longitude": "-0.135283"}, "context": "", "outcome_status": null, "persistent_id": "", "id": 123086587, "location_subtype": "", "month": "2024-03"}, {"category": "anti-social-behaviour", "location_type": "Force", "location": {"latitude": "51.508202", "street": {"id": 1677075, "name": "On or near Ormond Yard"}, "longitude": "-0.136410"}, "context": "", "outcome_status": null, "persistent_id": "", "id": 123086551, "location_subtype": "", "month": "2024-03"}, {"category": "anti-social-behaviour", "location_type": "Force", "location": {"latitude": "51.507286", "street": {"id": 1678357, "name": "On or near Parking Area"}, "longitude": "-0.128903"}, "context": "", "outcome_status": null, "persistent_id": "", "id": 123086549, "location_subtype": "", "month": "2024-03"}, {"category": "anti-social-behaviour", "location_type": "Force", "location": {"latitude": "51.513052", "street": {"id": 1677758, "name": "On or near Bourchier Street"}, "longitude": "-0.132681"}, "context": "", "outcome_status": null, "persistent_id": "", "id": 123085562, "location_subtype": "", "month": "2024-03"}, {"category": "anti-social-behaviour", "location_type": "Force", "location": {"latitude": "51.508450", "street": {"id": 1676091, "name": "On or near Nightclub"}, "longitude": "-0.143266"}, "context": "", "outcome_status": null, "persistent_id": "", "id": 123084678, "location_subtype": "", "month": "2024-03"}, {"category": "anti-social-behaviour", "location_type": "Force", "location": {"latitude": "51.513970", "street": {"id": 1677442, "name": "On or near Wardour Street"}, "longitude": "-0.134387"}, "context": "", "outcome_status": null, "persistent_id": "", "id": 123084675, "location_subtype": "", "month": "2024-03"}, {"category": "anti-social-behaviour", "location_type": "Force", "location": {"latitude": "51.498553", "street": {"id": 1677378, "name": "On or near Caxton Street"}, "longitude": "-0.135291"}, "context": "", "outcome_status": null, "persistent_id": "", "id": 123093996, "location_subtype": "", "month": "2024-03"}, {"category": "anti-social-behaviour", "location_type": "Force", "location": {"latitude": "51.510345", "street": {"id": 1679211, "name": "On or near Theatre/concert Hall"}, "longitude": "-0.122502"}, "context": "", "outcome_status": null, "persistent_id": "", "id": 123084619, "location_subtype": "", "month": "2024-03"}, {"category": "anti-social-behaviour", "location_type": "Force", "location": {"latitude": "51.500978", "street": {"id": 1678704, "name": "On or near Bridge Street"}, "longitude": "-0.125524"}, "context": "", "outcome_status": null, "persistent_id": "", "id": 123084610, "location_subtype": "", "month": "2024-03"}, {"category": "anti-social-behaviour", "location_type": "Force", "location": {"latitude": "51.508202", "street": {"id": 1677075, "name": "On or near Ormond Yard"}, "longitude": "-0.136410"}, "context": "", "outcome_status": null, "persistent_id": "", "id": 123084319, "location_subtype": "", "month": "2024-03"}, {"category": "anti-social-behaviour", "location_type": "Force", "location": {"latitude": "51.516341", "street": {"id": 1679597, "name": "On or near Nightclub"}, "longitude": "-0.120151"}, "context": "", "outcome_status": null, "persistent_id": "", "id": 123083968, "location_subtype": "", "month": "2024-03"}, {"category": "anti-social-behaviour", "location_type": "Force", "location": {"latitude": "51.518405", "street": {"id": 1679695, "name": "On or near Procter Street"}, "longitude": "-0.119302"}, "context": "", "outcome_status": null, "persistent_id": "", "id": 123083934, "location_subtype": "", "month": "2024-03"}, {"category": "anti-social-behaviour", "location_type": "Force", "location": {"latitude": "51.509044", "street": {"id": 1679072, "name": "On or near John Adam Street"}, "longitude": "-0.123247"}, "context": "", "outcome_status": null, "persistent_id": "", "id": 123083749, "location_subtype": "", "month": "2024-03"}, {"category": "anti-social-behaviour", "location_type": "Force", "location": {"latitude": "51.509044", "street": {"id": 1679072, "name": "On or near John Adam Street"}, "longitude": "-0.123247"}, "context": "", "outcome_status": null, "persistent_id": "", "id": 123083602, "location_subtype": "", "month": "2024-03"}, {"category": "anti-social-behaviour", "location_type": "Force", "location": {"latitude": "51.516820", "street": {"id": 1678501, "name": "On or near Dyott Street"}, "longitude": "-0.127583"}, "context": "", "outcome_status": null, "persistent_id": "", "id": 123083451, "location_subtype": "", "month": "2024-03"}, {"category": "anti-social-behaviour", "location_type": "Force", "location": {"latitude": "51.496949", "street": {"id": 1677316, "name": "On or near Artillery Row"}, "longitude": "-0.135630"}, "context": "", "outcome_status": null, "persistent_id": "", "id": 123083001, "location_subtype": "", "month": "2024-03"}, {"category": "anti-social-behaviour", "location_type": "Force", "location": {"latitude": "51.511534", "street": {"id": 1678076, "name": "On or near Lisle Street"}, "longitude": "-0.130495"}, "context": "", "outcome_status": null, "persistent_id": "", "id": 123082978, "location_subtype": "", "month": "2024-03"}, {"category": "anti-social-behaviour", "location_type": "Force", "location": {"latitude": "51.511312", "street": {"id": 1677127, "name": "On or near Lower James Street"}, "longitude": "-0.136326"}, "context": "", "outcome_status": null, "persistent_id": "", "id": 123082744, "location_subtype": "", "month": "2024-03"}, {"category": "anti-social-behaviour", "location_type": "Force", "location": {"latitude": "51.500978", "street": {"id": 1678704, "name": "On or near Bridge Street"}, "longitude": "-0.125524"}, "context": "", "outcome_status": null, "persistent_id": "", "id": 123082353, "location_subtype": "", "month": "2024-03"}, {"category": "anti-social-behaviour", "location_type": "Force", "location": {"latitude": "51.509044", "street": {"id": 1679072, "name": "On or near John Adam Street"}, "longitude": "-0.123247"}, "context": "", "outcome_status": null, "persistent_id": "", "id": 123082341, "location_subtype": "", "month": "2024-03"}, {"category": "anti-social-behaviour", "location_type": "Force", "location": {"latitude": "51.511856", "street": {"id": 1678534, "name": "On or near Great Newport Street"}, "longitude": "-0.127570"}, "context": "", "outcome_status": null, "persistent_id": "", "id": 123082072, "location_subtype": "", "month": "2024-03"}, {"category": "anti-social-behaviour", "location_type": "Force", "location": {"latitude": "51.517265", "street": {"id": 1678861, "name": "On or near Museum Street"}, "longitude": "-0.125071"}, "context": "", "outcome_status": null, "persistent_id": "", "id": 123081875, "location_subtype": "", "month": "2024-03"}, {"category": "anti-social-behaviour", "location_type": "Force", "location": {"latitude": "51.513724", "street": {"id": 1490731, "name": "On or near Fleet Street"}, "longitude": "-0.111756"}, "context": "", "outcome_status": null, "persistent_id": "", "id": 123081746, "location_subtype": "", "month": "2024-03"}, {"category": "anti-social-behaviour", "location_type": "Force", "location": {"latitude": "51.517846", "street": {"id": 1490741, "name": "On or near Holborn"}, "longitude": "-0.109164"}, "context": "", "outcome_status": null, "persistent_id": "", "id": 123081453, "location_subtype": "", "month": "2024-03"}, {"category": "anti-social-behaviour", "location_type": "Force", "location": {"latitude": "51.512802", "street": {"id": 1679061, "name": "On or near James Street"}, "longitude": "-0.123770"}, "context": "", "outcome_status": null, "persistent_id": "", "id": 123081447, "location_subtype": "", "month": "2024-03"}, {"category": "anti-social-behaviour", "location_type": "Force", "location": {"latitude": "51.515939", "street": {"id": 1677739, "name": "On or near Soho Street"}, "longitude": "-0.132693"}, "context": "", "outcome_status": null, "persistent_id": "", "id": 123081277, "location_subtype": "", "month": "2024-03"}, {"category": "anti-social-behaviour", "location_type": "Force", "location": {"latitude": "51.513715", "street": {"id": 1679596, "name": "On or near Drury Lane"}, "longitude": "-0.120101"}, "context": "", "outcome_status": null, "persistent_id": "", "id": 123081019, "location_subtype": "", "month": "2024-03"}, {"category": "anti-social-behaviour", "location_type": "Force", "location": {"latitude": "51.515869", "street": {"id": 1679355, "name": "On or near Parker Street"}, "longitude": "-0.121554"}, "context": "", "outcome_status": null, "persistent_id": "", "id": 123081010, "location_subtype": "", "month": "2024-03"}, {"category": "anti-social-behaviour", "location_type": "Force", "location": {"latitude": "51.511790", "street": {"id": 1677815, "name": "On or near Dansey Place"}, "longitude": "-0.131925"}, "context": "", "outcome_status": null, "persistent_id": "", "id": 123080520, "location_subtype": "", "month": "2024-03"}, {"category": "anti-social-behaviour", "location_type": "Force", "location": {"latitude": "51.499042", "street": {"id": 1680867, "name": "On or near Lambeth North"}, "longitude": "-0.111930"}, "context": "", "outcome_status": null, "persistent_id": "", "id": 123080435, "location_subtype": "", "month": "2024-03"}, {"category": "anti-social-behaviour", "location_type": "Force", "location": {"latitude": "51.516178", "street": {"id": 1677833, "name": "On or near Further/higher Educational Building"}, "longitude": "-0.131904"}, "context": "", "outcome_status": null, "persistent_id": "", "id": 123080247, "location_subtype": "", "month": "2024-03"}, {"category": "anti-social-behaviour", "location_type": "Force", "location": {"latitude": "51.511574", "street": {"id": 1678643, "name": "On or near Garrick Street"}, "longitude": "-0.126271"}, "context": "", "outcome_status": null, "persistent_id": "", "id": 123080219, "location_subtype": "", "month": "2024-03"}, {"category": "anti-social-behaviour", "location_type": "Force", "location": {"latitude": "51.509491", "street": {"id": 1678539, "name": "On or near William Iv Street"}, "longitude": "-0.125924"}, "context": "", "outcome_status": null, "persistent_id": "", "id": 123079832, "location_subtype": "", "month": "2024-03"}, {"category": "anti-social-behaviour", "location_type": "Force", "location": {"latitude": "51.519092", "street": {"id": 1679240, "name": "On or near Bloomsbury Square"}, "longitude": "-0.122330"}, "context": "", "outcome_status": null, "persistent_id": "", "id": 123079786, "location_subtype": "", "month": "2024-03"}, {"category": "anti-social-behaviour", "location_type": "Force", "location": {"latitude": "51.514369", "street": {"id": 1679259, "name": "On or near Drury Lane"}, "longitude": "-0.121645"}, "context": "", "outcome_status": null, "persistent_id": "", "id": 123079765, "location_subtype": "", "month": "2024-03"}, {"category": "anti-social-behaviour", "location_type": "Force", "location": {"latitude": "51.509251", "street": {"id": 1677545, "name": "On or near St James's Market"}, "longitude": "-0.133398"}, "context": "", "outcome_status": null, "persistent_id": "", "id": 123079725, "location_subtype": "", "month": "2024-03"}, {"category": "anti-social-behaviour", "location_type": "Force", "location": {"latitude": "51.514684", "street": {"id": 1676465, "name": "On or near Argyll Street"}, "longitude": "-0.140844"}, "context": "", "outcome_status": null, "persistent_id": "", "id": 123103706, "location_subtype": "", "month": "2024-03"}, {"category": "anti-social-behaviour", "location_type": "Force", "location": {"latitude": "51.510042", "street": {"id": 1679444, "name": "On or near Savoy Way"}, "longitude": "-0.120439"}, "context": "", "outcome_status": null, "persistent_id": "", "id": 123103704, "location_subtype": "", "month": "2024-03"}, {"category": "anti-social-behaviour", "location_type": "Force", "location": {"latitude": "51.516351", "street": {"id": 1679201, "name": "On or near Stukeley Street"}, "longitude": "-0.122976"}, "context": "", "outcome_status": null, "persistent_id": "", "id": 123103693, "location_subtype": "", "month": "2024-03"}, {"category": "anti-social-behaviour", "location_type": "Force", "location": {"latitude": "51.513288", "street": {"id": 1675603, "name": "On or near South Molton Lane"}, "longitude": "-0.147530"}, "context": "", "outcome_status": null, "persistent_id": "", "id": 123103389, "location_subtype": "", "month": "2024-03"}, {"category": "anti-social-behaviour", "location_type": "Force", "location": {"latitude": "51.517287", "street": {"id": 1678024, "name": "On or near Parking Area"}, "longitude": "-0.130403"}, "context": "", "outcome_status": null, "persistent_id": "", "id": 123100212, "location_subtype": "", "month": "2024-03"}, {"category": "anti-social-behaviour", "location_type": "Force", "location": {"latitude": "51.519933", "street": {"id": 1677494, "name": "On or near Shopping Area"}, "longitude": "-0.133899"}, "context": "", "outcome_status": null, "persistent_id": "", "id": 123100209, "location_subtype": "", "month": "2024-03"}, {"category": "anti-social-behaviour", "location_type": "Force", "location": {"latitude": "51.496941", "street": {"id": 1677903, "name": "On or near Conference/exhibition Centre"}, "longitude": "-0.130617"}, "context": "", "outcome_status": null, "persistent_id": "", "id": 123099673, "location_subtype": "", "month": "2024-03"}, {"category": "anti-social-behaviour", "location_type": "Force", "location": {"latitude": "51.518456", "street": {"id": 1677599, "name": "On or near Percy Street"}, "longitude": "-0.133209"}, "context": "", "outcome_status": null, "persistent_id": "", "id": 123099665, "location_subtype": "", "month": "2024-03"}, {"category": "anti-social-behaviour", "location_type": "Force", "location": {"latitude": "51.504066", "street": {"id": 1681189, "name": "On or near Theatre/concert Hall"}, "longitude": "-0.110037"}, "context": "", "outcome_status": null, "persistent_id": "", "id": 123099281, "location_subtype": "", "month": "2024-03"}, {"category": "anti-social-behaviour", "location_type": "Force", "location": {"latitude": "51.498175", "street": {"id": 1676627, "name": "On or near Palace Street"}, "longitude": "-0.140363"}, "context": "", "outcome_status": null, "persistent_id": "", "id": 123098271, "location_subtype": "", "month": "2024-03"}, {"category": "anti-social-behaviour", "location_type": "Force", "location": {"latitude": "51.507182", "street": {"id": 1678986, "name": "On or near Craven Street"}, "longitude": "-0.124332"}, "context": "", "outcome_status": null, "persistent_id": "", "id": 123098246, "location_subtype": "", "month": "2024-03"}, {"category": "anti-social-behaviour", "location_type": "Force", "location": {"latitude": "51.503196", "street": {"id": 1678183, "name": "On or near Downing Street"}, "longitude": "-0.127032"}, "context": "", "outcome_status": null, "persistent_id": "", "id": 123097118, "location_subtype": "", "month": "2024-03"}, {"category": "anti-social-behaviour", "location_type": "Force", "location": {"latitude": "51.512166", "street": {"id": 1678947, "name": "On or near Shopping Area"}, "longitude": "-0.123818"}, "context": "", "outcome_status": null, "persistent_id": "", "id": 123097074, "location_subtype": "", "month": "2024-03"}, {"category": "anti-social-behaviour", "location_type": "Force", "location": {"latitude": "51.519933", "street": {"id": 1677494, "name": "On or near Shopping Area"}, "longitude": "-0.133899"}, "context": "", "outcome_status": null, "persistent_id": "", "id": 123104003, "location_subtype": "", "month": "2024-03"}, {"category": "anti-social-behaviour", "location_type": "Force", "location": {"latitude": "51.513601", "street": {"id": 1677939, "name": "On or near Frith Street"}, "longitude": "-0.131534"}, "context": "", "outcome_status": null, "persistent_id": "", "id": 123096516, "location_subtype": "", "month": "2024-03"}, {"category": "anti-social-behaviour", "location_type": "Force", "location": {"latitude": "51.513288", "street": {"id": 1675603, "name": "On or near South Molton Lane"}, "longitude": "-0.147530"}, "context": "", "outcome_status": null, "persistent_id": "", "id": 123096256, "location_subtype": "", "month": "2024-03"}, {"category": "anti-social-behaviour", "location_type": "Force", "location": {"latitude": "51.515939", "street": {"id": 1677739, "name": "On or near Soho Street"}, "longitude": "-0.132693"}, "context": "", "outcome_status": null, "persistent_id": "", "id": 123096142, "location_subtype": "", "month": "2024-03"}, {"category": "anti-social-behaviour", "location_type": "Force", "location": {"latitude": "51.506632", "street": {"id": 1678507, "name": "On or near Theatre/concert Hall"}, "longitude": "-0.127640"}, "context": "", "outcome_status": null, "persistent_id": "", "id": 123095946, "location_subtype": "", "month": "2024-03"}, {"category": "anti-social-behaviour", "location_type": "Force", "location": {"latitude": "51.517954", "street": {"id": 1676402, "name": "On or near Little Titchfield Street"}, "longitude": "-0.141777"}, "context": "", "outcome_status": null, "persistent_id": "", "id": 123095934, "location_subtype": "", "month": "2024-03"}, {"category": "anti-social-behaviour", "location_type": "Force", "location": {"latitude": "51.509396", "street": {"id": 1678091, "name": "On or near Orange Street"}, "longitude": "-0.130626"}, "context": "", "outcome_status": null, "persistent_id": "", "id": 123095908, "location_subtype": "", "month": "2024-03"}, {"category": "anti-social-behaviour", "location_type": "Force", "location": {"latitude": "51.513288", "street": {"id": 1675603, "name": "On or near South Molton Lane"}, "longitude": "-0.147530"}, "context": "", "outcome_status": null, "persistent_id": "", "id": 123095885, "location_subtype": "", "month": "2024-03"}, {"category": "anti-social-behaviour", "location_type": "Force", "location": {"latitude": "51.512300", "street": {"id": 1678389, "name": "On or near Theatre/concert Hall"}, "longitude": "-0.128388"}, "context": "", "outcome_status": null, "persistent_id": "", "id": 123095866, "location_subtype": "", "month": "2024-03"}, {"category": "anti-social-behaviour", "location_type": "Force", "location": {"latitude": "51.498553", "street": {"id": 1677378, "name": "On or near Caxton Street"}, "longitude": "-0.135291"}, "context": "", "outcome_status": null, "persistent_id": "", "id": 123094812, "location_subtype": "", "month": "2024-03"}, {"category": "anti-social-behaviour", "location_type": "Force", "location": {"latitude": "51.507415", "street": {"id": 1681921, "name": "On or near Supermarket"}, "longitude": "-0.105835"}, "context": "", "outcome_status": null, "persistent_id": "", "id": 123094491, "location_subtype": "", "month": "2024-03"}, {"category": "anti-social-behaviour", "location_type": "Force", "location": {"latitude": "51.497534", "street": {"id": 1677829, "name": "On or near Old Pye Street"}, "longitude": "-0.132307"}, "context": "", "outcome_status": null, "persistent_id": "", "id": 123094472, "location_subtype": "", "month": "2024-03"}, {"category": "anti-social-behaviour", "location_type": "Force", "location": {"latitude": "51.518739", "street": {"id": 1677897, "name": "On or near Bayley Street"}, "longitude": "-0.131785"}, "context": "", "outcome_status": null, "persistent_id": "", "id": 123094447, "location_subtype": "", "month": "2024-03"}, {"category": "anti-social-behaviour", "location_type": "Force", "location": {"latitude": "51.511694", "street": {"id": 1675872, "name": "On or near Bloomfield Place"}, "longitude": "-0.144568"}, "context": "", "outcome_status": null, "persistent_id": "", "id": 123094245, "location_subtype": "", "month": "2024-03"}, {"category": "anti-social-behaviour", "location_type": "Force", "location": {"latitude": "51.501409", "street": {"id": 1680983, "name": "On or near Tanswell Street"}, "longitude": "-0.111443"}, "context": "", "outcome_status": null, "persistent_id": "", "id": 123094062, "location_subtype": "", "month": "2024-03"}, {"category": "anti-social-behaviour", "location_type": "Force", "location": {"latitude": "51.510042", "street": {"id": 1679444, "name": "On or near Savoy Way"}, "longitude": "-0.120439"}, "context": "", "outcome_status": null, "persistent_id": "", "id": 123094020, "location_subtype": "", "month": "2024-03"}, {"category": "anti-social-behaviour", "location_type": "Force", "location": {"latitude": "51.516341", "street": {"id": 1679597, "name": "On or near Nightclub"}, "longitude": "-0.120151"}, "context": "", "outcome_status": null, "persistent_id": "", "id": 123093316, "location_subtype": "", "month": "2024-03"}, {"category": "anti-social-behaviour", "location_type": "Force", "location": {"latitude": "51.510641", "street": {"id": 1676033, "name": "On or near Bruton Street"}, "longitude": "-0.144467"}, "context": "", "outcome_status": null, "persistent_id": "", "id": 123093069, "location_subtype": "", "month": "2024-03"}, {"category": "anti-social-behaviour", "location_type": "Force", "location": {"latitude": "51.514064", "street": {"id": 1679774, "name": "On or near Kean Street"}, "longitude": "-0.118890"}, "context": "", "outcome_status": null, "persistent_id": "", "id": 123092946, "location_subtype": "", "month": "2024-03"}, {"category": "anti-social-behaviour", "location_type": "Force", "location": {"latitude": "51.511574", "street": {"id": 1678643, "name": "On or near Garrick Street"}, "longitude": "-0.126271"}, "context": "", "outcome_status": null, "persistent_id": "", "id": 123092807, "location_subtype": "", "month": "2024-03"}, {"category": "anti-social-behaviour", "location_type": "Force", "location": {"latitude": "51.510729", "street": {"id": 1677342, "name": "On or near Denman Street"}, "longitude": "-0.135283"}, "context": "", "outcome_status": null, "persistent_id": "", "id": 123092719, "location_subtype": "", "month": "2024-03"}, {"category": "anti-social-behaviour", "location_type": "Force", "location": {"latitude": "51.507843", "street": {"id": 1675601, "name": "On or near Charles Street"}, "longitude": "-0.147232"}, "context": "", "outcome_status": null, "persistent_id": "", "id": 123092114, "location_subtype": "", "month": "2024-03"}, {"category": "anti-social-behaviour", "location_type": "Force", "location": {"latitude": "51.509491", "street": {"id": 1678539, "name": "On or near William Iv Street"}, "longitude": "-0.125924"}, "context": "", "outcome_status": null, "persistent_id": "", "id": 123092032, "location_subtype": "", "month": "2024-03"}, {"category": "anti-social-behaviour", "location_type": "Force", "location": {"latitude": "51.519639", "street": {"id": 1679160, "name": "On or near Bloomsbury Place"}, "longitude": "-0.122797"}, "context": "", "outcome_status": null, "persistent_id": "", "id": 123092024, "location_subtype": "", "month": "2024-03"}, {"category": "anti-social-behaviour", "location_type": "Force", "location": {"latitude": "51.506985", "street": {"id": 1678839, "name": "On or near Northumberland Avenue"}, "longitude": "-0.124975"}, "context": "", "outcome_status": null, "persistent_id": "", "id": 123091966, "location_subtype": "", "month": "2024-03"}, {"category": "anti-social-behaviour", "location_type": "Force", "location": {"latitude": "51.506563", "street": {"id": 1679770, "name": "On or near Ferry Terminal"}, "longitude": "-0.117124"}, "context": "", "outcome_status": null, "persistent_id": "", "id": 123091906, "location_subtype": "", "month": "2024-03"}, {"category": "anti-social-behaviour", "location_type": "Force", "location": {"latitude": "51.512059", "street": {"id": 1679743, "name": "On or near A301"}, "longitude": "-0.118929"}, "context": "", "outcome_status": null, "persistent_id": "", "id": 123091745, "location_subtype": "", "month": "2024-03"}, {"category": "anti-social-behaviour", "location_type": "Force", "location": {"latitude": "51.506814", "street": {"id": 1676741, "name": "On or near Ryder Street"}, "longitude": "-0.138469"}, "context": "", "outcome_status": null, "persistent_id": "", "id": 123091591, "location_subtype": "", "month": "2024-03"}, {"category": "anti-social-behaviour", "location_type": "Force", "location": {"latitude": "51.509097", "street": {"id": 1675613, "name": "On or near Nightclub"}, "longitude": "-0.146936"}, "context": "", "outcome_status": null, "persistent_id": "", "id": 123091588, "location_subtype": "", "month": "2024-03"}, {"category": "anti-social-behaviour", "location_type": "Force", "location": {"latitude": "51.517858", "street": {"id": 1678162, "name": "On or near Adeline Place"}, "longitude": "-0.130120"}, "context": "", "outcome_status": null, "persistent_id": "", "id": 123091546, "location_subtype": "", "month": "2024-03"}, {"category": "anti-social-behaviour", "location_type": "Force", "location": {"latitude": "51.513827", "street": {"id": 1676355, "name": "On or near Hanover Street"}, "longitude": "-0.142363"}, "context": "", "outcome_status": null, "persistent_id": "", "id": 123091381, "location_subtype": "", "month": "2024-03"}, {"category": "anti-social-behaviour", "location_type": "Force", "location": {"latitude": "51.510468", "street": {"id": 1678029, "name": "On or near Leicester Square"}, "longitude": "-0.130769"}, "context": "", "outcome_status": null, "persistent_id": "", "id": 123091215, "location_subtype": "", "month": "2024-03"}, {"category": "anti-social-behaviour", "location_type": "Force", "location": {"latitude": "51.510468", "street": {"id": 1678029, "name": "On or near Leicester Square"}, "longitude": "-0.130769"}, "context": "", "outcome_status": null, "persistent_id": "", "id": 123091179, "location_subtype": "", "month": "2024-03"}, {"category": "anti-social-behaviour", "location_type": "Force", "location": {"latitude": "51.498553", "street": {"id": 1677378, "name": "On or near Caxton Street"}, "longitude": "-0.135291"}, "context": "", "outcome_status": null, "persistent_id": "", "id": 123091134, "location_subtype": "", "month": "2024-03"}, {"category": "anti-social-behaviour", "location_type": "Force", "location": {"latitude": "51.512300", "street": {"id": 1678389, "name": "On or near Theatre/concert Hall"}, "longitude": "-0.128388"}, "context": "", "outcome_status": null, "persistent_id": "", "id": 123091116, "location_subtype": "", "month": "2024-03"}, {"category": "anti-social-behaviour", "location_type": "Force", "location": {"latitude": "51.513601", "street": {"id": 1677939, "name": "On or near Frith Street"}, "longitude": "-0.131534"}, "context": "", "outcome_status": null, "persistent_id": "", "id": 123091069, "location_subtype": "", "month": "2024-03"}, {"category": "anti-social-behaviour", "location_type": "Force", "location": {"latitude": "51.508087", "street": {"id": 1678961, "name": "On or near Nightclub"}, "longitude": "-0.124122"}, "context": "", "outcome_status": null, "persistent_id": "", "id": 123091025, "location_subtype": "", "month": "2024-03"}, {"category": "anti-social-behaviour", "location_type": "Force", "location": {"latitude": "51.498553", "street": {"id": 1677378, "name": "On or near Caxton Street"}, "longitude": "-0.135291"}, "context": "", "outcome_status": null, "persistent_id": "", "id": 123090370, "location_subtype": "", "month": "2024-03"}, {"category": "anti-social-behaviour", "location_type": "Force", "location": {"latitude": "51.513288", "street": {"id": 1675603, "name": "On or near South Molton Lane"}, "longitude": "-0.147530"}, "context": "", "outcome_status": null, "persistent_id": "", "id": 123090346, "location_subtype": "", "month": "2024-03"}, {"category": "anti-social-behaviour", "location_type": "Force", "location": {"latitude": "51.509491", "street": {"id": 1678539, "name": "On or near William Iv Street"}, "longitude": "-0.125924"}, "context": "", "outcome_status": null, "persistent_id": "", "id": 123090328, "location_subtype": "", "month": "2024-03"}, {"category": "anti-social-behaviour", "location_type": "Force", "location": {"latitude": "51.506632", "street": {"id": 1678507, "name": "On or near Theatre/concert Hall"}, "longitude": "-0.127640"}, "context": "", "outcome_status": null, "persistent_id": "", "id": 123090477, "location_subtype": "", "month": "2024-03"}, {"category": "anti-social-behaviour", "location_type": "Force", "location": {"latitude": "51.511622", "street": {"id": 1679194, "name": "On or near Covent Garden"}, "longitude": "-0.122507"}, "context": "", "outcome_status": null, "persistent_id": "", "id": 123086039, "location_subtype": "", "month": "2024-03"}, {"category": "anti-social-behaviour", "location_type": "Force", "location": {"latitude": "51.507576", "street": {"id": 1676403, "name": "On or near Nightclub"}, "longitude": "-0.141776"}, "context": "", "outcome_status": null, "persistent_id": "", "id": 123079280, "location_subtype": "", "month": "2024-03"}, {"category": "anti-social-behaviour", "location_type": "Force", "location": {"latitude": "51.508351", "street": {"id": 1681422, "name": "On or near Conference/exhibition Centre"}, "longitude": "-0.108355"}, "context": "", "outcome_status": null, "persistent_id": "", "id": 123107050, "location_subtype": "", "month": "2024-03"}, {"category": "anti-social-behaviour", "location_type": "Force", "location": {"latitude": "51.510953", "street": {"id": 1677692, "name": "On or near Nightclub"}, "longitude": "-0.133012"}, "context": "", "outcome_status": null, "persistent_id": "", "id": 123085387, "location_subtype": "", "month": "2024-03"}, {"category": "anti-social-behaviour", "location_type": "Force", "location": {"latitude": "51.512300", "street": {"id": 1678389, "name": "On or near Theatre/concert Hall"}, "longitude": "-0.128388"}, "context": "", "outcome_status": null, "persistent_id": "", "id": 123124928, "location_subtype": "", "month": "2024-03"}, {"category": "anti-social-behaviour", "location_type": "Force", "location": {"latitude": "51.517265", "street": {"id": 1678861, "name": "On or near Museum Street"}, "longitude": "-0.125071"}, "context": "", "outcome_status": null, "persistent_id": "", "id": 123095028, "location_subtype": "", "month": "2024-03"}, {"category": "anti-social-behaviour", "location_type": "Force", "location": {"latitude": "51.511703", "street": {"id": 1678351, "name": "On or near Little Newport Street"}, "longitude": "-0.128701"}, "context": "", "outcome_status": null, "persistent_id": "", "id": 123095384, "location_subtype": "", "month": "2024-03"}, {"category": "anti-social-behaviour", "location_type": "Force", "location": {"latitude": "51.507970", "street": {"id": 1677656, "name": "On or near Charles Ii Street"}, "longitude": "-0.133162"}, "context": "", "outcome_status": null, "persistent_id": "", "id": 123096905, "location_subtype": "", "month": "2024-03"}, {"category": "anti-social-behaviour", "location_type": "Force", "location": {"latitude": "51.520716", "street": {"id": 1680278, "name": "On or near Further/higher Educational Building"}, "longitude": "-0.115921"}, "context": "", "outcome_status": null, "persistent_id": "", "id": 123097367, "location_subtype": "", "month": "2024-03"}, {"category": "anti-social-behaviour", "location_type": "Force", "location": {"latitude": "51.518231", "street": {"id": 1490726, "name": "On or near Southampton Buildings"}, "longitude": "-0.112953"}, "context": "", "outcome_status": null, "persistent_id": "", "id": 123098212, "location_subtype": "", "month": "2024-03"}, {"category": "anti-social-behaviour", "location_type": "Force", "location": {"latitude": "51.515449", "street": {"id": 1679081, "name": "On or near Drury Lane"}, "longitude": "-0.123373"}, "context": "", "outcome_status": null, "persistent_id": "", "id": 123098903, "location_subtype": "", "month": "2024-03"}, {"category": "anti-social-behaviour", "location_type": "Force", "location": {"latitude": "51.516037", "street": {"id": 1678369, "name": "On or near Earnshaw Street"}, "longitude": "-0.128682"}, "context": "", "outcome_status": null, "persistent_id": "", "id": 123099113, "location_subtype": "", "month": "2024-03"}, {"category": "anti-social-behaviour", "location_type": "Force", "location": {"latitude": "51.514704", "street": {"id": 1678048, "name": "On or near Manette Street"}, "longitude": "-0.130826"}, "context": "", "outcome_status": null, "persistent_id": "", "id": 123099866, "location_subtype": "", "month": "2024-03"}, {"category": "anti-social-behaviour", "location_type": "Force", "location": {"latitude": "51.512059", "street": {"id": 1679743, "name": "On or near A301"}, "longitude": "-0.118929"}, "context": "", "outcome_status": null, "persistent_id": "", "id": 123100114, "location_subtype": "", "month": "2024-03"}, {"category": "anti-social-behaviour", "location_type": "Force", "location": {"latitude": "51.517845", "street": {"id": 1679284, "name": "On or near Further/higher Educational Building"}, "longitude": "-0.121977"}, "context": "", "outcome_status": null, "persistent_id": "", "id": 123104105, "location_subtype": "", "month": "2024-03"}, {"category": "anti-social-behaviour", "location_type": "Force", "location": {"latitude": "51.508911", "street": {"id": 1676459, "name": "On or near Old Bond Street"}, "longitude": "-0.140877"}, "context": "", "outcome_status": null, "persistent_id": "", "id": 123100272, "location_subtype": "", "month": "2024-03"}, {"category": "anti-social-behaviour", "location_type": "Force", "location": {"latitude": "51.514537", "street": {"id": 1678431, "name": "On or near St Giles Passage"}, "longitude": "-0.128196"}, "context": "", "outcome_status": null, "persistent_id": "", "id": 123100738, "location_subtype": "", "month": "2024-03"}, {"category": "anti-social-behaviour", "location_type": "Force", "location": {"latitude": "51.512855", "street": {"id": 1678860, "name": "On or near B402"}, "longitude": "-0.124820"}, "context": "", "outcome_status": null, "persistent_id": "", "id": 123100741, "location_subtype": "", "month": "2024-03"}, {"category": "anti-social-behaviour", "location_type": "Force", "location": {"latitude": "51.518323", "street": {"id": 1678925, "name": "On or near Gilbert Place"}, "longitude": "-0.124840"}, "context": "", "outcome_status": null, "persistent_id": "", "id": 123102251, "location_subtype": "", "month": "2024-03"}, {"category": "anti-social-behaviour", "location_type": "Force", "location": {"latitude": "51.519378", "street": {"id": 1677300, "name": "On or near Goodge Street"}, "longitude": "-0.135737"}, "context": "", "outcome_status": null, "persistent_id": "", "id": 123103610, "location_subtype": "", "month": "2024-03"}, {"category": "anti-social-behaviour", "location_type": "Force", "location": {"latitude": "51.502428", "street": {"id": 1681119, "name": "On or near Pear Place"}, "longitude": "-0.110508"}, "context": "", "outcome_status": null, "persistent_id": "", "id": 123082478, "location_subtype": "", "month": "2024-03"}, {"category": "anti-social-behaviour", "location_type": "Force", "location": {"latitude": "51.502888", "street": {"id": 1679979, "name": "On or near Chicheley Street"}, "longitude": "-0.117319"}, "context": "", "outcome_status": null, "persistent_id": "", "id": 123082625, "location_subtype": "", "month": "2024-03"}, {"category": "anti-social-behaviour", "location_type": "Force", "location": {"latitude": "51.509491", "street": {"id": 1678539, "name": "On or near William Iv Street"}, "longitude": "-0.125924"}, "context": "", "outcome_status": null, "persistent_id": "", "id": 123083498, "location_subtype": "", "month": "2024-03"}, {"category": "anti-social-behaviour", "location_type": "Force", "location": {"latitude": "51.506965", "street": {"id": 1679029, "name": "On or near Theatre/concert Hall"}, "longitude": "-0.123707"}, "context": "", "outcome_status": null, "persistent_id": "", "id": 123084240, "location_subtype": "", "month": "2024-03"}, {"category": "anti-social-behaviour", "location_type": "Force", "location": {"latitude": "51.514369", "street": {"id": 1679259, "name": "On or near Drury Lane"}, "longitude": "-0.121645"}, "context": "", "outcome_status": null, "persistent_id": "", "id": 123085085, "location_subtype": "", "month": "2024-03"}, {"category": "anti-social-behaviour", "location_type": "Force", "location": {"latitude": "51.500978", "street": {"id": 1678704, "name": "On or near Bridge Street"}, "longitude": "-0.125524"}, "context": "", "outcome_status": null, "persistent_id": "", "id": 123088196, "location_subtype": "", "month": "2024-03"}, {"category": "anti-social-behaviour", "location_type": "Force", "location": {"latitude": "51.513494", "street": {"id": 1677083, "name": "On or near Dufour's Place"}, "longitude": "-0.137289"}, "context": "", "outcome_status": null, "persistent_id": "", "id": 123090316, "location_subtype": "", "month": "2024-03"}, {"category": "anti-social-behaviour", "location_type": "Force", "location": {"latitude": "51.504925", "street": {"id": 1678852, "name": "On or near Horse Guards Avenue"}, "longitude": "-0.124886"}, "context": "", "outcome_status": null, "persistent_id": "", "id": 123112557, "location_subtype": "", "month": "2024-03"}, {"category": "anti-social-behaviour", "location_type": "Force", "location": {"latitude": "51.513753", "street": {"id": 1678851, "name": "On or near Shelton Street"}, "longitude": "-0.125331"}, "context": "", "outcome_status": null, "persistent_id": "", "id": 123121197, "location_subtype": "", "month": "2024-03"}, {"category": "anti-social-behaviour", "location_type": "Force", "location": {"latitude": "51.511783", "street": {"id": 1678199, "name": "On or near Nightclub"}, "longitude": "-0.129778"}, "context": "", "outcome_status": null, "persistent_id": "", "id": 123119406, "location_subtype": "", "month": "2024-03"}, {"category": "anti-social-behaviour", "location_type": "Force", "location": {"latitude": "51.503044", "street": {"id": 1681631, "name": "On or near The Cut"}, "longitude": "-0.107428"}, "context": "", "outcome_status": null, "persistent_id": "", "id": 123126128, "location_subtype": "", "month": "2024-03"}, {"category": "anti-social-behaviour", "location_type": "Force", "location": {"latitude": "51.517596", "street": {"id": 1677320, "name": "On or near Newman Street"}, "longitude": "-0.135680"}, "context": "", "outcome_status": null, "persistent_id": "", "id": 123092195, "location_subtype": "", "month": "2024-03"}, {"category": "anti-social-behaviour", "location_type": "Force", "location": {"latitude": "51.517516", "street": {"id": 1677426, "name": "On or near Gresse Street"}, "longitude": "-0.134012"}, "context": "", "outcome_status": null, "persistent_id": "", "id": 123092892, "location_subtype": "", "month": "2024-03"}, {"category": "anti-social-behaviour", "location_type": "Force", "location": {"latitude": "51.514211", "street": {"id": 1678632, "name": "On or near Monmouth Street"}, "longitude": "-0.126984"}, "context": "", "outcome_status": null, "persistent_id": "", "id": 123086800, "location_subtype": "", "month": "2024-03"}, {"category": "anti-social-behaviour", "location_type": "Force", "location": {"latitude": "51.512300", "street": {"id": 1678389, "name": "On or near Theatre/concert Hall"}, "longitude": "-0.128388"}, "context": "", "outcome_status": null, "persistent_id": "", "id": 123104614, "location_subtype": "", "month": "2024-03"}, {"category": "anti-social-behaviour", "location_type": "Force", "location": {"latitude": "51.513361", "street": {"id": 1678384, "name": "On or near Theatre/concert Hall"}, "longitude": "-0.128330"}, "context": "", "outcome_status": null, "persistent_id": "", "id": 123104324, "location_subtype": "", "month": "2024-03"}, {"category": "anti-social-behaviour", "location_type": "Force", "location": {"latitude": "51.507766", "street": {"id": 1676493, "name": "On or near Nightclub"}, "longitude": "-0.141284"}, "context": "", "outcome_status": null, "persistent_id": "", "id": 123104522, "location_subtype": "", "month": "2024-03"}, {"category": "anti-social-behaviour", "location_type": "Force", "location": {"latitude": "51.521458", "street": {"id": 1678167, "name": "On or near Malet Street"}, "longitude": "-0.130305"}, "context": "", "outcome_status": null, "persistent_id": "", "id": 123121311, "location_subtype": "", "month": "2024-03"}, {"category": "anti-social-behaviour", "location_type": "Force", "location": {"latitude": "51.519639", "street": {"id": 1679160, "name": "On or near Bloomsbury Place"}, "longitude": "-0.122797"}, "context": "", "outcome_status": null, "persistent_id": "", "id": 123121262, "location_subtype": "", "month": "2024-03"}, {"category": "anti-social-behaviour", "location_type": "Force", "location": {"latitude": "51.512300", "street": {"id": 1678389, "name": "On or near Theatre/concert Hall"}, "longitude": "-0.128388"}, "context": "", "outcome_status": null, "persistent_id": "", "id": 123121259, "location_subtype": "", "month": "2024-03"}, {"category": "anti-social-behaviour", "location_type": "Force", "location": {"latitude": "51.517803", "street": {"id": 1677586, "name": "On or near Percy Mews"}, "longitude": "-0.133971"}, "context": "", "outcome_status": null, "persistent_id": "", "id": 123121173, "location_subtype": "", "month": "2024-03"}, {"category": "anti-social-behaviour", "location_type": "Force", "location": {"latitude": "51.496313", "street": {"id": 1677735, "name": "On or near Chadwick Street"}, "longitude": "-0.132429"}, "context": "", "outcome_status": null, "persistent_id": "", "id": 123120954, "location_subtype": "", "month": "2024-03"}, {"category": "anti-social-behaviour", "location_type": "Force", "location": {"latitude": "51.516395", "street": {"id": 1678879, "name": "On or near Parking Area"}, "longitude": "-0.125165"}, "context": "", "outcome_status": null, "persistent_id": "", "id": 123120947, "location_subtype": "", "month": "2024-03"}, {"category": "anti-social-behaviour", "location_type": "Force", "location": {"latitude": "51.516001", "street": {"id": 1679229, "name": "On or near Macklin Street"}, "longitude": "-0.122471"}, "context": "", "outcome_status": null, "persistent_id": "", "id": 123120873, "location_subtype": "", "month": "2024-03"}, {"category": "anti-social-behaviour", "location_type": "Force", "location": {"latitude": "51.499488", "street": {"id": 1679222, "name": "On or near Hospital"}, "longitude": "-0.118410"}, "context": "", "outcome_status": null, "persistent_id": "", "id": 123120866, "location_subtype": "", "month": "2024-03"}, {"category": "anti-social-behaviour", "location_type": "Force", "location": {"latitude": "51.512590", "street": {"id": 1680673, "name": "On or near Essex Street"}, "longitude": "-0.112811"}, "context": "", "outcome_status": null, "persistent_id": "", "id": 123120847, "location_subtype": "", "month": "2024-03"}, {"category": "anti-social-behaviour", "location_type": "Force", "location": {"latitude": "51.519005", "street": {"id": 1680342, "name": "On or near Further/higher Educational Building"}, "longitude": "-0.114132"}, "context": "", "outcome_status": null, "persistent_id": "", "id": 123120826, "location_subtype": "", "month": "2024-03"}, {"category": "anti-social-behaviour", "location_type": "Force", "location": {"latitude": "51.513341", "street": {"id": 1677704, "name": "On or near Meard Street"}, "longitude": "-0.132756"}, "context": "", "outcome_status": null, "persistent_id": "", "id": 123120752, "location_subtype": "", "month": "2024-03"}, {"category": "anti-social-behaviour", "location_type": "Force", "location": {"latitude": "51.508351", "street": {"id": 1681422, "name": "On or near Conference/exhibition Centre"}, "longitude": "-0.108355"}, "context": "", "outcome_status": null, "persistent_id": "", "id": 123120660, "location_subtype": "", "month": "2024-03"}, {"category": "anti-social-behaviour", "location_type": "Force", "location": {"latitude": "51.502508", "street": {"id": 1680913, "name": "On or near Holmes Terrace"}, "longitude": "-0.110995"}, "context": "", "outcome_status": null, "persistent_id": "", "id": 123120641, "location_subtype": "", "month": "2024-03"}, {"category": "anti-social-behaviour", "location_type": "Force", "location": {"latitude": "51.509251", "street": {"id": 1677545, "name": "On or near St James's Market"}, "longitude": "-0.133398"}, "context": "", "outcome_status": null, "persistent_id": "", "id": 123120619, "location_subtype": "", "month": "2024-03"}, {"category": "anti-social-behaviour", "location_type": "Force", "location": {"latitude": "51.497579", "street": {"id": 1678121, "name": "On or near St Ann's Street"}, "longitude": "-0.130590"}, "context": "", "outcome_status": null, "persistent_id": "", "id": 123120381, "location_subtype": "", "month": "2024-03"}, {"category": "anti-social-behaviour", "location_type": "Force", "location": {"latitude": "51.515984", "street": {"id": 1679703, "name": "On or near Conference/exhibition Centre"}, "longitude": "-0.118595"}, "context": "", "outcome_status": null, "persistent_id": "", "id": 123110130, "location_subtype": "", "month": "2024-03"}, {"category": "anti-social-behaviour", "location_type": "Force", "location": {"latitude": "51.505921", "street": {"id": 1681295, "name": "On or near Aquinas Street"}, "longitude": "-0.109067"}, "context": "", "outcome_status": null, "persistent_id": "", "id": 123123747, "location_subtype": "", "month": "2024-03"}, {"category": "anti-social-behaviour", "location_type": "Force", "location": {"latitude": "51.507115", "street": {"id": 1676040, "name": "On or near Bolton Street"}, "longitude": "-0.144408"}, "context": "", "outcome_status": null, "persistent_id": "", "id": 123123628, "location_subtype": "", "month": "2024-03"}, {"category": "anti-social-behaviour", "location_type": "Force", "location": {"latitude": "51.513052", "street": {"id": 1677758, "name": "On or near Bourchier Street"}, "longitude": "-0.132681"}, "context": "", "outcome_status": null, "persistent_id": "", "id": 123123472, "location_subtype": "", "month": "2024-03"}, {"category": "anti-social-behaviour", "location_type": "Force", "location": {"latitude": "51.512059", "street": {"id": 1679743, "name": "On or near A301"}, "longitude": "-0.118929"}, "context": "", "outcome_status": null, "persistent_id": "", "id": 123123417, "location_subtype": "", "month": "2024-03"}, {"category": "anti-social-behaviour", "location_type": "Force", "location": {"latitude": "51.519933", "street": {"id": 1677494, "name": "On or near Shopping Area"}, "longitude": "-0.133899"}, "context": "", "outcome_status": null, "persistent_id": "", "id": 123123088, "location_subtype": "", "month": "2024-03"}, {"category": "anti-social-behaviour", "location_type": "Force", "location": {"latitude": "51.502888", "street": {"id": 1679979, "name": "On or near Chicheley Street"}, "longitude": "-0.117319"}, "context": "", "outcome_status": null, "persistent_id": "", "id": 123122970, "location_subtype": "", "month": "2024-03"}, {"category": "anti-social-behaviour", "location_type": "Force", "location": {"latitude": "51.514286", "street": {"id": 1677663, "name": "On or near Chapone Place"}, "longitude": "-0.132818"}, "context": "", "outcome_status": null, "persistent_id": "", "id": 123122873, "location_subtype": "", "month": "2024-03"}, {"category": "anti-social-behaviour", "location_type": "Force", "location": {"latitude": "51.504824", "street": {"id": 1680380, "name": "On or near Concert Hall Approach"}, "longitude": "-0.115222"}, "context": "", "outcome_status": null, "persistent_id": "", "id": 123122662, "location_subtype": "", "month": "2024-03"}, {"category": "anti-social-behaviour", "location_type": "Force", "location": {"latitude": "51.518130", "street": {"id": 1676977, "name": "On or near Parking Area"}, "longitude": "-0.137604"}, "context": "", "outcome_status": null, "persistent_id": "", "id": 123122587, "location_subtype": "", "month": "2024-03"}, {"category": "anti-social-behaviour", "location_type": "Force", "location": {"latitude": "51.503196", "street": {"id": 1678183, "name": "On or near Downing Street"}, "longitude": "-0.127032"}, "context": "", "outcome_status": null, "persistent_id": "", "id": 123122505, "location_subtype": "", "month": "2024-03"}, {"category": "anti-social-behaviour", "location_type": "Force", "location": {"latitude": "51.520697", "street": {"id": 1677436, "name": "On or near Tottenham Court Road"}, "longitude": "-0.134429"}, "context": "", "outcome_status": null, "persistent_id": "", "id": 123122479, "location_subtype": "", "month": "2024-03"}, {"category": "anti-social-behaviour", "location_type": "Force", "location": {"latitude": "51.522284", "street": {"id": 1678831, "name": "On or near Russell Square"}, "longitude": "-0.125153"}, "context": "", "outcome_status": null, "persistent_id": "", "id": 123122334, "location_subtype": "", "month": "2024-03"}, {"category": "anti-social-behaviour", "location_type": "Force", "location": {"latitude": "51.513288", "street": {"id": 1675603, "name": "On or near South Molton Lane"}, "longitude": "-0.147530"}, "context": "", "outcome_status": null, "persistent_id": "", "id": 123122191, "location_subtype": "", "month": "2024-03"}, {"category": "anti-social-behaviour", "location_type": "Force", "location": {"latitude": "51.513848", "street": {"id": 1678270, "name": "On or near Old Compton Street"}, "longitude": "-0.129593"}, "context": "", "outcome_status": null, "persistent_id": "", "id": 123122065, "location_subtype": "", "month": "2024-03"}, {"category": "anti-social-behaviour", "location_type": "Force", "location": {"latitude": "51.514408", "street": {"id": 1678779, "name": "On or near Neal Street"}, "longitude": "-0.125780"}, "context": "", "outcome_status": null, "persistent_id": "", "id": 123122056, "location_subtype": "", "month": "2024-03"}, {"category": "anti-social-behaviour", "location_type": "Force", "location": {"latitude": "51.511312", "street": {"id": 1677127, "name": "On or near Lower James Street"}, "longitude": "-0.136326"}, "context": "", "outcome_status": null, "persistent_id": "", "id": 123122018, "location_subtype": "", "month": "2024-03"}, {"category": "anti-social-behaviour", "location_type": "Force", "location": {"latitude": "51.514582", "street": {"id": 1678863, "name": "On or near Shorts Gardens"}, "longitude": "-0.125441"}, "context": "", "outcome_status": null, "persistent_id": "", "id": 123121998, "location_subtype": "", "month": "2024-03"}, {"category": "anti-social-behaviour", "location_type": "Force", "location": {"latitude": "51.509158", "street": {"id": 1677370, "name": "On or near Theatre/concert Hall"}, "longitude": "-0.134930"}, "context": "", "outcome_status": null, "persistent_id": "", "id": 123121855, "location_subtype": "", "month": "2024-03"}, {"category": "anti-social-behaviour", "location_type": "Force", "location": {"latitude": "51.511574", "street": {"id": 1678643, "name": "On or near Garrick Street"}, "longitude": "-0.126271"}, "context": "", "outcome_status": null, "persistent_id": "", "id": 123121599, "location_subtype": "", "month": "2024-03"}, {"category": "anti-social-behaviour", "location_type": "Force", "location": {"latitude": "51.511111", "street": {"id": 1679082, "name": "On or near Henrietta Street"}, "longitude": "-0.123710"}, "context": "", "outcome_status": null, "persistent_id": "", "id": 123121463, "location_subtype": "", "month": "2024-03"}, {"category": "anti-social-behaviour", "location_type": "Force", "location": {"latitude": "51.515598", "street": {"id": 1678536, "name": "On or near St Giles High Street"}, "longitude": "-0.127633"}, "context": "", "outcome_status": null, "persistent_id": "", "id": 123121447, "location_subtype": "", "month": "2024-03"}, {"category": "anti-social-behaviour", "location_type": "Force", "location": {"latitude": "51.500978", "street": {"id": 1678704, "name": "On or near Bridge Street"}, "longitude": "-0.125524"}, "context": "", "outcome_status": null, "persistent_id": "", "id": 123117461, "location_subtype": "", "month": "2024-03"}, {"category": "anti-social-behaviour", "location_type": "Force", "location": {"latitude": "51.496941", "street": {"id": 1677903, "name": "On or near Conference/exhibition Centre"}, "longitude": "-0.130617"}, "context": "", "outcome_status": null, "persistent_id": "", "id": 123117389, "location_subtype": "", "month": "2024-03"}, {"category": "anti-social-behaviour", "location_type": "Force", "location": {"latitude": "51.510389", "street": {"id": 1679043, "name": "On or near Bedford Street"}, "longitude": "-0.124157"}, "context": "", "outcome_status": null, "persistent_id": "", "id": 123117379, "location_subtype": "", "month": "2024-03"}, {"category": "anti-social-behaviour", "location_type": "Force", "location": {"latitude": "51.497024", "street": {"id": 1680681, "name": "On or near Cosser Street"}, "longitude": "-0.112777"}, "context": "", "outcome_status": null, "persistent_id": "", "id": 123117209, "location_subtype": "", "month": "2024-03"}, {"category": "anti-social-behaviour", "location_type": "Force", "location": {"latitude": "51.500608", "street": {"id": 1681635, "name": "On or near Gray Street"}, "longitude": "-0.108091"}, "context": "", "outcome_status": null, "persistent_id": "", "id": 123117172, "location_subtype": "", "month": "2024-03"}, {"category": "anti-social-behaviour", "location_type": "Force", "location": {"latitude": "51.498553", "street": {"id": 1677378, "name": "On or near Caxton Street"}, "longitude": "-0.135291"}, "context": "", "outcome_status": null, "persistent_id": "", "id": 123116649, "location_subtype": "", "month": "2024-03"}, {"category": "anti-social-behaviour", "location_type": "Force", "location": {"latitude": "51.518903", "street": {"id": 1677346, "name": "On or near Rathbone Street"}, "longitude": "-0.135296"}, "context": "", "outcome_status": null, "persistent_id": "", "id": 123116607, "location_subtype": "", "month": "2024-03"}, {"category": "anti-social-behaviour", "location_type": "Force", "location": {"latitude": "51.516341", "street": {"id": 1679597, "name": "On or near Nightclub"}, "longitude": "-0.120151"}, "context": "", "outcome_status": null, "persistent_id": "", "id": 123115867, "location_subtype": "", "month": "2024-03"}, {"category": "anti-social-behaviour", "location_type": "Force", "location": {"latitude": "51.502888", "street": {"id": 1679979, "name": "On or near Chicheley Street"}, "longitude": "-0.117319"}, "context": "", "outcome_status": null, "persistent_id": "", "id": 123115740, "location_subtype": "", "month": "2024-03"}, {"category": "anti-social-behaviour", "location_type": "Force", "location": {"latitude": "51.503699", "street": {"id": 1682121, "name": "On or near Blackfriars Road"}, "longitude": "-0.104577"}, "context": "", "outcome_status": null, "persistent_id": "", "id": 123115712, "location_subtype": "", "month": "2024-03"}, {"category": "anti-social-behaviour", "location_type": "Force", "location": {"latitude": "51.515984", "street": {"id": 1679703, "name": "On or near Conference/exhibition Centre"}, "longitude": "-0.118595"}, "context": "", "outcome_status": null, "persistent_id": "", "id": 123115590, "location_subtype": "", "month": "2024-03"}, {"category": "anti-social-behaviour", "location_type": "Force", "location": {"latitude": "51.498553", "street": {"id": 1677378, "name": "On or near Caxton Street"}, "longitude": "-0.135291"}, "context": "", "outcome_status": null, "persistent_id": "", "id": 123115236, "location_subtype": "", "month": "2024-03"}, {"category": "anti-social-behaviour", "location_type": "Force", "location": {"latitude": "51.515598", "street": {"id": 1678536, "name": "On or near St Giles High Street"}, "longitude": "-0.127633"}, "context": "", "outcome_status": null, "persistent_id": "", "id": 123115143, "location_subtype": "", "month": "2024-03"}, {"category": "anti-social-behaviour", "location_type": "Force", "location": {"latitude": "51.496940", "street": {"id": 1678535, "name": "On or near Lord North Street"}, "longitude": "-0.127159"}, "context": "", "outcome_status": null, "persistent_id": "", "id": 123115055, "location_subtype": "", "month": "2024-03"}, {"category": "anti-social-behaviour", "location_type": "Force", "location": {"latitude": "51.510468", "street": {"id": 1678029, "name": "On or near Leicester Square"}, "longitude": "-0.130769"}, "context": "", "outcome_status": null, "persistent_id": "", "id": 123113714, "location_subtype": "", "month": "2024-03"}, {"category": "anti-social-behaviour", "location_type": "Force", "location": {"latitude": "51.517845", "street": {"id": 1679284, "name": "On or near Further/higher Educational Building"}, "longitude": "-0.121977"}, "context": "", "outcome_status": null, "persistent_id": "", "id": 123113607, "location_subtype": "", "month": "2024-03"}, {"category": "anti-social-behaviour", "location_type": "Force", "location": {"latitude": "51.516341", "street": {"id": 1679597, "name": "On or near Nightclub"}, "longitude": "-0.120151"}, "context": "", "outcome_status": null, "persistent_id": "", "id": 123112679, "location_subtype": "", "month": "2024-03"}, {"category": "anti-social-behaviour", "location_type": "Force", "location": {"latitude": "51.511137", "street": {"id": 1678783, "name": "On or near New Row"}, "longitude": "-0.125914"}, "context": "", "outcome_status": null, "persistent_id": "", "id": 123112654, "location_subtype": "", "month": "2024-03"}, {"category": "anti-social-behaviour", "location_type": "Force", "location": {"latitude": "51.518903", "street": {"id": 1677346, "name": "On or near Rathbone Street"}, "longitude": "-0.135296"}, "context": "", "outcome_status": null, "persistent_id": "", "id": 123112542, "location_subtype": "", "month": "2024-03"}, {"category": "anti-social-behaviour", "location_type": "Force", "location": {"latitude": "51.509158", "street": {"id": 1677370, "name": "On or near Theatre/concert Hall"}, "longitude": "-0.134930"}, "context": "", "outcome_status": null, "persistent_id": "", "id": 123112509, "location_subtype": "", "month": "2024-03"}, {"category": "anti-social-behaviour", "location_type": "Force", "location": {"latitude": "51.513205", "street": {"id": 1678985, "name": "On or near Long Acre"}, "longitude": "-0.124229"}, "context": "", "outcome_status": null, "persistent_id": "", "id": 123112435, "location_subtype": "", "month": "2024-03"}, {"category": "anti-social-behaviour", "location_type": "Force", "location": {"latitude": "51.514684", "street": {"id": 1676465, "name": "On or near Argyll Street"}, "longitude": "-0.140844"}, "context": "", "outcome_status": null, "persistent_id": "", "id": 123112369, "location_subtype": "", "month": "2024-03"}, {"category": "anti-social-behaviour", "location_type": "Force", "location": {"latitude": "51.508409", "street": {"id": 1679097, "name": "On or near Buckingham Street"}, "longitude": "-0.123461"}, "context": "", "outcome_status": null, "persistent_id": "", "id": 123112046, "location_subtype": "", "month": "2024-03"}, {"category": "anti-social-behaviour", "location_type": "Force", "location": {"latitude": "51.508087", "street": {"id": 1678961, "name": "On or near Nightclub"}, "longitude": "-0.124122"}, "context": "", "outcome_status": null, "persistent_id": "", "id": 123111901, "location_subtype": "", "month": "2024-03"}, {"category": "anti-social-behaviour", "location_type": "Force", "location": {"latitude": "51.516341", "street": {"id": 1679597, "name": "On or near Nightclub"}, "longitude": "-0.120151"}, "context": "", "outcome_status": null, "persistent_id": "", "id": 123111673, "location_subtype": "", "month": "2024-03"}, {"category": "anti-social-behaviour", "location_type": "Force", "location": {"latitude": "51.515939", "street": {"id": 1677739, "name": "On or near Soho Street"}, "longitude": "-0.132693"}, "context": "", "outcome_status": null, "persistent_id": "", "id": 123111614, "location_subtype": "", "month": "2024-03"}, {"category": "anti-social-behaviour", "location_type": "Force", "location": {"latitude": "51.514064", "street": {"id": 1679774, "name": "On or near Kean Street"}, "longitude": "-0.118890"}, "context": "", "outcome_status": null, "persistent_id": "", "id": 123111400, "location_subtype": "", "month": "2024-03"}, {"category": "anti-social-behaviour", "location_type": "Force", "location": {"latitude": "51.496711", "street": {"id": 1677082, "name": "On or near Howick Place"}, "longitude": "-0.137095"}, "context": "", "outcome_status": null, "persistent_id": "", "id": 123111393, "location_subtype": "", "month": "2024-03"}, {"category": "anti-social-behaviour", "location_type": "Force", "location": {"latitude": "51.509044", "street": {"id": 1679072, "name": "On or near John Adam Street"}, "longitude": "-0.123247"}, "context": "", "outcome_status": null, "persistent_id": "", "id": 123111110, "location_subtype": "", "month": "2024-03"}, {"category": "anti-social-behaviour", "location_type": "Force", "location": {"latitude": "51.513575", "street": {"id": 1676335, "name": "On or near Pollen Street"}, "longitude": "-0.142373"}, "context": "", "outcome_status": null, "persistent_id": "", "id": 123110882, "location_subtype": "", "month": "2024-03"}, {"category": "anti-social-behaviour", "location_type": "Force", "location": {"latitude": "51.509396", "street": {"id": 1678091, "name": "On or near Orange Street"}, "longitude": "-0.130626"}, "context": "", "outcome_status": null, "persistent_id": "", "id": 123110828, "location_subtype": "", "month": "2024-03"}, {"category": "anti-social-behaviour", "location_type": "Force", "location": {"latitude": "51.503196", "street": {"id": 1678183, "name": "On or near Downing Street"}, "longitude": "-0.127032"}, "context": "", "outcome_status": null, "persistent_id": "", "id": 123110825, "location_subtype": "", "month": "2024-03"}, {"category": "anti-social-behaviour", "location_type": "Force", "location": {"latitude": "51.510389", "street": {"id": 1679043, "name": "On or near Bedford Street"}, "longitude": "-0.124157"}, "context": "", "outcome_status": null, "persistent_id": "", "id": 123110727, "location_subtype": "", "month": "2024-03"}, {"category": "anti-social-behaviour", "location_type": "Force", "location": {"latitude": "51.515087", "street": {"id": 1677233, "name": "On or near Noel Street"}, "longitude": "-0.136201"}, "context": "", "outcome_status": null, "persistent_id": "", "id": 123110724, "location_subtype": "", "month": "2024-03"}, {"category": "anti-social-behaviour", "location_type": "Force", "location": {"latitude": "51.496949", "street": {"id": 1677316, "name": "On or near Artillery Row"}, "longitude": "-0.135630"}, "context": "", "outcome_status": null, "persistent_id": "", "id": 123103902, "location_subtype": "", "month": "2024-03"}, {"category": "anti-social-behaviour", "location_type": "Force", "location": {"latitude": "51.501941", "street": {"id": 1680853, "name": "On or near Lower Road"}, "longitude": "-0.112127"}, "context": "", "outcome_status": null, "persistent_id": "", "id": 123110668, "location_subtype": "", "month": "2024-03"}, {"category": "anti-social-behaviour", "location_type": "Force", "location": {"latitude": "51.512300", "street": {"id": 1678389, "name": "On or near Theatre/concert Hall"}, "longitude": "-0.128388"}, "context": "", "outcome_status": null, "persistent_id": "", "id": 123110640, "location_subtype": "", "month": "2024-03"}, {"category": "anti-social-behaviour", "location_type": "Force", "location": {"latitude": "51.509251", "street": {"id": 1677545, "name": "On or near St James's Market"}, "longitude": "-0.133398"}, "context": "", "outcome_status": null, "persistent_id": "", "id": 123110577, "location_subtype": "", "month": "2024-03"}, {"category": "anti-social-behaviour", "location_type": "Force", "location": {"latitude": "51.510468", "street": {"id": 1678029, "name": "On or near Leicester Square"}, "longitude": "-0.130769"}, "context": "", "outcome_status": null, "persistent_id": "", "id": 123110526, "location_subtype": "", "month": "2024-03"}, {"category": "anti-social-behaviour", "location_type": "Force", "location": {"latitude": "51.500978", "street": {"id": 1678704, "name": "On or near Bridge Street"}, "longitude": "-0.125524"}, "context": "", "outcome_status": null, "persistent_id": "", "id": 123110431, "location_subtype": "", "month": "2024-03"}, {"category": "anti-social-behaviour", "location_type": "Force", "location": {"latitude": "51.518897", "street": {"id": 1680092, "name": "On or near Red Lion Street"}, "longitude": "-0.116904"}, "context": "", "outcome_status": null, "persistent_id": "", "id": 123110383, "location_subtype": "", "month": "2024-03"}, {"category": "anti-social-behaviour", "location_type": "Force", "location": {"latitude": "51.507725", "street": {"id": 1678750, "name": "On or near Corner House Street"}, "longitude": "-0.125708"}, "context": "", "outcome_status": null, "persistent_id": "", "id": 123110258, "location_subtype": "", "month": "2024-03"}, {"category": "anti-social-behaviour", "location_type": "Force", "location": {"latitude": "51.513052", "street": {"id": 1677758, "name": "On or near Bourchier Street"}, "longitude": "-0.132681"}, "context": "", "outcome_status": null, "persistent_id": "", "id": 123110128, "location_subtype": "", "month": "2024-03"}, {"category": "anti-social-behaviour", "location_type": "Force", "location": {"latitude": "51.505921", "street": {"id": 1681295, "name": "On or near Aquinas Street"}, "longitude": "-0.109067"}, "context": "", "outcome_status": null, "persistent_id": "", "id": 123110084, "location_subtype": "", "month": "2024-03"}, {"category": "anti-social-behaviour", "location_type": "Force", "location": {"latitude": "51.517885", "street": {"id": 1676900, "name": "On or near Booth's Place"}, "longitude": "-0.138580"}, "context": "", "outcome_status": null, "persistent_id": "", "id": 123110063, "location_subtype": "", "month": "2024-03"}, {"category": "anti-social-behaviour", "location_type": "Force", "location": {"latitude": "51.498553", "street": {"id": 1677378, "name": "On or near Caxton Street"}, "longitude": "-0.135291"}, "context": "", "outcome_status": null, "persistent_id": "", "id": 123110032, "location_subtype": "", "month": "2024-03"}, {"category": "anti-social-behaviour", "location_type": "Force", "location": {"latitude": "51.507725", "street": {"id": 1678750, "name": "On or near Corner House Street"}, "longitude": "-0.125708"}, "context": "", "outcome_status": null, "persistent_id": "", "id": 123110011, "location_subtype": "", "month": "2024-03"}, {"category": "anti-social-behaviour", "location_type": "Force", "location": {"latitude": "51.518456", "street": {"id": 1677599, "name": "On or near Percy Street"}, "longitude": "-0.133209"}, "context": "", "outcome_status": null, "persistent_id": "", "id": 123108353, "location_subtype": "", "month": "2024-03"}, {"category": "anti-social-behaviour", "location_type": "Force", "location": {"latitude": "51.519092", "street": {"id": 1679240, "name": "On or near Bloomsbury Square"}, "longitude": "-0.122330"}, "context": "", "outcome_status": null, "persistent_id": "", "id": 123108193, "location_subtype": "", "month": "2024-03"}, {"category": "anti-social-behaviour", "location_type": "Force", "location": {"latitude": "51.506342", "street": {"id": 1678767, "name": "On or near Great Scotland Yard"}, "longitude": "-0.125794"}, "context": "", "outcome_status": null, "persistent_id": "", "id": 123108085, "location_subtype": "", "month": "2024-03"}, {"category": "anti-social-behaviour", "location_type": "Force", "location": {"latitude": "51.497534", "street": {"id": 1677829, "name": "On or near Old Pye Street"}, "longitude": "-0.132307"}, "context": "", "outcome_status": null, "persistent_id": "", "id": 123107974, "location_subtype": "", "month": "2024-03"}, {"category": "anti-social-behaviour", "location_type": "Force", "location": {"latitude": "51.510973", "street": {"id": 1676429, "name": "On or near Clifford Street"}, "longitude": "-0.141629"}, "context": "", "outcome_status": null, "persistent_id": "", "id": 123107770, "location_subtype": "", "month": "2024-03"}, {"category": "anti-social-behaviour", "location_type": "Force", "location": {"latitude": "51.512495", "street": {"id": 1676635, "name": "On or near Nightclub"}, "longitude": "-0.138915"}, "context": "", "outcome_status": null, "persistent_id": "", "id": 123107356, "location_subtype": "", "month": "2024-03"}, {"category": "anti-social-behaviour", "location_type": "Force", "location": {"latitude": "51.513288", "street": {"id": 1675603, "name": "On or near South Molton Lane"}, "longitude": "-0.147530"}, "context": "", "outcome_status": null, "persistent_id": "", "id": 123107337, "location_subtype": "", "month": "2024-03"}, {"category": "anti-social-behaviour", "location_type": "Force", "location": {"latitude": "51.513575", "street": {"id": 1676335, "name": "On or near Pollen Street"}, "longitude": "-0.142373"}, "context": "", "outcome_status": null, "persistent_id": "", "id": 123107283, "location_subtype": "", "month": "2024-03"}, {"category": "anti-social-behaviour", "location_type": "Force", "location": {"latitude": "51.519609", "street": {"id": 1676738, "name": "On or near Foley Street"}, "longitude": "-0.139548"}, "context": "", "outcome_status": null, "persistent_id": "", "id": 123107133, "location_subtype": "", "month": "2024-03"}, {"category": "anti-social-behaviour", "location_type": "Force", "location": {"latitude": "51.496941", "street": {"id": 1677903, "name": "On or near Conference/exhibition Centre"}, "longitude": "-0.130617"}, "context": "", "outcome_status": null, "persistent_id": "", "id": 123107099, "location_subtype": "", "month": "2024-03"}, {"category": "anti-social-behaviour", "location_type": "Force", "location": {"latitude": "51.513205", "street": {"id": 1678985, "name": "On or near Long Acre"}, "longitude": "-0.124229"}, "context": "", "outcome_status": null, "persistent_id": "", "id": 123106898, "location_subtype": "", "month": "2024-03"}, {"category": "anti-social-behaviour", "location_type": "Force", "location": {"latitude": "51.506342", "street": {"id": 1678767, "name": "On or near Great Scotland Yard"}, "longitude": "-0.125794"}, "context": "", "outcome_status": null, "persistent_id": "", "id": 123106876, "location_subtype": "", "month": "2024-03"}, {"category": "anti-social-behaviour", "location_type": "Force", "location": {"latitude": "51.513288", "street": {"id": 1675603, "name": "On or near South Molton Lane"}, "longitude": "-0.147530"}, "context": "", "outcome_status": null, "persistent_id": "", "id": 123106527, "location_subtype": "", "month": "2024-03"}, {"category": "anti-social-behaviour", "location_type": "Force", "location": {"latitude": "51.497534", "street": {"id": 1677829, "name": "On or near Old Pye Street"}, "longitude": "-0.132307"}, "context": "", "outcome_status": null, "persistent_id": "", "id": 123106485, "location_subtype": "", "month": "2024-03"}, {"category": "anti-social-behaviour", "location_type": "Force", "location": {"latitude": "51.513575", "street": {"id": 1676335, "name": "On or near Pollen Street"}, "longitude": "-0.142373"}, "context": "", "outcome_status": null, "persistent_id": "", "id": 123106061, "location_subtype": "", "month": "2024-03"}, {"category": "anti-social-behaviour", "location_type": "Force", "location": {"latitude": "51.502428", "street": {"id": 1681119, "name": "On or near Pear Place"}, "longitude": "-0.110508"}, "context": "", "outcome_status": null, "persistent_id": "", "id": 123106031, "location_subtype": "", "month": "2024-03"}, {"category": "anti-social-behaviour", "location_type": "Force", "location": {"latitude": "51.507159", "street": {"id": 1682020, "name": "On or near Rennie Street"}, "longitude": "-0.105571"}, "context": "", "outcome_status": null, "persistent_id": "", "id": 123106014, "location_subtype": "", "month": "2024-03"}, {"category": "anti-social-behaviour", "location_type": "Force", "location": {"latitude": "51.512495", "street": {"id": 1676635, "name": "On or near Nightclub"}, "longitude": "-0.138915"}, "context": "", "outcome_status": null, "persistent_id": "", "id": 123105806, "location_subtype": "", "month": "2024-03"}, {"category": "anti-social-behaviour", "location_type": "Force", "location": {"latitude": "51.516001", "street": {"id": 1679229, "name": "On or near Macklin Street"}, "longitude": "-0.122471"}, "context": "", "outcome_status": null, "persistent_id": "", "id": 123105782, "location_subtype": "", "month": "2024-03"}, {"category": "anti-social-behaviour", "location_type": "Force", "location": {"latitude": "51.518106", "street": {"id": 1680014, "name": "On or near Race Track"}, "longitude": "-0.116951"}, "context": "", "outcome_status": null, "persistent_id": "", "id": 123105690, "location_subtype": "", "month": "2024-03"}, {"category": "anti-social-behaviour", "location_type": "Force", "location": {"latitude": "51.515753", "street": {"id": 1676083, "name": "On or near John Prince's Street"}, "longitude": "-0.143092"}, "context": "", "outcome_status": null, "persistent_id": "", "id": 123105097, "location_subtype": "", "month": "2024-03"}, {"category": "anti-social-behaviour", "location_type": "Force", "location": {"latitude": "51.514365", "street": {"id": 1675924, "name": "On or near Princes Street"}, "longitude": "-0.143408"}, "context": "", "outcome_status": null, "persistent_id": "", "id": 123105076, "location_subtype": "", "month": "2024-03"}, {"category": "anti-social-behaviour", "location_type": "Force", "location": {"latitude": "51.514064", "street": {"id": 1679774, "name": "On or near Kean Street"}, "longitude": "-0.118890"}, "context": "", "outcome_status": null, "persistent_id": "", "id": 123105071, "location_subtype": "", "month": "2024-03"}, {"category": "anti-social-behaviour", "location_type": "Force", "location": {"latitude": "51.496949", "street": {"id": 1677316, "name": "On or near Artillery Row"}, "longitude": "-0.135630"}, "context": "", "outcome_status": null, "persistent_id": "", "id": 123104990, "location_subtype": "", "month": "2024-03"}, {"category": "anti-social-behaviour", "location_type": "Force", "location": {"latitude": "51.515598", "street": {"id": 1678536, "name": "On or near St Giles High Street"}, "longitude": "-0.127633"}, "context": "", "outcome_status": null, "persistent_id": "", "id": 123089707, "location_subtype": "", "month": "2024-03"}, {"category": "anti-social-behaviour", "location_type": "Force", "location": {"latitude": "51.509491", "street": {"id": 1678539, "name": "On or near William Iv Street"}, "longitude": "-0.125924"}, "context": "", "outcome_status": null, "persistent_id": "", "id": 123089186, "location_subtype": "", "month": "2024-03"}, {"category": "anti-social-behaviour", "location_type": "Force", "location": {"latitude": "51.514867", "street": {"id": 1676714, "name": "On or near Further/higher Educational Building"}, "longitude": "-0.138790"},