[{"category": "anti-social-behaviour", "location_type": "Force", "location": {"latitude": "52.632588", "street": {"id": 1737406, "name": "On or near Andrewes Street"}, "longitude": "-1.149351"}, "context": "", "outcome_status": null, "persistent_id": "", "id": 118861000, "location_subtype": "", "month": "2024-05"}, {"category": "anti-social-behaviour", "location_type": "Force", "location": {"latitude": "52.632334", "street": {"id": 1737572, "name": "On or near Narborough Road North"}, "longitude": "-1.146564"}, "context": "", "outcome_status": null, "persistent_id": "", "id": 118860442, "location_subtype": "", "month": "2024-05"}, {"category": "anti-social-behaviour", "location_type": "Force", "location": {"latitude": "52.632171", "street": {"id": 1738533, "name": "On or near Stamford Street"}, "longitude": "-1.130358"}, "context": "", "outcome_status": null, "persistent_id": "", "id": 118860912, "location_subtype": "", "month": "2024-05"}, {"category": "anti-social-behaviour", "location_type": "Force", "location": {"latitude": "52.635488", "street": {"id": 1738121, "name": "On or near Carts Lane"}, "longitude": "-1.136395"}, "context": "", "outcome_status": null, "persistent_id": "", "id": 118860069, "location_subtype": "", "month": "2024-05"}, {"category": "anti-social-behaviour", "location_type": "Force", "location": {"latitude": "52.630528", "street": {"id": 1738283, "name": "On or near Norton Street"}, "longitude": "-1.134336"}, "context": "", "outcome_status": null, "persistent_id": "", "id": 118860784, "location_subtype": "", "month": "2024-05"}, {"category": "anti-social-behaviour", "location_type": "Force", "location": {"latitude": "52.633297", "street": {"id": 1739224, "name": "On or near Pluto Close"}, "longitude": "-1.116121"}, "context": "", "outcome_status": null, "persistent_id": "", "id": 118860821, "location_subtype": "", "month": "2024-05"}, {"category": "anti-social-behaviour", "location_type": "Force", "location": {"latitude": "52.631813", "street": {"id": 1738223, "name": "On or near Newarke Street"}, "longitude": "-1.135537"}, "context": "", "outcome_status": null, "persistent_id": "", "id": 118860067, "location_subtype": "", "month": "2024-05"}, {"category": "anti-social-behaviour", "location_type": "Force", "location": {"latitude": "52.637581", "street": {"id": 1738327, "name": "On or near Parking Area"}, "longitude": "-1.133709"}, "context": "", "outcome_status": null, "persistent_id": "", "id": 118860834, "location_subtype": "", "month": "2024-05"}, {"category": "anti-social-behaviour", "location_type": "Force", "location": {"latitude": "52.636041", "street": {"id": 1738351, "name": "On or near East Gates"}, "longitude": "-1.133444"}, "context": "", "outcome_status": null, "persistent_id": "", "id": 118860836, "location_subtype": "", "month": "2024-05"}, {"category": "anti-social-behaviour", "location_type": "Force", "location": {"latitude": "52.621857", "street": {"id": 1737629, "name": "On or near Quainton Road"}, "longitude": "-1.146029"}, "context": "", "outcome_status": null, "persistent_id": "", "id": 118860582, "location_subtype": "", "month": "2024-05"}, {"category": "anti-social-behaviour", "location_type": "Force", "location": {"latitude": "52.627798", "street": {"id": 1737705, "name": "On or near Tarragon Road"}, "longitude": "-1.144613"}, "context": "", "outcome_status": null, "persistent_id": "", "id": 118860843, "location_subtype": "", "month": "2024-05"}, {"category": "anti-social-behaviour", "location_type": "Force", "location": {"latitude": "52.635797", "street": {"id": 1738449, "name": "On or near Fox Lane"}, "longitude": "-1.131926"}, "context": "", "outcome_status": null, "persistent_id": "", "id": 118860066, "location_subtype": "", "month": "2024-05"}, {"category": "anti-social-behaviour", "location_type": "Force", "location": {"latitude": "52.636041", "street": {"id": 1738351, "name": "On or near East Gates"}, "longitude": "-1.133444"}, "context": "", "outcome_status": null, "persistent_id": "", "id": 118860846, "location_subtype": "", "month": "2024-05"}, {"category": "anti-social-behaviour", "location_type": "Force", "location": {"latitude": "52.630929", "street": {"id": 1739049, "name": "On or near Hobart Street"}, "longitude": "-1.120365"}, "context": "", "outcome_status": null, "persistent_id": "", "id": 118860062, "location_subtype": "", "month": "2024-05"}, {"category": "anti-social-behaviour", "location_type": "Force", "location": {"latitude": "52.633879", "street": {"id": 1738375, "name": "On or near Horsefair Street"}, "longitude": "-1.132821"}, "context": "", "outcome_status": null, "persistent_id": "", "id": 118860056, "location_subtype": "", "month": "2024-05"}, {"category": "anti-social-behaviour", "location_type": "Force", "location": {"latitude": "52.631714", "street": {"id": 1738501, "name": "On or near Albion Street"}, "longitude": "-1.130515"}, "context": "", "outcome_status": null, "persistent_id": "", "id": 118860851, "location_subtype": "", "month": "2024-05"}, {"category": "anti-social-behaviour", "location_type": "Force", "location": {"latitude": "52.633879", "street": {"id": 1738375, "name": "On or near Horsefair Street"}, "longitude": "-1.132821"}, "context": "", "outcome_status": null, "persistent_id": "", "id": 118860857, "location_subtype": "", "month": "2024-05"}, {"category": "anti-social-behaviour", "location_type": "Force", "location": {"latitude": "52.633297", "street": {"id": 1739224, "name": "On or near Pluto Close"}, "longitude": "-1.116121"}, "context": "", "outcome_status": null, "persistent_id": "", "id": 118860859, "location_subtype": "", "month": "2024-05"}, {"category": "anti-social-behaviour", "location_type": "Force", "location": {"latitude": "52.633897", "street": {"id": 1738339, "name": "On or near Shopping Area"}, "longitude": "-1.133974"}, "context": "", "outcome_status": null, "persistent_id": "", "id": 118860884, "location_subtype": "", "month": "2024-05"}, {"category": "anti-social-behaviour", "location_type": "Force", "location": {"latitude": "52.640594", "street": {"id": 1738498, "name": "On or near Royal East Street"}, "longitude": "-1.131506"}, "context": "", "outcome_status": null, "persistent_id": "", "id": 118860044, "location_subtype": "", "month": "2024-05"}, {"category": "anti-social-behaviour", "location_type": "Force", "location": {"latitude": "52.635488", "street": {"id": 1738121, "name": "On or near Carts Lane"}, "longitude": "-1.136395"}, "context": "", "outcome_status": null, "persistent_id": "", "id": 118860196, "location_subtype": "", "month": "2024-05"}, {"category": "anti-social-behaviour", "location_type": "Force", "location": {"latitude": "52.630994", "street": {"id": 1737181, "name": "On or near Linkway Gardens"}, "longitude": "-1.154051"}, "context": "", "outcome_status": null, "persistent_id": "", "id": 118860041, "location_subtype": "", "month": "2024-05"}, {"category": "anti-social-behaviour", "location_type": "Force", "location": {"latitude": "52.637627", "street": {"id": 1738668, "name": "On or near Eldon Street"}, "longitude": "-1.127782"}, "context": "", "outcome_status": null, "persistent_id": "", "id": 118860210, "location_subtype": "", "month": "2024-05"}, {"category": "anti-social-behaviour", "location_type": "Force", "location": {"latitude": "52.639223", "street": {"id": 1738429, "name": "On or near Police Station"}, "longitude": "-1.132080"}, "context": "", "outcome_status": null, "persistent_id": "", "id": 118860886, "location_subtype": "", "month": "2024-05"}, {"category": "anti-social-behaviour", "location_type": "Force", "location": {"latitude": "52.639223", "street": {"id": 1738429, "name": "On or near Police Station"}, "longitude": "-1.132080"}, "context": "", "outcome_status": null, "persistent_id": "", "id": 118860887, "location_subtype": "", "month": "2024-05"}, {"category": "anti-social-behaviour", "location_type": "Force", "location": {"latitude": "52.629337", "street": {"id": 1739119, "name": "On or near Severn Street"}, "longitude": "-1.117944"}, "context": "", "outcome_status": null, "persistent_id": "", "id": 118860888, "location_subtype": "", "month": "2024-05"}, {"category": "anti-social-behaviour", "location_type": "Force", "location": {"latitude": "52.629831", "street": {"id": 1738423, "name": "On or near Marquis Street"}, "longitude": "-1.132503"}, "context": "", "outcome_status": null, "persistent_id": "", "id": 118860891, "location_subtype": "", "month": "2024-05"}, {"category": "anti-social-behaviour", "location_type": "Force", "location": {"latitude": "52.635797", "street": {"id": 1738449, "name": "On or near Fox Lane"}, "longitude": "-1.131926"}, "context": "", "outcome_status": null, "persistent_id": "", "id": 118860892, "location_subtype": "", "month": "2024-05"}, {"category": "anti-social-behaviour", "location_type": "Force", "location": {"latitude": "52.637581", "street": {"id": 1738327, "name": "On or near Parking Area"}, "longitude": "-1.133709"}, "context": "", "outcome_status": null, "persistent_id": "", "id": 118860036, "location_subtype": "", "month": "2024-05"}, {"category": "anti-social-behaviour", "location_type": "Force", "location": {"latitude": "52.637791", "street": {"id": 1737446, "name": "On or near Tudor Road"}, "longitude": "-1.147906"}, "context": "", "outcome_status": null, "persistent_id": "", "id": 118861012, "location_subtype": "", "month": "2024-05"}, {"category": "anti-social-behaviour", "location_type": "Force", "location": {"latitude": "52.631353", "street": {"id": 1738221, "name": "On or near Upper Brown Street"}, "longitude": "-1.135324"}, "context": "", "outcome_status": null, "persistent_id": "", "id": 118861014, "location_subtype": "", "month": "2024-05"}, {"category": "anti-social-behaviour", "location_type": "Force", "location": {"latitude": "52.632743", "street": {"id": 1737208, "name": "On or near Stretton Road"}, "longitude": "-1.153471"}, "context": "", "outcome_status": null, "persistent_id": "", "id": 118860235, "location_subtype": "", "month": "2024-05"}, {"category": "anti-social-behaviour", "location_type": "Force", "location": {"latitude": "52.627895", "street": {"id": 1737587, "name": "On or near Supermarket"}, "longitude": "-1.146886"}, "context": "", "outcome_status": null, "persistent_id": "", "id": 118861016, "location_subtype": "", "month": "2024-05"}, {"category": "anti-social-behaviour", "location_type": "Force", "location": {"latitude": "52.628024", "street": {"id": 1739020, "name": "On or near Victoria Avenue"}, "longitude": "-1.120202"}, "context": "", "outcome_status": null, "persistent_id": "", "id": 118861022, "location_subtype": "", "month": "2024-05"}, {"category": "anti-social-behaviour", "location_type": "Force", "location": {"latitude": "52.638235", "street": {"id": 1738688, "name": "On or near Wharf Street South"}, "longitude": "-1.127268"}, "context": "", "outcome_status": null, "persistent_id": "", "id": 118860085, "location_subtype": "", "month": "2024-05"}, {"category": "anti-social-behaviour", "location_type": "Force", "location": {"latitude": "52.630568", "street": {"id": 1737160, "name": "On or near Cherryleas Drive"}, "longitude": "-1.154872"}, "context": "", "outcome_status": null, "persistent_id": "", "id": 118861024, "location_subtype": "", "month": "2024-05"}, {"category": "anti-social-behaviour", "location_type": "Force", "location": {"latitude": "52.625255", "street": {"id": 1739323, "name": "On or near St James Road"}, "longitude": "-1.114156"}, "context": "", "outcome_status": null, "persistent_id": "", "id": 118860117, "location_subtype": "", "month": "2024-05"}, {"category": "anti-social-behaviour", "location_type": "Force", "location": {"latitude": "52.624479", "street": {"id": 1737381, "name": "On or near Stuart Street"}, "longitude": "-1.150676"}, "context": "", "outcome_status": null, "persistent_id": "", "id": 118860211, "location_subtype": "", "month": "2024-05"}, {"category": "anti-social-behaviour", "location_type": "Force", "location": {"latitude": "52.637769", "street": {"id": 1737426, "name": "On or near Vernon Street"}, "longitude": "-1.149724"}, "context": "", "outcome_status": null, "persistent_id": "", "id": 118860239, "location_subtype": "", "month": "2024-05"}, {"category": "anti-social-behaviour", "location_type": "Force", "location": {"latitude": "52.628699", "street": {"id": 1738260, "name": "On or near Pelham Way"}, "longitude": "-1.133736"}, "context": "", "outcome_status": null, "persistent_id": "", "id": 118860243, "location_subtype": "", "month": "2024-05"}, {"category": "anti-social-behaviour", "location_type": "Force", "location": {"latitude": "52.634787", "street": {"id": 1737952, "name": "On or near Parking Area"}, "longitude": "-1.139010"}, "context": "", "outcome_status": null, "persistent_id": "", "id": 118860247, "location_subtype": "", "month": "2024-05"}, {"category": "anti-social-behaviour", "location_type": "Force", "location": {"latitude": "52.633318", "street": {"id": 1738276, "name": "On or near Nightclub"}, "longitude": "-1.134798"}, "context": "", "outcome_status": null, "persistent_id": "", "id": 118860463, "location_subtype": "", "month": "2024-05"}, {"category": "anti-social-behaviour", "location_type": "Force", "location": {"latitude": "52.631902", "street": {"id": 1739585, "name": "On or near Park Vale Road"}, "longitude": "-1.108703"}, "context": "", "outcome_status": null, "persistent_id": "", "id": 118860212, "location_subtype": "", "month": "2024-05"}, {"category": "anti-social-behaviour", "location_type": "Force", "location": {"latitude": "52.632541", "street": {"id": 1739325, "name": "On or near Derwent Street"}, "longitude": "-1.113595"}, "context": "", "outcome_status": null, "persistent_id": "", "id": 118860464, "location_subtype": "", "month": "2024-05"}, {"category": "anti-social-behaviour", "location_type": "Force", "location": {"latitude": "52.632778", "street": {"id": 1737719, "name": "On or near Westbridge Close"}, "longitude": "-1.143349"}, "context": "", "outcome_status": null, "persistent_id": "", "id": 118860466, "location_subtype": "", "month": "2024-05"}, {"category": "anti-social-behaviour", "location_type": "Force", "location": {"latitude": "52.627455", "street": {"id": 1739118, "name": "On or near Mill Hill Lane"}, "longitude": "-1.118736"}, "context": "", "outcome_status": null, "persistent_id": "", "id": 118860116, "location_subtype": "", "month": "2024-05"}, {"category": "anti-social-behaviour", "location_type": "Force", "location": {"latitude": "52.640533", "street": {"id": 1738867, "name": "On or near Manitoba Road"}, "longitude": "-1.124355"}, "context": "", "outcome_status": null, "persistent_id": "", "id": 118860467, "location_subtype": "", "month": "2024-05"}, {"category": "anti-social-behaviour", "location_type": "Force", "location": {"latitude": "52.632052", "street": {"id": 1737636, "name": "On or near Supermarket"}, "longitude": "-1.146096"}, "context": "", "outcome_status": null, "persistent_id": "", "id": 118860108, "location_subtype": "", "month": "2024-05"}, {"category": "anti-social-behaviour", "location_type": "Force", "location": {"latitude": "52.631193", "street": {"id": 1738645, "name": "On or near Calais Hill"}, "longitude": "-1.128220"}, "context": "", "outcome_status": null, "persistent_id": "", "id": 118860468, "location_subtype": "", "month": "2024-05"}, {"category": "anti-social-behaviour", "location_type": "Force", "location": {"latitude": "52.636399", "street": {"id": 1739082, "name": "On or near Shopping Area"}, "longitude": "-1.119738"}, "context": "", "outcome_status": null, "persistent_id": "", "id": 118860214, "location_subtype": "", "month": "2024-05"}, {"category": "anti-social-behaviour", "location_type": "Force", "location": {"latitude": "52.629982", "street": {"id": 1738203, "name": "On or near Lower Brown Street"}, "longitude": "-1.134642"}, "context": "", "outcome_status": null, "persistent_id": "", "id": 118860474, "location_subtype": "", "month": "2024-05"}, {"category": "anti-social-behaviour", "location_type": "Force", "location": {"latitude": "52.624679", "street": {"id": 1739302, "name": "On or near St James Terrace"}, "longitude": "-1.114123"}, "context": "", "outcome_status": null, "persistent_id": "", "id": 118860554, "location_subtype": "", "month": "2024-05"}, {"category": "anti-social-behaviour", "location_type": "Force", "location": {"latitude": "52.626599", "street": {"id": 1739469, "name": "On or near Evington Place"}, "longitude": "-1.111189"}, "context": "", "outcome_status": null, "persistent_id": "", "id": 118860480, "location_subtype": "", "month": "2024-05"}, {"category": "anti-social-behaviour", "location_type": "Force", "location": {"latitude": "52.636041", "street": {"id": 1738351, "name": "On or near East Gates"}, "longitude": "-1.133444"}, "context": "", "outcome_status": null, "persistent_id": "", "id": 118860490, "location_subtype": "", "month": "2024-05"}, {"category": "anti-social-behaviour", "location_type": "Force", "location": {"latitude": "52.636623", "street": {"id": 1737784, "name": "On or near Ruding Street"}, "longitude": "-1.142978"}, "context": "", "outcome_status": null, "persistent_id": "", "id": 118860531, "location_subtype": "", "month": "2024-05"}, {"category": "anti-social-behaviour", "location_type": "Force", "location": {"latitude": "52.632111", "street": {"id": 1738172, "name": "On or near Marble Street"}, "longitude": "-1.135723"}, "context": "", "outcome_status": null, "persistent_id": "", "id": 118860104, "location_subtype": "", "month": "2024-05"}, {"category": "anti-social-behaviour", "location_type": "Force", "location": {"latitude": "52.629864", "street": {"id": 1739236, "name": "On or near Petrol Station"}, "longitude": "-1.115038"}, "context": "", "outcome_status": null, "persistent_id": "", "id": 118860786, "location_subtype": "", "month": "2024-05"}, {"category": "anti-social-behaviour", "location_type": "Force", "location": {"latitude": "52.636623", "street": {"id": 1737784, "name": "On or near Ruding Street"}, "longitude": "-1.142978"}, "context": "", "outcome_status": null, "persistent_id": "", "id": 118860491, "location_subtype": "", "month": "2024-05"}, {"category": "anti-social-behaviour", "location_type": "Force", "location": {"latitude": "52.633821", "street": {"id": 1739372, "name": "On or near Ashbourne Street"}, "longitude": "-1.112830"}, "context": "", "outcome_status": null, "persistent_id": "", "id": 118860742, "location_subtype": "", "month": "2024-05"}, {"category": "anti-social-behaviour", "location_type": "Force", "location": {"latitude": "52.636857", "street": {"id": 1738642, "name": "On or near St James Street"}, "longitude": "-1.128211"}, "context": "", "outcome_status": null, "persistent_id": "", "id": 118860534, "location_subtype": "", "month": "2024-05"}, {"category": "anti-social-behaviour", "location_type": "Force", "location": {"latitude": "52.633709", "street": {"id": 1738109, "name": "On or near New Street"}, "longitude": "-1.136563"}, "context": "", "outcome_status": null, "persistent_id": "", "id": 118860495, "location_subtype": "", "month": "2024-05"}, {"category": "anti-social-behaviour", "location_type": "Force", "location": {"latitude": "52.628542", "street": {"id": 1739089, "name": "On or near Gotham Street"}, "longitude": "-1.119837"}, "context": "", "outcome_status": null, "persistent_id": "", "id": 118860542, "location_subtype": "", "month": "2024-05"}, {"category": "anti-social-behaviour", "location_type": "Force", "location": {"latitude": "52.621857", "street": {"id": 1737629, "name": "On or near Quainton Road"}, "longitude": "-1.146029"}, "context": "", "outcome_status": null, "persistent_id": "", "id": 118860497, "location_subtype": "", "month": "2024-05"}, {"category": "anti-social-behaviour", "location_type": "Force", "location": {"latitude": "52.632588", "street": {"id": 1737406, "name": "On or near Andrewes Street"}, "longitude": "-1.149351"}, "context": "", "outcome_status": null, "persistent_id": "", "id": 118860503, "location_subtype": "", "month": "2024-05"}, {"category": "anti-social-behaviour", "location_type": "Force", "location": {"latitude": "52.635559", "street": {"id": 1738487, "name": "On or near Shopping Area"}, "longitude": "-1.131414"}, "context": "", "outcome_status": null, "persistent_id": "", "id": 118860356, "location_subtype": "", "month": "2024-05"}, {"category": "anti-social-behaviour", "location_type": "Force", "location": {"latitude": "52.628717", "street": {"id": 1737809, "name": "On or near Mill Lane"}, "longitude": "-1.142394"}, "context": "", "outcome_status": null, "persistent_id": "", "id": 118860190, "location_subtype": "", "month": "2024-05"}, {"category": "anti-social-behaviour", "location_type": "Force", "location": {"latitude": "52.637115", "street": {"id": 1738598, "name": "On or near Supermarket"}, "longitude": "-1.129034"}, "context": "", "outcome_status": null, "persistent_id": "", "id": 118860505, "location_subtype": "", "month": "2024-05"}, {"category": "anti-social-behaviour", "location_type": "Force", "location": {"latitude": "52.625255", "street": {"id": 1739323, "name": "On or near St James Road"}, "longitude": "-1.114156"}, "context": "", "outcome_status": null, "persistent_id": "", "id": 118860336, "location_subtype": "", "month": "2024-05"}, {"category": "anti-social-behaviour", "location_type": "Force", "location": {"latitude": "52.625255", "street": {"id": 1739323, "name": "On or near St James Road"}, "longitude": "-1.114156"}, "context": "", "outcome_status": null, "persistent_id": "", "id": 118860669, "location_subtype": "", "month": "2024-05"}, {"category": "anti-social-behaviour", "location_type": "Force", "location": {"latitude": "52.627443", "street": {"id": 1737547, "name": "On or near Gaul Street"}, "longitude": "-1.147708"}, "context": "", "outcome_status": null, "persistent_id": "", "id": 118860339, "location_subtype": "", "month": "2024-05"}, {"category": "anti-social-behaviour", "location_type": "Force", "location": {"latitude": "52.621857", "street": {"id": 1737629, "name": "On or near Quainton Road"}, "longitude": "-1.146029"}, "context": "", "outcome_status": null, "persistent_id": "", "id": 118860344, "location_subtype": "", "month": "2024-05"}, {"category": "anti-social-behaviour", "location_type": "Force", "location": {"latitude": "52.636723", "street": {"id": 1738235, "name": "On or near New Bond Street"}, "longitude": "-1.134450"}, "context": "", "outcome_status": null, "persistent_id": "", "id": 118860772, "location_subtype": "", "month": "2024-05"}, {"category": "anti-social-behaviour", "location_type": "Force", "location": {"latitude": "52.634995", "street": {"id": 1737585, "name": "On or near Richard Iii Road"}, "longitude": "-1.144030"}, "context": "", "outcome_status": null, "persistent_id": "", "id": 118860345, "location_subtype": "", "month": "2024-05"}, {"category": "anti-social-behaviour", "location_type": "Force", "location": {"latitude": "52.636557", "street": {"id": 1737701, "name": "On or near All Saints Road"}, "longitude": "-1.143748"}, "context": "", "outcome_status": null, "persistent_id": "", "id": 118860349, "location_subtype": "", "month": "2024-05"}, {"category": "anti-social-behaviour", "location_type": "Force", "location": {"latitude": "52.627798", "street": {"id": 1737705, "name": "On or near Tarragon Road"}, "longitude": "-1.144613"}, "context": "", "outcome_status": null, "persistent_id": "", "id": 118860357, "location_subtype": "", "month": "2024-05"}, {"category": "anti-social-behaviour", "location_type": "Force", "location": {"latitude": "52.628536", "street": {"id": 1739547, "name": "On or near Biddulph Avenue"}, "longitude": "-1.109318"}, "context": "", "outcome_status": null, "persistent_id": "", "id": 118860367, "location_subtype": "", "month": "2024-05"}, {"category": "anti-social-behaviour", "location_type": "Force", "location": {"latitude": "52.627443", "street": {"id": 1737547, "name": "On or near Gaul Street"}, "longitude": "-1.147708"}, "context": "", "outcome_status": null, "persistent_id": "", "id": 118860382, "location_subtype": "", "month": "2024-05"}, {"category": "anti-social-behaviour", "location_type": "Force", "location": {"latitude": "52.620491", "street": {"id": 1738051, "name": "On or near Sports/recreation Area"}, "longitude": "-1.138014"}, "context": "", "outcome_status": null, "persistent_id": "", "id": 118860616, "location_subtype": "", "month": "2024-05"}, {"category": "anti-social-behaviour", "location_type": "Force", "location": {"latitude": "52.631158", "street": {"id": 1739188, "name": "On or near Stoughton Street South"}, "longitude": "-1.117287"}, "context": "", "outcome_status": null, "persistent_id": "", "id": 118860619, "location_subtype": "", "month": "2024-05"}, {"category": "anti-social-behaviour", "location_type": "Force", "location": {"latitude": "52.633318", "street": {"id": 1738276, "name": "On or near Nightclub"}, "longitude": "-1.134798"}, "context": "", "outcome_status": null, "persistent_id": "", "id": 118860621, "location_subtype": "", "month": "2024-05"}, {"category": "anti-social-behaviour", "location_type": "Force", "location": {"latitude": "52.631353", "street": {"id": 1738221, "name": "On or near Upper Brown Street"}, "longitude": "-1.135324"}, "context": "", "outcome_status": null, "persistent_id": "", "id": 118860652, "location_subtype": "", "month": "2024-05"}, {"category": "anti-social-behaviour", "location_type": "Force", "location": {"latitude": "52.639709", "street": {"id": 1739017, "name": "On or near Arnold Street"}, "longitude": "-1.120041"}, "context": "", "outcome_status": null, "persistent_id": "", "id": 118860162, "location_subtype": "", "month": "2024-05"}, {"category": "anti-social-behaviour", "location_type": "Force", "location": {"latitude": "52.632795", "street": {"id": 1738185, "name": "On or near Millstone Lane"}, "longitude": "-1.135798"}, "context": "", "outcome_status": null, "persistent_id": "", "id": 118860655, "location_subtype": "", "month": "2024-05"}, {"category": "anti-social-behaviour", "location_type": "Force", "location": {"latitude": "52.632795", "street": {"id": 1738185, "name": "On or near Millstone Lane"}, "longitude": "-1.135798"}, "context": "", "outcome_status": null, "persistent_id": "", "id": 118860384, "location_subtype": "", "month": "2024-05"}, {"category": "anti-social-behaviour", "location_type": "Force", "location": {"latitude": "52.624263", "street": {"id": 1739402, "name": "On or near Herschell Street"}, "longitude": "-1.112566"}, "context": "", "outcome_status": null, "persistent_id": "", "id": 118860386, "location_subtype": "", "month": "2024-05"}, {"category": "anti-social-behaviour", "location_type": "Force", "location": {"latitude": "52.629478", "street": {"id": 1739066, "name": "On or near Saxby Street"}, "longitude": "-1.119981"}, "context": "", "outcome_status": null, "persistent_id": "", "id": 118860393, "location_subtype": "", "month": "2024-05"}, {"category": "anti-social-behaviour", "location_type": "Force", "location": {"latitude": "52.632588", "street": {"id": 1737406, "name": "On or near Andrewes Street"}, "longitude": "-1.149351"}, "context": "", "outcome_status": null, "persistent_id": "", "id": 118860409, "location_subtype": "", "month": "2024-05"}, {"category": "anti-social-behaviour", "location_type": "Force", "location": {"latitude": "52.634995", "street": {"id": 1737585, "name": "On or near Richard Iii Road"}, "longitude": "-1.144030"}, "context": "", "outcome_status": null, "persistent_id": "", "id": 118860419, "location_subtype": "", "month": "2024-05"}, {"category": "anti-social-behaviour", "location_type": "Force", "location": {"latitude": "52.624402", "street": {"id": 1739504, "name": "On or near Devana Road"}, "longitude": "-1.109534"}, "context": "", "outcome_status": null, "persistent_id": "", "id": 118860928, "location_subtype": "", "month": "2024-05"}, {"category": "anti-social-behaviour", "location_type": "Force", "location": {"latitude": "52.636235", "street": {"id": 1737783, "name": "On or near Blackfriars Street"}, "longitude": "-1.142794"}, "context": "", "outcome_status": null, "persistent_id": "", "id": 118860421, "location_subtype": "", "month": "2024-05"}, {"category": "anti-social-behaviour", "location_type": "Force", "location": {"latitude": "52.626044", "street": {"id": 1739135, "name": "On or near Abingdon Road"}, "longitude": "-1.115086"}, "context": "", "outcome_status": null, "persistent_id": "", "id": 118860432, "location_subtype": "", "month": "2024-05"}, {"category": "anti-social-behaviour", "location_type": "Force", "location": {"latitude": "52.636723", "street": {"id": 1737812, "name": "On or near Friars Causeway"}, "longitude": "-1.140686"}, "context": "", "outcome_status": null, "persistent_id": "", "id": 118860798, "location_subtype": "", "month": "2024-05"}, {"category": "anti-social-behaviour", "location_type": "Force", "location": {"latitude": "52.627895", "street": {"id": 1737587, "name": "On or near Supermarket"}, "longitude": "-1.146886"}, "context": "", "outcome_status": null, "persistent_id": "", "id": 118860438, "location_subtype": "", "month": "2024-05"}, {"category": "anti-social-behaviour", "location_type": "Force", "location": {"latitude": "52.628379", "street": {"id": 1739269, "name": "On or near Medway Street"}, "longitude": "-1.114832"}, "context": "", "outcome_status": null, "persistent_id": "", "id": 118860184, "location_subtype": "", "month": "2024-05"}, {"category": "anti-social-behaviour", "location_type": "Force", "location": {"latitude": "52.627798", "street": {"id": 1737705, "name": "On or near Tarragon Road"}, "longitude": "-1.144613"}, "context": "", "outcome_status": null, "persistent_id": "", "id": 118860439, "location_subtype": "", "month": "2024-05"}, {"category": "anti-social-behaviour", "location_type": "Force", "location": {"latitude": "52.635821", "street": {"id": 1737423, "name": "On or near Bosworth Street"}, "longitude": "-1.150249"}, "context": "", "outcome_status": null, "persistent_id": "", "id": 118860444, "location_subtype": "", "month": "2024-05"}, {"category": "anti-social-behaviour", "location_type": "Force", "location": {"latitude": "52.642987", "street": {"id": 1738537, "name": "On or near Charter Street"}, "longitude": "-1.130498"}, "context": "", "outcome_status": null, "persistent_id": "", "id": 118860445, "location_subtype": "", "month": "2024-05"}, {"category": "anti-social-behaviour", "location_type": "Force", "location": {"latitude": "52.636041", "street": {"id": 1738351, "name": "On or near East Gates"}, "longitude": "-1.133444"}, "context": "", "outcome_status": null, "persistent_id": "", "id": 118860176, "location_subtype": "", "month": "2024-05"}, {"category": "anti-social-behaviour", "location_type": "Force", "location": {"latitude": "52.631624", "street": {"id": 1738751, "name": "On or near Station Street"}, "longitude": "-1.125641"}, "context": "", "outcome_status": null, "persistent_id": "", "id": 118860911, "location_subtype": "", "month": "2024-05"}, {"category": "anti-social-behaviour", "location_type": "Force", "location": {"latitude": "52.636111", "street": {"id": 1738000, "name": "On or near Freeschool Lane"}, "longitude": "-1.138053"}, "context": "", "outcome_status": null, "persistent_id": "", "id": 118860170, "location_subtype": "", "month": "2024-05"}, {"category": "anti-social-behaviour", "location_type": "Force", "location": {"latitude": "52.629982", "street": {"id": 1738203, "name": "On or near Lower Brown Street"}, "longitude": "-1.134642"}, "context": "", "outcome_status": null, "persistent_id": "", "id": 118860545, "location_subtype": "", "month": "2024-05"}, {"category": "anti-social-behaviour", "location_type": "Force", "location": {"latitude": "52.635797", "street": {"id": 1738449, "name": "On or near Fox Lane"}, "longitude": "-1.131926"}, "context": "", "outcome_status": null, "persistent_id": "", "id": 118860910, "location_subtype": "", "month": "2024-05"}, {"category": "anti-social-behaviour", "location_type": "Force", "location": {"latitude": "52.617006", "street": {"id": 1739022, "name": "On or near Hartopp Road"}, "longitude": "-1.120777"}, "context": "", "outcome_status": null, "persistent_id": "", "id": 118860451, "location_subtype": "", "month": "2024-05"}, {"category": "anti-social-behaviour", "location_type": "Force", "location": {"latitude": "52.631714", "street": {"id": 1738501, "name": "On or near Albion Street"}, "longitude": "-1.130515"}, "context": "", "outcome_status": null, "persistent_id": "", "id": 118860510, "location_subtype": "", "month": "2024-05"}, {"category": "anti-social-behaviour", "location_type": "Force", "location": {"latitude": "52.633053", "street": {"id": 1738548, "name": "On or near Granby Street"}, "longitude": "-1.129306"}, "context": "", "outcome_status": null, "persistent_id": "", "id": 118861026, "location_subtype": "", "month": "2024-05"}, {"category": "anti-social-behaviour", "location_type": "Force", "location": {"latitude": "52.635555", "street": {"id": 1738528, "name": "On or near Yeoman Lane"}, "longitude": "-1.129626"}, "context": "", "outcome_status": null, "persistent_id": "", "id": 118860909, "location_subtype": "", "month": "2024-05"}, {"category": "anti-social-behaviour", "location_type": "Force", "location": {"latitude": "52.632743", "street": {"id": 1737208, "name": "On or near Stretton Road"}, "longitude": "-1.153471"}, "context": "", "outcome_status": null, "persistent_id": "", "id": 118861029, "location_subtype": "", "month": "2024-05"}, {"category": "anti-social-behaviour", "location_type": "Force", "location": {"latitude": "52.624263", "street": {"id": 1739402, "name": "On or near Herschell Street"}, "longitude": "-1.112566"}, "context": "", "outcome_status": null, "persistent_id": "", "id": 118860671, "location_subtype": "", "month": "2024-05"}, {"category": "anti-social-behaviour", "location_type": "Force", "location": {"latitude": "52.634706", "street": {"id": 1737807, "name": "On or near Bath Lane"}, "longitude": "-1.142691"}, "context": "", "outcome_status": null, "persistent_id": "", "id": 118860169, "location_subtype": "", "month": "2024-05"}, {"category": "anti-social-behaviour", "location_type": "Force", "location": {"latitude": "52.636041", "street": {"id": 1738351, "name": "On or near East Gates"}, "longitude": "-1.133444"}, "context": "", "outcome_status": null, "persistent_id": "", "id": 118861030, "location_subtype": "", "month": "2024-05"}, {"category": "anti-social-behaviour", "location_type": "Force", "location": {"latitude": "52.632743", "street": {"id": 1737208, "name": "On or near Stretton Road"}, "longitude": "-1.153471"}, "context": "", "outcome_status": null, "persistent_id": "", "id": 118861035, "location_subtype": "", "month": "2024-05"}, {"category": "anti-social-behaviour", "location_type": "Force", "location": {"latitude": "52.625780", "street": {"id": 1739073, "name": "On or near Parking Area"}, "longitude": "-1.119567"}, "context": "", "outcome_status": null, "persistent_id": "", "id": 118860556, "location_subtype": "", "month": "2024-05"}, {"category": "anti-social-behaviour", "location_type": "Force", "location": {"latitude": "52.632805", "street": {"id": 1738842, "name": "On or near Campbell Street"}, "longitude": "-1.124819"}, "context": "", "outcome_status": null, "persistent_id": "", "id": 118860283, "location_subtype": "", "month": "2024-05"}, {"category": "anti-social-behaviour", "location_type": "Force", "location": {"latitude": "52.635488", "street": {"id": 1738121, "name": "On or near Carts Lane"}, "longitude": "-1.136395"}, "context": "", "outcome_status": null, "persistent_id": "", "id": 118860152, "location_subtype": "", "month": "2024-05"}, {"category": "anti-social-behaviour", "location_type": "Force", "location": {"latitude": "52.637115", "street": {"id": 1738598, "name": "On or near Supermarket"}, "longitude": "-1.129034"}, "context": "", "outcome_status": null, "persistent_id": "", "id": 118860558, "location_subtype": "", "month": "2024-05"}, {"category": "anti-social-behaviour", "location_type": "Force", "location": {"latitude": "52.632588", "street": {"id": 1737406, "name": "On or near Andrewes Street"}, "longitude": "-1.149351"}, "context": "", "outcome_status": null, "persistent_id": "", "id": 118860292, "location_subtype": "", "month": "2024-05"}, {"category": "anti-social-behaviour", "location_type": "Force", "location": {"latitude": "52.632931", "street": {"id": 1738486, "name": "On or near Belvoir Street"}, "longitude": "-1.131038"}, "context": "", "outcome_status": null, "persistent_id": "", "id": 118860297, "location_subtype": "", "month": "2024-05"}, {"category": "anti-social-behaviour", "location_type": "Force", "location": {"latitude": "52.634237", "street": {"id": 1738695, "name": "On or near Conference/exhibition Centre"}, "longitude": "-1.127731"}, "context": "", "outcome_status": null, "persistent_id": "", "id": 118860299, "location_subtype": "", "month": "2024-05"}, {"category": "anti-social-behaviour", "location_type": "Force", "location": {"latitude": "52.629187", "street": {"id": 1738279, "name": "On or near Carlton Street"}, "longitude": "-1.134096"}, "context": "", "outcome_status": null, "persistent_id": "", "id": 118860561, "location_subtype": "", "month": "2024-05"}, {"category": "anti-social-behaviour", "location_type": "Force", "location": {"latitude": "52.636623", "street": {"id": 1737784, "name": "On or near Ruding Street"}, "longitude": "-1.142978"}, "context": "", "outcome_status": null, "persistent_id": "", "id": 118860300, "location_subtype": "", "month": "2024-05"}, {"category": "anti-social-behaviour", "location_type": "Force", "location": {"latitude": "52.641309", "street": {"id": 1738693, "name": "On or near Bedford Street North"}, "longitude": "-1.127206"}, "context": "", "outcome_status": null, "persistent_id": "", "id": 118860935, "location_subtype": "", "month": "2024-05"}, {"category": "anti-social-behaviour", "location_type": "Force", "location": {"latitude": "52.627895", "street": {"id": 1737587, "name": "On or near Supermarket"}, "longitude": "-1.146886"}, "context": "", "outcome_status": null, "persistent_id": "", "id": 118860302, "location_subtype": "", "month": "2024-05"}, {"category": "anti-social-behaviour", "location_type": "Force", "location": {"latitude": "52.630061", "street": {"id": 1738348, "name": "On or near Mill Street"}, "longitude": "-1.133133"}, "context": "", "outcome_status": null, "persistent_id": "", "id": 118860304, "location_subtype": "", "month": "2024-05"}, {"category": "anti-social-behaviour", "location_type": "Force", "location": {"latitude": "52.616723", "street": {"id": 1738898, "name": "On or near Adderley Road"}, "longitude": "-1.122614"}, "context": "", "outcome_status": null, "persistent_id": "", "id": 118860593, "location_subtype": "", "month": "2024-05"}, {"category": "anti-social-behaviour", "location_type": "Force", "location": {"latitude": "52.634964", "street": {"id": 1737939, "name": "On or near Vaughan Way"}, "longitude": "-1.139774"}, "context": "", "outcome_status": null, "persistent_id": "", "id": 118860306, "location_subtype": "", "month": "2024-05"}, {"category": "anti-social-behaviour", "location_type": "Force", "location": {"latitude": "52.625500", "street": {"id": 1738603, "name": "On or near Lancaster Road"}, "longitude": "-1.127802"}, "context": "", "outcome_status": null, "persistent_id": "", "id": 118860308, "location_subtype": "", "month": "2024-05"}, {"category": "anti-social-behaviour", "location_type": "Force", "location": {"latitude": "52.634995", "street": {"id": 1737585, "name": "On or near Richard Iii Road"}, "longitude": "-1.144030"}, "context": "", "outcome_status": null, "persistent_id": "", "id": 118860311, "location_subtype": "", "month": "2024-05"}, {"category": "anti-social-behaviour", "location_type": "Force", "location": {"latitude": "52.635290", "street": {"id": 1737490, "name": "On or near Clifford Street"}, "longitude": "-1.148856"}, "context": "", "outcome_status": null, "persistent_id": "", "id": 118860595, "location_subtype": "", "month": "2024-05"}, {"category": "anti-social-behaviour", "location_type": "Force", "location": {"latitude": "52.627443", "street": {"id": 1737547, "name": "On or near Gaul Street"}, "longitude": "-1.147708"}, "context": "", "outcome_status": null, "persistent_id": "", "id": 118860312, "location_subtype": "", "month": "2024-05"}, {"category": "anti-social-behaviour", "location_type": "Force", "location": {"latitude": "52.635182", "street": {"id": 1737576, "name": "On or near Rivers Street"}, "longitude": "-1.147646"}, "context": "", "outcome_status": null, "persistent_id": "", "id": 118860317, "location_subtype": "", "month": "2024-05"}, {"category": "anti-social-behaviour", "location_type": "Force", "location": {"latitude": "52.632588", "street": {"id": 1737406, "name": "On or near Andrewes Street"}, "longitude": "-1.149351"}, "context": "", "outcome_status": null, "persistent_id": "", "id": 118860321, "location_subtype": "", "month": "2024-05"}, {"category": "anti-social-behaviour", "location_type": "Force", "location": {"latitude": "52.631624", "street": {"id": 1738751, "name": "On or near Station Street"}, "longitude": "-1.125641"}, "context": "", "outcome_status": null, "persistent_id": "", "id": 118860967, "location_subtype": "", "month": "2024-05"}, {"category": "anti-social-behaviour", "location_type": "Force", "location": {"latitude": "52.628536", "street": {"id": 1739547, "name": "On or near Biddulph Avenue"}, "longitude": "-1.109318"}, "context": "", "outcome_status": null, "persistent_id": "", "id": 118860970, "location_subtype": "", "month": "2024-05"}, {"category": "anti-social-behaviour", "location_type": "Force", "location": {"latitude": "52.634074", "street": {"id": 1738437, "name": "On or near Every Street"}, "longitude": "-1.132389"}, "context": "", "outcome_status": null, "persistent_id": "", "id": 118860971, "location_subtype": "", "month": "2024-05"}, {"category": "anti-social-behaviour", "location_type": "Force", "location": {"latitude": "52.629831", "street": {"id": 1738423, "name": "On or near Marquis Street"}, "longitude": "-1.132503"}, "context": "", "outcome_status": null, "persistent_id": "", "id": 118860972, "location_subtype": "", "month": "2024-05"}, {"category": "anti-social-behaviour", "location_type": "Force", "location": {"latitude": "52.636041", "street": {"id": 1738351, "name": "On or near East Gates"}, "longitude": "-1.133444"}, "context": "", "outcome_status": null, "persistent_id": "", "id": 118860984, "location_subtype": "", "month": "2024-05"}, {"category": "anti-social-behaviour", "location_type": "Force", "location": {"latitude": "52.630796", "street": {"id": 1738392, "name": "On or near Marlborough Street"}, "longitude": "-1.132868"}, "context": "", "outcome_status": null, "persistent_id": "", "id": 118860989, "location_subtype": "", "month": "2024-05"}, {"category": "anti-social-behaviour", "location_type": "Force", "location": {"latitude": "52.629337", "street": {"id": 1739119, "name": "On or near Severn Street"}, "longitude": "-1.117944"}, "context": "", "outcome_status": null, "persistent_id": "", "id": 118860597, "location_subtype": "", "month": "2024-05"}, {"category": "anti-social-behaviour", "location_type": "Force", "location": {"latitude": "52.636859", "street": {"id": 1739258, "name": "On or near Cecil Road"}, "longitude": "-1.115163"}, "context": "", "outcome_status": null, "persistent_id": "", "id": 118860997, "location_subtype": "", "month": "2024-05"}, {"category": "anti-social-behaviour", "location_type": "Force", "location": {"latitude": "52.638052", "street": {"id": 1737400, "name": "On or near Nugent Street"}, "longitude": "-1.150413"}, "context": "", "outcome_status": null, "persistent_id": "", "id": 118860441, "location_subtype": "", "month": "2024-05"}, {"category": "anti-social-behaviour", "location_type": "Force", "location": {"latitude": "52.623733", "street": {"id": 1737598, "name": "On or near Watkin Road"}, "longitude": "-1.146967"}, "context": "", "outcome_status": null, "persistent_id": "", "id": 118860699, "location_subtype": "", "month": "2024-05"}, {"category": "anti-social-behaviour", "location_type": "Force", "location": {"latitude": "52.635559", "street": {"id": 1738487, "name": "On or near Shopping Area"}, "longitude": "-1.131414"}, "context": "", "outcome_status": null, "persistent_id": "", "id": 118860599, "location_subtype": "", "month": "2024-05"}, {"category": "anti-social-behaviour", "location_type": "Force", "location": {"latitude": "52.632111", "street": {"id": 1738172, "name": "On or near Marble Street"}, "longitude": "-1.135723"}, "context": "", "outcome_status": null, "persistent_id": "", "id": 118860126, "location_subtype": "", "month": "2024-05"}, {"category": "anti-social-behaviour", "location_type": "Force", "location": {"latitude": "52.636041", "street": {"id": 1738351, "name": "On or near East Gates"}, "longitude": "-1.133444"}, "context": "", "outcome_status": null, "persistent_id": "", "id": 118860701, "location_subtype": "", "month": "2024-05"}, {"category": "anti-social-behaviour", "location_type": "Force", "location": {"latitude": "52.622852", "street": {"id": 1737331, "name": "On or near Bisley Street"}, "longitude": "-1.150707"}, "context": "", "outcome_status": null, "persistent_id": "", "id": 118860702, "location_subtype": "", "month": "2024-05"}, {"category": "anti-social-behaviour", "location_type": "Force", "location": {"latitude": "52.630528", "street": {"id": 1738283, "name": "On or near Norton Street"}, "longitude": "-1.134336"}, "context": "", "outcome_status": null, "persistent_id": "", "id": 118860705, "location_subtype": "", "month": "2024-05"}, {"category": "anti-social-behaviour", "location_type": "Force", "location": {"latitude": "52.627455", "street": {"id": 1739118, "name": "On or near Mill Hill Lane"}, "longitude": "-1.118736"}, "context": "", "outcome_status": null, "persistent_id": "", "id": 118860712, "location_subtype": "", "month": "2024-05"}, {"category": "anti-social-behaviour", "location_type": "Force", "location": {"latitude": "52.635647", "street": {"id": 1738106, "name": "On or near Shires Lane"}, "longitude": "-1.137293"}, "context": "", "outcome_status": null, "persistent_id": "", "id": 118860719, "location_subtype": "", "month": "2024-05"}, {"category": "anti-social-behaviour", "location_type": "Force", "location": {"latitude": "52.630528", "street": {"id": 1738283, "name": "On or near Norton Street"}, "longitude": "-1.134336"}, "context": "", "outcome_status": null, "persistent_id": "", "id": 118860723, "location_subtype": "", "month": "2024-05"}, {"category": "anti-social-behaviour", "location_type": "Force", "location": {"latitude": "52.624402", "street": {"id": 1739504, "name": "On or near Devana Road"}, "longitude": "-1.109534"}, "context": "", "outcome_status": null, "persistent_id": "", "id": 118860731, "location_subtype": "", "month": "2024-05"}, {"category": "anti-social-behaviour", "location_type": "Force", "location": {"latitude": "52.625109", "street": {"id": 1739055, "name": "On or near Parking Area"}, "longitude": "-1.119950"}, "context": "", "outcome_status": null, "persistent_id": "", "id": 118860735, "location_subtype": "", "month": "2024-05"}, {"category": "anti-social-behaviour", "location_type": "Force", "location": {"latitude": "52.629864", "street": {"id": 1739236, "name": "On or near Petrol Station"}, "longitude": "-1.115038"}, "context": "", "outcome_status": null, "persistent_id": "", "id": 118860737, "location_subtype": "", "month": "2024-05"}, {"category": "anti-social-behaviour", "location_type": "Force", "location": {"latitude": "52.630574", "street": {"id": 1738432, "name": "On or near King Street"}, "longitude": "-1.131985"}, "context": "", "outcome_status": null, "persistent_id": "", "id": 118860605, "location_subtype": "", "month": "2024-05"}, {"category": "anti-social-behaviour", "location_type": "Force", "location": {"latitude": "52.633297", "street": {"id": 1739224, "name": "On or near Pluto Close"}, "longitude": "-1.116121"}, "context": "", "outcome_status": null, "persistent_id": "", "id": 118860738, "location_subtype": "", "month": "2024-05"}, {"category": "anti-social-behaviour", "location_type": "Force", "location": {"latitude": "52.633468", "street": {"id": 1737548, "name": "On or near Fitzroy Street"}, "longitude": "-1.147975"}, "context": "", "outcome_status": null, "persistent_id": "", "id": 118860251, "location_subtype": "", "month": "2024-05"}, {"category": "anti-social-behaviour", "location_type": "Force", "location": {"latitude": "52.635182", "street": {"id": 1737576, "name": "On or near Rivers Street"}, "longitude": "-1.147646"}, "context": "", "outcome_status": null, "persistent_id": "", "id": 118860258, "location_subtype": "", "month": "2024-05"}, {"category": "anti-social-behaviour", "location_type": "Force", "location": {"latitude": "52.632746", "street": {"id": 1738674, "name": "On or near Northampton Street"}, "longitude": "-1.127791"}, "context": "", "outcome_status": null, "persistent_id": "", "id": 118860259, "location_subtype": "", "month": "2024-05"}, {"category": "anti-social-behaviour", "location_type": "Force", "location": {"latitude": "52.627443", "street": {"id": 1737547, "name": "On or near Gaul Street"}, "longitude": "-1.147708"}, "context": "", "outcome_status": null, "persistent_id": "", "id": 118860679, "location_subtype": "", "month": "2024-05"}, {"category": "anti-social-behaviour", "location_type": "Force", "location": {"latitude": "52.635012", "street": {"id": 1737337, "name": "On or near Flora Street"}, "longitude": "-1.151417"}, "context": "", "outcome_status": null, "persistent_id": "", "id": 118860125, "location_subtype": "", "month": "2024-05"}, {"category": "anti-social-behaviour", "location_type": "Force", "location": {"latitude": "52.635555", "street": {"id": 1738528, "name": "On or near Yeoman Lane"}, "longitude": "-1.129626"}, "context": "", "outcome_status": null, "persistent_id": "", "id": 118860684, "location_subtype": "", "month": "2024-05"}, {"category": "anti-social-behaviour", "location_type": "Force", "location": {"latitude": "52.631405", "street": {"id": 1738261, "name": "On or near Theatre/concert Hall"}, "longitude": "-1.135028"}, "context": "", "outcome_status": null, "persistent_id": "", "id": 118860687, "location_subtype": "", "month": "2024-05"}, {"category": "anti-social-behaviour", "location_type": "Force", "location": {"latitude": "52.631624", "street": {"id": 1738751, "name": "On or near Station Street"}, "longitude": "-1.125641"}, "context": "", "outcome_status": null, "persistent_id": "", "id": 118860096, "location_subtype": "", "month": "2024-05"}, {"category": "anti-social-behaviour", "location_type": "Force", "location": {"latitude": "52.639558", "street": {"id": 1738364, "name": "On or near Nightclub"}, "longitude": "-1.132473"}, "context": "", "outcome_status": null, "persistent_id": "", "id": 118860689, "location_subtype": "", "month": "2024-05"}, {"category": "anti-social-behaviour", "location_type": "Force", "location": {"latitude": "52.635182", "street": {"id": 1737576, "name": "On or near Rivers Street"}, "longitude": "-1.147646"}, "context": "", "outcome_status": null, "persistent_id": "", "id": 118860589, "location_subtype": "", "month": "2024-05"}, {"category": "anti-social-behaviour", "location_type": "Force", "location": {"latitude": "52.624402", "street": {"id": 1739504, "name": "On or near Devana Road"}, "longitude": "-1.109534"}, "context": "", "outcome_status": null, "persistent_id": "", "id": 118860930, "location_subtype": "", "month": "2024-05"}, {"category": "anti-social-behaviour", "location_type": "Force", "location": {"latitude": "52.633879", "street": {"id": 1738375, "name": "On or near Horsefair Street"}, "longitude": "-1.132821"}, "context": "", "outcome_status": null, "persistent_id": "", "id": 118860941, "location_subtype": "", "month": "2024-05"}, {"category": "anti-social-behaviour", "location_type": "Force", "location": {"latitude": "52.627443", "street": {"id": 1737547, "name": "On or near Gaul Street"}, "longitude": "-1.147708"}, "context": "", "outcome_status": null, "persistent_id": "", "id": 118860198, "location_subtype": "", "month": "2024-05"}, {"category": "anti-social-behaviour", "location_type": "Force", "location": {"latitude": "52.625551", "street": {"id": 1737260, "name": "On or near Petrol Station"}, "longitude": "-1.152191"}, "context": "", "outcome_status": null, "persistent_id": "", "id": 118860944, "location_subtype": "", "month": "2024-05"}, {"category": "anti-social-behaviour", "location_type": "Force", "location": {"latitude": "52.635012", "street": {"id": 1737337, "name": "On or near Flora Street"}, "longitude": "-1.151417"}, "context": "", "outcome_status": null, "persistent_id": "", "id": 118860665, "location_subtype": "", "month": "2024-05"}, {"category": "anti-social-behaviour", "location_type": "Force", "location": {"latitude": "52.637791", "street": {"id": 1737446, "name": "On or near Tudor Road"}, "longitude": "-1.147906"}, "context": "", "outcome_status": null, "persistent_id": "", "id": 118860763, "location_subtype": "", "month": "2024-05"}, {"category": "anti-social-behaviour", "location_type": "Force", "location": {"latitude": "52.636175", "street": {"id": 1738848, "name": "On or near Burton Street"}, "longitude": "-1.124737"}, "context": "", "outcome_status": null, "persistent_id": "", "id": 118860749, "location_subtype": "", "month": "2024-05"}, {"category": "anti-social-behaviour", "location_type": "Force", "location": {"latitude": "52.637791", "street": {"id": 1737446, "name": "On or near Tudor Road"}, "longitude": "-1.147906"}, "context": "", "outcome_status": null, "persistent_id": "", "id": 118860750, "location_subtype": "", "month": "2024-05"}, {"category": "anti-social-behaviour", "location_type": "Force", "location": {"latitude": "52.637843", "street": {"id": 1738541, "name": "On or near Shopping Area"}, "longitude": "-1.130275"}, "context": "", "outcome_status": null, "persistent_id": "", "id": 118860751, "location_subtype": "", "month": "2024-05"}, {"category": "anti-social-behaviour", "location_type": "Force", "location": {"latitude": "52.620909", "street": {"id": 1739111, "name": "On or near St Marys Road"}, "longitude": "-1.116031"}, "context": "", "outcome_status": null, "persistent_id": "", "id": 118860752, "location_subtype": "", "month": "2024-05"}, {"category": "anti-social-behaviour", "location_type": "Force", "location": {"latitude": "52.623968", "street": {"id": 1737354, "name": "On or near Walton Street"}, "longitude": "-1.150789"}, "context": "", "outcome_status": null, "persistent_id": "", "id": 118860753, "location_subtype": "", "month": "2024-05"}, {"category": "anti-social-behaviour", "location_type": "Force", "location": {"latitude": "52.629880", "street": {"id": 1738479, "name": "On or near Princess Road Backways"}, "longitude": "-1.130492"}, "context": "", "outcome_status": null, "persistent_id": "", "id": 118860979, "location_subtype": "", "month": "2024-05"}, {"category": "anti-social-behaviour", "location_type": "Force", "location": {"latitude": "52.634996", "street": {"id": 1739182, "name": "On or near Jupiter Close"}, "longitude": "-1.117195"}, "context": "", "outcome_status": null, "persistent_id": "", "id": 118860966, "location_subtype": "", "month": "2024-05"}, {"category": "anti-social-behaviour", "location_type": "Force", "location": {"latitude": "52.623968", "street": {"id": 1737354, "name": "On or near Walton Street"}, "longitude": "-1.150789"}, "context": "", "outcome_status": null, "persistent_id": "", "id": 118860936, "location_subtype": "", "month": "2024-05"}, {"category": "anti-social-behaviour", "location_type": "Force", "location": {"latitude": "52.627703", "street": {"id": 1738945, "name": "On or near The Oval"}, "longitude": "-1.123030"}, "context": "", "outcome_status": null, "persistent_id": "", "id": 118860571, "location_subtype": "", "month": "2024-05"}, {"category": "anti-social-behaviour", "location_type": "Force", "location": {"latitude": "52.630574", "street": {"id": 1738432, "name": "On or near King Street"}, "longitude": "-1.131985"}, "context": "", "outcome_status": null, "persistent_id": "", "id": 118860767, "location_subtype": "", "month": "2024-05"}, {"category": "anti-social-behaviour", "location_type": "Force", "location": {"latitude": "52.633502", "street": {"id": 1738435, "name": "On or near Bishop Street"}, "longitude": "-1.131662"}, "context": "", "outcome_status": null, "persistent_id": "", "id": 118860651, "location_subtype": "", "month": "2024-05"}, {"category": "anti-social-behaviour", "location_type": "Force", "location": {"latitude": "52.631193", "street": {"id": 1738645, "name": "On or near Calais Hill"}, "longitude": "-1.128220"}, "context": "", "outcome_status": null, "persistent_id": "", "id": 118860632, "location_subtype": "", "month": "2024-05"}, {"category": "anti-social-behaviour", "location_type": "Force", "location": {"latitude": "52.634874", "street": {"id": 1738098, "name": "On or near Guildhall Lane"}, "longitude": "-1.137309"}, "context": "", "outcome_status": null, "persistent_id": "", "id": 118860266, "location_subtype": "", "month": "2024-05"}, {"category": "anti-social-behaviour", "location_type": "Force", "location": {"latitude": "52.628320", "street": {"id": 1739209, "name": "On or near Upper Tichborne Street"}, "longitude": "-1.116591"}, "context": "", "outcome_status": null, "persistent_id": "", "id": 118860263, "location_subtype": "", "month": "2024-05"}, {"category": "anti-social-behaviour", "location_type": "Force", "location": {"latitude": "52.617006", "street": {"id": 1739022, "name": "On or near Hartopp Road"}, "longitude": "-1.120777"}, "context": "", "outcome_status": null, "persistent_id": "", "id": 118860073, "location_subtype": "", "month": "2024-05"}, {"category": "anti-social-behaviour", "location_type": "Force", "location": {"latitude": "52.634409", "street": {"id": 1738338, "name": "On or near Shopping Area"}, "longitude": "-1.133652"}, "context": "", "outcome_status": null, "persistent_id": "", "id": 118860105, "location_subtype": "", "month": "2024-05"}, {"category": "anti-social-behaviour", "location_type": "Force", "location": {"latitude": "52.636857", "street": {"id": 1738642, "name": "On or near St James Street"}, "longitude": "-1.128211"}, "context": "", "outcome_status": null, "persistent_id": "", "id": 118860095, "location_subtype": "", "month": "2024-05"}, {"category": "anti-social-behaviour", "location_type": "Force", "location": {"latitude": "52.633709", "street": {"id": 1738109, "name": "On or near New Street"}, "longitude": "-1.136563"}, "context": "", "outcome_status": null, "persistent_id": "", "id": 118860810, "location_subtype": "", "month": "2024-05"}, {"category": "anti-social-behaviour", "location_type": "Force", "location": {"latitude": "52.627016", "street": {"id": 1739075, "name": "On or near Salisbury Avenue"}, "longitude": "-1.120148"}, "context": "", "outcome_status": null, "persistent_id": "", "id": 118860813, "location_subtype": "", "month": "2024-05"}, {"category": "anti-social-behaviour", "location_type": "Force", "location": {"latitude": "52.632534", "street": {"id": 1738358, "name": "On or near Market Street"}, "longitude": "-1.133232"}, "context": "", "outcome_status": null, "persistent_id": "", "id": 118860580, "location_subtype": "", "month": "2024-05"}, {"category": "anti-social-behaviour", "location_type": "Force", "location": {"latitude": "52.637115", "street": {"id": 1738598, "name": "On or near Supermarket"}, "longitude": "-1.129034"}, "context": "", "outcome_status": null, "persistent_id": "", "id": 118860093, "location_subtype": "", "month": "2024-05"}, {"category": "anti-social-behaviour", "location_type": "Force", "location": {"latitude": "52.635486", "street": {"id": 1738632, "name": "On or near Yeoman Street"}, "longitude": "-1.128741"}, "context": "", "outcome_status": null, "persistent_id": "", "id": 118860090, "location_subtype": "", "month": "2024-05"}, {"category": "anti-social-behaviour", "location_type": "Force", "location": {"latitude": "52.626936", "street": {"id": 1737916, "name": "On or near Grasmere Street"}, "longitude": "-1.139814"}, "context": "", "outcome_status": null, "persistent_id": "", "id": 118860201, "location_subtype": "", "month": "2024-05"}, {"category": "anti-social-behaviour", "location_type": "Force", "location": {"latitude": "52.629337", "street": {"id": 1739119, "name": "On or near Severn Street"}, "longitude": "-1.117944"}, "context": "", "outcome_status": null, "persistent_id": "", "id": 118860820, "location_subtype": "", "month": "2024-05"}, {"category": "anti-social-behaviour", "location_type": "Force", "location": {"latitude": "52.630803", "street": {"id": 1737674, "name": "On or near Bede Street"}, "longitude": "-1.144983"}, "context": "", "outcome_status": null, "persistent_id": "", "id": 118860204, "location_subtype": "", "month": "2024-05"}, {"category": "bicycle-theft", "location_type": "Force", "location": {"latitude": "52.634706", "street": {"id": 1737807, "name": "On or near Bath Lane"}, "longitude": "-1.142691"}, "context": "", "outcome_status": {"category": "Investigation complete; no suspect identified", "date": "2024-05"}, "persistent_id": "8ebeba95449a8ee7928d9014e7a05a21f7295b36301ccd7e6e73af181b12dae9", "id": 118853402, "location_subtype": "", "month": "2024-05"}, {"category": "bicycle-theft", "location_type": "Force", "location": {"latitude": "52.623507", "street": {"id": 1738182, "name": "On or near Aylestone Walk"}, "longitude": "-1.133174"}, "context": "", "outcome_status": {"category": "Investigation complete; no suspect identified", "date": "2024-05"}, "persistent_id": "1b9f7f92168ae7cb81fcd6e59ac70b929a78d9f532678b828825c669a53a22ea", "id": 118856843, "location_subtype": "", "month": "2024-05"}, {"category": "bicycle-theft", "location_type": "Force", "location": {"latitude": "52.643191", "street": {"id": 1738592, "name": "On or near Memory Lane"}, "longitude": "-1.128869"}, "context": "", "outcome_status": {"category": "Investigation complete; no suspect identified", "date": "2024-05"}, "persistent_id": "87c15a0a274691cb56a49543be391c1913f5c92c19b7e162265c13fecf7e05d0", "id": 118854513, "location_subtype": "", "month": "2024-05"}, {"category": "bicycle-theft", "location_type": "Force", "location": {"latitude": "52.633053", "street": {"id": 1738548, "name": "On or near Granby Street"}, "longitude": "-1.129306"}, "context": "", "outcome_status": {"category": "Investigation complete; no suspect identified", "date": "2024-05"}, "persistent_id": "694b63cbf357d13f66484312bdbce303176a272b99e5a61ae402340913407db3", "id": 118855471, "location_subtype": "", "month": "2024-05"}, {"category": "bicycle-theft", "location_type": "Force", "location": {"latitude": "52.636060", "street": {"id": 1738987, "name": "On or near Supermarket"}, "longitude": "-1.120153"}, "context": "", "outcome_status": {"category": "Investigation complete; no suspect identified", "date": "2024-07"}, "persistent_id": "83ab5749273217bfb2f9c9802d549e22704f326f720ecc5593c1eb781df6c26f", "id": 118858500, "location_subtype": "", "month": "2024-05"}, {"category": "bicycle-theft", "location_type": "Force", "location": {"latitude": "52.625259", "street": {"id": 1737613, "name": "On or near Supermarket"}, "longitude": "-1.146539"}, "context": "", "outcome_status": {"category": "Investigation complete; no suspect identified", "date": "2024-05"}, "persistent_id": "6126aa127f86dfd09b341b924e1cb3fd65c353bef577694a75fe164f9f3f1b2e", "id": 118853757, "location_subtype": "", "month": "2024-05"}, {"category": "bicycle-theft", "location_type": "Force", "location": {"latitude": "52.631131", "street": {"id": 1737644, "name": "On or near Earl Howe Terrace"}, "longitude": "-1.145568"}, "context": "", "outcome_status": {"category": "Investigation complete; no suspect identified", "date": "2024-05"}, "persistent_id": "2e268d489bccd014e57c1c6305b37fd717df4386847091e66461dd360c77764d", "id": 118852269, "location_subtype": "", "month": "2024-05"}, {"category": "bicycle-theft", "location_type": "Force", "location": {"latitude": "52.618158", "street": {"id": 1738119, "name": "On or near Putney Road West"}, "longitude": "-1.135525"}, "context": "", "outcome_status": {"category": "Investigation complete; no suspect identified", "date": "2024-07"}, "persistent_id": "ac316bff637ecd308cbf90cd67930826a94f4a74e7584331e147f34c4a6af910", "id": 118853111, "location_subtype": "", "month": "2024-05"}, {"category": "bicycle-theft", "location_type": "Force", "location": {"latitude": "52.637115", "street": {"id": 1738598, "name": "On or near Supermarket"}, "longitude": "-1.129034"}, "context": "", "outcome_status": {"category": "Unable to prosecute suspect", "date": "2024-06"}, "persistent_id": "7190706590abfc55247bb11c81acc5695e90cf1c559e90e7afef24e04d653c3c", "id": 118857679, "location_subtype": "", "month": "2024-05"}, {"category": "bicycle-theft", "location_type": "Force", "location": {"latitude": "52.636771", "street": {"id": 1738860, "name": "On or near Supermarket"}, "longitude": "-1.123883"}, "context": "", "outcome_status": {"category": "Investigation complete; no suspect identified", "date": "2024-06"}, "persistent_id": "b05ff0ff5c803205498ed607fa12caa005063c5f5fd704fc70ce3ca7045b7003", "id": 118859205, "location_subtype": "", "month": "2024-05"}, {"category": "bicycle-theft", "location_type": "Force", "location": {"latitude": "52.629483", "street": {"id": 1738118, "name": "On or near Grange Lane"}, "longitude": "-1.136425"}, "context": "", "outcome_status": {"category": "Investigation complete; no suspect identified", "date": "2024-05"}, "persistent_id": "e5becf75846c49f652d221d3285ebefc45275ab12c2c89b34411d71ab8f3760b", "id": 118853228, "location_subtype": "", "month": "2024-05"}, {"category": "bicycle-theft", "location_type": "Force", "location": {"latitude": "52.630004", "street": {"id": 1738814, "name": "On or near Regent Street"}, "longitude": "-1.125348"}, "context": "", "outcome_status": {"category": "Investigation complete; no suspect identified", "date": "2024-05"}, "persistent_id": "651c8edcdd34d09c9ac1081f8412f3a649ed8b282a986eb21f5ae0f93fd5a8ec", "id": 118852216, "location_subtype": "", "month": "2024-05"}, {"category": "bicycle-theft", "location_type": "Force", "location": {"latitude": "52.629847", "street": {"id": 1737521, "name": "On or near Celt Street"}, "longitude": "-1.148341"}, "context": "", "outcome_status": {"category": "Investigation complete; no suspect identified", "date": "2024-05"}, "persistent_id": "61013c5e55618b28b365d64a9b045f0bc73ddf23b850aeedb22d341bece98c48", "id": 118859014, "location_subtype": "", "month": "2024-05"}, {"category": "bicycle-theft", "location_type": "Force", "location": {"latitude": "52.627016", "street": {"id": 1739075, "name": "On or near Salisbury Avenue"}, "longitude": "-1.120148"}, "context": "", "outcome_status": {"category": "Investigation complete; no suspect identified", "date": "2024-05"}, "persistent_id": "12262d9f6f16bb17522cfc70e44d613a512e0b160047fada79fe134367945945", "id": 118852184, "location_subtype": "", "month": "2024-05"}, {"category": "bicycle-theft", "location_type": "Force", "location": {"latitude": "52.626782", "street": {"id": 1738090, "name": "On or near Hospital"}, "longitude": "-1.135961"}, "context": "", "outcome_status": {"category": "Court result unavailable", "date": "2024-12"}, "persistent_id": "78597d744708234a6b14d11d370854ab8be3a3ef9aeeeb94870c4d4a410c462e", "id": 118854348, "location_subtype": "", "month": "2024-05"}, {"category": "bicycle-theft", "location_type": "Force", "location": {"latitude": "52.632052", "street": {"id": 1737636, "name": "On or near Supermarket"}, "longitude": "-1.146096"}, "context": "", "outcome_status": {"category": "Investigation complete; no suspect identified", "date": "2024-06"}, "persistent_id": "271c94ab8d9865ddffac6f5cc046bca1f5cf497563f955b0efe6fc13c5bd1c70", "id": 118857987, "location_subtype": "", "month": "2024-05"}, {"category": "bicycle-theft", "location_type": "Force", "location": {"latitude": "52.633318", "street": {"id": 1738276, "name": "On or near Nightclub"}, "longitude": "-1.134798"}, "context": "", "outcome_status": {"category": "Investigation complete; no suspect identified", "date": "2024-05"}, "persistent_id": "864d3be047d8cebcd57213bc4d29e320e932d82bbf1bb8e851e5aeacdee75be3", "id": 118858200, "location_subtype": "", "month": "2024-05"}, {"category": "bicycle-theft", "location_type": "Force", "location": {"latitude": "52.633158", "street": {"id": 1738173, "name": "On or near Wycliffe Street"}, "longitude": "-1.136205"}, "context": "", "outcome_status": {"category": "Investigation complete; no suspect identified", "date": "2024-05"}, "persistent_id": "639f858279da2eaf67abae2229e66d066b032ee3b3bdf06cc7d1af0f29f54783", "id": 118852073, "location_subtype": "", "month": "2024-05"}, {"category": "bicycle-theft", "location_type": "Force", "location": {"latitude": "52.631536", "street": {"id": 1739234, "name": "On or near Oxendon Street"}, "longitude": "-1.114960"}, "context": "", "outcome_status": {"category": "Investigation complete; no suspect identified", "date": "2024-05"}, "persistent_id": "35cbb52dd2b5593b7b0134bdf4b46a2ee0ba6886b11f5f1ba4ce44728b44f114", "id": 118858869, "location_subtype": "", "month": "2024-05"}, {"category": "bicycle-theft", "location_type": "Force", "location": {"latitude": "52.629478", "street": {"id": 1739066, "name": "On or near Saxby Street"}, "longitude": "-1.119981"}, "context": "", "outcome_status": {"category": "Investigation complete; no suspect identified", "date": "2024-05"}, "persistent_id": "4d9c3ead010d2913f38ea24e2f94bc2580cd47c14dfcede565e94e5250a03da4", "id": 118855606, "location_subtype": "", "month": "2024-05"}, {"category": "bicycle-theft", "location_type": "Force", "location": {"latitude": "52.634252", "street": {"id": 1738481, "name": "On or near Granby Place"}, "longitude": "-1.130997"}, "context": "", "outcome_status": {"category": "Investigation complete; no suspect identified", "date": "2024-05"}, "persistent_id": "9c3aa37e80f57bba85446a3eae46f304e00c96c39747ea42a4c8c8f2d22c18d5", "id": 118858207, "location_subtype": "", "month": "2024-05"}, {"category": "bicycle-theft", "location_type": "Force", "location": {"latitude": "52.639558", "street": {"id": 1738364, "name": "On or near Nightclub"}, "longitude": "-1.132473"}, "context": "", "outcome_status": {"category": "Investigation complete; no suspect identified", "date": "2024-05"}, "persistent_id": "fc1c7da6bf467620b796f1edd6b08cb16d06cfd3c350dc6a5d0f3c3a5a3b3174", "id": 118855458, "location_subtype": "", "month": "2024-05"}, {"category": "bicycle-theft", "location_type": "Force", "location": {"latitude": "52.632318", "street": {"id": 1738584, "name": "On or near York Street"}, "longitude": "-1.129483"}, "context": "", "outcome_status": {"category": "Investigation complete; no suspect identified", "date": "2024-07"}, "persistent_id": "2850e0758d13a6acb55d0f68e74d85111e8c8cd12d2fe57086ee371ff7709103", "id": 118856634, "location_subtype": "", "month": "2024-05"}, {"category": "bicycle-theft", "location_type": "Force", "location": {"latitude": "52.629982", "street": {"id": 1738203, "name": "On or near Lower Brown Street"}, "longitude": "-1.134642"}, "context": "", "outcome_status": {"category": "Investigation complete; no suspect identified", "date": "2024-05"}, "persistent_id": "f24fe82b51c17bc2a6d5606433558f74760a6051e784f331af113b4be7838e61", "id": 118853250, "location_subtype": "", "month": "2024-05"}, {"category": "bicycle-theft", "location_type": "Force", "location": {"latitude": "52.627432", "street": {"id": 1737986, "name": "On or near Jarrom Street"}, "longitude": "-1.138755"}, "context": "", "outcome_status": {"category": "Investigation complete; no suspect identified", "date": "2024-05"}, "persistent_id": "1ef1f6640e258a99eb9b1794981640a6a2e9d1ed52cf3484e611643c5c00a202", "id": 118859485, "location_subtype": "", "month": "2024-05"}, {"category": "bicycle-theft", "location_type": "Force", "location": {"latitude": "52.638050", "street": {"id": 1738108, "name": "On or near East Bond Street"}, "longitude": "-1.136404"}, "context": "", "outcome_status": {"category": "Investigation complete; no suspect identified", "date": "2024-07"}, "persistent_id": "97bb6db144567f60c17cb8d357d593a1675e1878e7a3eaf93fc1f3d94bb1da4b", "id": 118856633, "location_subtype": "", "month": "2024-05"}, {"category": "bicycle-theft", "location_type": "Force", "location": {"latitude": "52.636175", "street": {"id": 1738848, "name": "On or near Burton Street"}, "longitude": "-1.124737"}, "context": "", "outcome_status": {"category": "Investigation complete; no suspect identified", "date": "2024-05"}, "persistent_id": "0375e2eb687dbc961f491816ba43ddcba629dd3a64ee4aa6f316304c03f61e5b", "id": 118855452, "location_subtype": "", "month": "2024-05"}, {"category": "bicycle-theft", "location_type": "Force", "location": {"latitude": "52.640513", "street": {"id": 1738601, "name": "On or near Gower Street"}, "longitude": "-1.128966"}, "context": "", "outcome_status": {"category": "Investigation complete; no suspect identified", "date": "2024-05"}, "persistent_id": "1b7145092be6cba9e5022e11e0948eded634d87d4ecf344a7b828f47b6b03771", "id": 118855283, "location_subtype": "", "month": "2024-05"}, {"category": "bicycle-theft", "location_type": "Force", "location": {"latitude": "52.630510", "street": {"id": 1738897, "name": "On or near Glebe Street"}, "longitude": "-1.123255"}, "context": "", "outcome_status": {"category": "Investigation complete; no suspect identified", "date": "2024-05"}, "persistent_id": "892c8f5a169c46bf5ac0b02be1e18b5ab50e91f4cf7b9097dbf6092a928a03a3", "id": 118854083, "location_subtype": "", "month": "2024-05"}, {"category": "bicycle-theft", "location_type": "Force", "location": {"latitude": "52.629294", "street": {"id": 1738026, "name": "On or near Further/higher Educational Building"}, "longitude": "-1.137684"}, "context": "", "outcome_status": {"category": "Awaiting court outcome", "date": "2024-09"}, "persistent_id": "65441375b245ba7a57d582861c57d7021d0e4f31a18927a4e0919b57c44f1b5c", "id": 118858390, "location_subtype": "", "month": "2024-05"}, {"category": "bicycle-theft", "location_type": "Force", "location": {"latitude": "52.634991", "street": {"id": 1738162, "name": "On or near Loseby Lane"}, "longitude": "-1.136050"}, "context": "", "outcome_status": {"category": "Investigation complete; no suspect identified", "date": "2024-05"}, "persistent_id": "e195c4ca4042f5fd6b35f1c8952e2615b9dda6ab0878b4c8af9db9fa81e8bf4f", "id": 118856527, "location_subtype": "", "month": "2024-05"}, {"category": "bicycle-theft", "location_type": "Force", "location": {"latitude": "52.637115", "street": {"id": 1738598, "name": "On or near Supermarket"}, "longitude": "-1.129034"}, "context": "", "outcome_status": {"category": "Investigation complete; no suspect identified", "date": "2024-05"}, "persistent_id": "aa19c2a93a6ba708f5e8503514e4bc66c6f1e891557f65436e233abdbe258c39", "id": 118857671, "location_subtype": "", "month": "2024-05"}, {"category": "bicycle-theft", "location_type": "Force", "location": {"latitude": "52.623507", "street": {"id": 1738182, "name": "On or near Aylestone Walk"}, "longitude": "-1.133174"}, "context": "", "outcome_status": {"category": "Investigation complete; no suspect identified", "date": "2024-05"}, "persistent_id": "ddbe084fe0eb91dcb9fbcebb14a6ab7316e01e74acb607d404a2b114a400bac3", "id": 118855127, "location_subtype": "", "month": "2024-05"}, {"category": "bicycle-theft", "location_type": "Force", "location": {"latitude": "52.630162", "street": {"id": 1737864, "name": "On or near Newarke Close"}, "longitude": "-1.140873"}, "context": "", "outcome_status": {"category": "Investigation complete; no suspect identified", "date": "2024-05"}, "persistent_id": "0b941ff67c84fc7e52f1af611df448d1ee909fbcd5dd91ad9999de47c6a47081", "id": 118853154, "location_subtype": "", "month": "2024-05"}, {"category": "bicycle-theft", "location_type": "Force", "location": {"latitude": "52.635797", "street": {"id": 1738449, "name": "On or near Fox Lane"}, "longitude": "-1.131926"}, "context": "", "outcome_status": {"category": "Investigation complete; no suspect identified", "date": "2024-05"}, "persistent_id": "45cd0f7cd5033de193104e5f720409b87e079343ac766e70bd4619869679d706", "id": 118855029, "location_subtype": "", "month": "2024-05"}, {"category": "bicycle-theft", "location_type": "Force", "location": {"latitude": "52.628501", "street": {"id": 1738268, "name": "On or near Infirmary Square"}, "longitude": "-1.134937"}, "context": "", "outcome_status": {"category": "Investigation complete; no suspect identified", "date": "2024-05"}, "persistent_id": "0be573b2ca130df5e4f1b4e18c120402cb74b5b1617c73ac94000a2f638e4cf7", "id": 118854908, "location_subtype": "", "month": "2024-05"}, {"category": "bicycle-theft", "location_type": "Force", "location": {"latitude": "52.634252", "street": {"id": 1738481, "name": "On or near Granby Place"}, "longitude": "-1.130997"}, "context": "", "outcome_status": {"category": "Investigation complete; no suspect identified", "date": "2024-06"}, "persistent_id": "fd653211701dc0cc8df3cb94dbdd323d76606036c3c243505c73d688f7bd6369", "id": 118855166, "location_subtype": "", "month": "2024-05"}, {"category": "bicycle-theft", "location_type": "Force", "location": {"latitude": "52.633318", "street": {"id": 1738276, "name": "On or near Nightclub"}, "longitude": "-1.134798"}, "context": "", "outcome_status": {"category": "Unable to prosecute suspect", "date": "2024-07"}, "persistent_id": "65250361128deaec02a999f509b7c352171bd8d66dad41e90687431f821b382e", "id": 118857164, "location_subtype": "", "month": "2024-05"}, {"category": "bicycle-theft", "location_type": "Force", "location": {"latitude": "52.626782", "street": {"id": 1738090, "name": "On or near Hospital"}, "longitude": "-1.135961"}, "context": "", "outcome_status": {"category": "Investigation complete; no suspect identified", "date": "2024-05"}, "persistent_id": "010fdb35e73934b148875668530ceecad81f7b6a616cbdc7e9b6abf0692e8d3d", "id": 118856367, "location_subtype": "", "month": "2024-05"}, {"category": "bicycle-theft", "location_type": "Force", "location": {"latitude": "52.637697", "street": {"id": 1738064, "name": "On or near Causeway Lane"}, "longitude": "-1.137297"}, "context": "", "outcome_status": {"category": "Investigation complete; no suspect identified", "date": "2024-05"}, "persistent_id": "57fc24d36327a83cb4ea6e2fbf33616eb86c5957615da5605c318c17022bb6e5", "id": 118857132, "location_subtype": "", "month": "2024-05"}, {"category": "bicycle-theft", "location_type": "Force", "location": {"latitude": "52.639558", "street": {"id": 1738364, "name": "On or near Nightclub"}, "longitude": "-1.132473"}, "context": "", "outcome_status": {"category": "Investigation complete; no suspect identified", "date": "2024-05"}, "persistent_id": "7a2cdfd3eb1b5c2c8487ff8a10c8f7cbba4e37f2472880079c009359370b65c7", "id": 118858824, "location_subtype": "", "month": "2024-05"}, {"category": "bicycle-theft", "location_type": "Force", "location": {"latitude": "52.637146", "street": {"id": 1737432, "name": "On or near Vaughan Street"}, "longitude": "-1.149381"}, "context": "", "outcome_status": {"category": "Investigation complete; no suspect identified", "date": "2024-06"}, "persistent_id": "0436a57037cfc4edb89003d4e6c82d8107da56fecf4e066df6a097072530fbd3", "id": 118858878, "location_subtype": "", "month": "2024-05"}, {"category": "bicycle-theft", "location_type": "BTP", "location": {"latitude": "52.629997", "street": {"id": 2347995, "name": "Leicester (station)"}, "longitude": "-1.125659"}, "context": "", "outcome_status": {"category": "Status update unavailable", "date": "2024-09"}, "persistent_id": "", "id": 126030001, "location_subtype": "STATION", "month": "2024-05"}, {"category": "bicycle-theft", "location_type": "Force", "location": {"latitude": "52.618158", "street": {"id": 1738119, "name": "On or near Putney Road West"}, "longitude": "-1.135525"}, "context": "", "outcome_status": {"category": "Investigation complete; no suspect identified", "date": "2024-05"}, "persistent_id": "179b0d0c10daafe0cc8d8c43f51828b85c3d9974a722be80dddc5b0879151114", "id": 118858270, "location_subtype": "", "month": "2024-05"}, {"category": "bicycle-theft", "location_type": "Force", "location": {"latitude": "52.623392", "street": {"id": 1738784, "name": "On or near University Road"}, "longitude": "-1.124756"}, "context": "", "outcome_status": {"category": "Investigation complete; no suspect identified", "date": "2024-05"}, "persistent_id": "94eb8f443da80412dd0d0bcc3eb10fcdd120d86fb402417db496cc561bdae491", "id": 118853889, "location_subtype": "", "month": "2024-05"}, {"category": "bicycle-theft", "location_type": "Force", "location": {"latitude": "52.632318", "street": {"id": 1738584, "name": "On or near York Street"}, "longitude": "-1.129483"}, "context": "", "outcome_status": {"category": "Investigation complete; no suspect identified", "date": "2024-05"}, "persistent_id": "24f49bb172d0058668152eba2a3542bf6b2ab86ed40cac519ee7d7a7f6666c19", "id": 118856313, "location_subtype": "", "month": "2024-05"}, {"category": "bicycle-theft", "location_type": "Force", "location": {"latitude": "52.640046", "street": {"id": 1738382, "name": "On or near Nightclub"}, "longitude": "-1.132433"}, "context": "", "outcome_status": {"category": "Investigation complete; no suspect identified", "date": "2024-06"}, "persistent_id": "d4f58ff2cda6027ec95a6479480003d0607c103aa6e3169f4eb9b36ab0519352", "id": 118855363, "location_subtype": "", "month": "2024-05"}, {"category": "bicycle-theft", "location_type": "Force", "location": {"latitude": "52.637756", "street": {"id": 1738805, "name": "On or near Clyde Street"}, "longitude": "-1.125755"}, "context": "", "outcome_status": {"category": "Investigation complete; no suspect identified", "date": "2024-05"}, "persistent_id": "d35e5573275defcf4e40a5fdce1359b55e3aa5807786d0f5ea34067864484a04", "id": 118854706, "location_subtype": "", "month": "2024-05"}, {"category": "bicycle-theft", "location_type": "Force", "location": {"latitude": "52.643191", "street": {"id": 1738592, "name": "On or near Memory Lane"}, "longitude": "-1.128869"}, "context": "", "outcome_status": {"category": "Investigation complete; no suspect identified", "date": "2024-05"}, "persistent_id": "2d02ea841e83283d79620db02b9d647c9258dcbc68c8be6bb3b3885f9d3c33b9", "id": 118859697, "location_subtype": "", "month": "2024-05"}, {"category": "bicycle-theft", "location_type": "Force", "location": {"latitude": "52.637147", "street": {"id": 1738820, "name": "On or near Ann Street"}, "longitude": "-1.124807"}, "context": "", "outcome_status": {"category": "Investigation complete; no suspect identified", "date": "2024-05"}, "persistent_id": "4acbfae09933aabd6ba57506fabfbce04ad55b9ae7af3e6370a6e39e167671ca", "id": 118853897, "location_subtype": "", "month": "2024-05"}, {"category": "bicycle-theft", "location_type": "Force", "location": {"latitude": "52.630162", "street": {"id": 1737864, "name": "On or near Newarke Close"}, "longitude": "-1.140873"}, "context": "", "outcome_status": {"category": "Court result unavailable", "date": "2024-12"}, "persistent_id": "660c973c28798385b4f95c5afa1ede2e69a22712f36a18fb3a67ca828c2540ec", "id": 118855753, "location_subtype": "", "month": "2024-05"}, {"category": "bicycle-theft", "location_type": "Force", "location": {"latitude": "52.630693", "street": {"id": 1738552, "name": "On or near Wellington Street"}, "longitude": "-1.129885"}, "context": "", "outcome_status": {"category": "Investigation complete; no suspect identified", "date": "2024-05"}, "persistent_id": "71172b9a30e75997a67f53101366962d89c16f4f9f97d38e31cf5e34413fb99c", "id": 118859547, "location_subtype": "", "month": "2024-05"}, {"category": "bicycle-theft", "location_type": "Force", "location": {"latitude": "52.615910", "street": {"id": 1738807, "name": "On or near Brentwood Road"}, "longitude": "-1.125732"}, "context": "", "outcome_status": {"category": "Investigation complete; no suspect identified", "date": "2024-05"}, "persistent_id": "8397d6b60009bea67f38317f34998aa6225e077b39fea3539c90a5c561239a3a", "id": 118853255, "location_subtype": "", "month": "2024-05"}, {"category": "bicycle-theft", "location_type": "Force", "location": {"latitude": "52.627818", "street": {"id": 1738220, "name": "On or near Infirmary Close"}, "longitude": "-1.135039"}, "context": "", "outcome_status": {"category": "Investigation complete; no suspect identified", "date": "2024-05"}, "persistent_id": "6a7b363fa6b447ee5e3fe16e819242179a0d5996c2e19fb813d23fcf63a839e9", "id": 118854629, "location_subtype": "", "month": "2024-05"}, {"category": "bicycle-theft", "location_type": "Force", "location": {"latitude": "52.632052", "street": {"id": 1737636, "name": "On or near Supermarket"}, "longitude": "-1.146096"}, "context": "", "outcome_status": {"category": "Investigation complete; no suspect identified", "date": "2024-05"}, "persistent_id": "3945cb656f5bb08fe2b7428a75d99e45c5ede566ba9b9b0b4ced7976886724d9", "id": 118859489, "location_subtype": "", "month": "2024-05"}, {"category": "bicycle-theft", "location_type": "Force", "location": {"latitude": "52.630948", "street": {"id": 1738231, "name": "On or near York Road"}, "longitude": "-1.135140"}, "context": "", "outcome_status": {"category": "Investigation complete; no suspect identified", "date": "2024-05"}, "persistent_id": "6bf7e40b508a5f7d0c04569826c491a64a8d3ea7d8082a5f834d7c1df3dfa81d", "id": 118854561, "location_subtype": "", "month": "2024-05"}, {"category": "bicycle-theft", "location_type": "Force", "location": {"latitude": "52.628507", "street": {"id": 1738390, "name": "On or near Trinity Lane"}, "longitude": "-1.132159"}, "context": "", "outcome_status": {"category": "Investigation complete; no suspect identified", "date": "2024-05"}, "persistent_id": "d60ff4943a2fe1e32a5346319265e95361b6e539e56ccac9d11a09f4f7333a57", "id": 118854517, "location_subtype": "", "month": "2024-05"}, {"category": "bicycle-theft", "location_type": "Force", "location": {"latitude": "52.629982", "street": {"id": 1738203, "name": "On or near Lower Brown Street"}, "longitude": "-1.134642"}, "context": "", "outcome_status": {"category": "Investigation complete; no suspect identified", "date": "2024-05"}, "persistent_id": "ce55d1456a636cbcdbee3c4d881afbee1bc552d2c8cf8c17f7abb92abccb0522", "id": 118853472, "location_subtype": "", "month": "2024-05"}, {"category": "bicycle-theft", "location_type": "Force", "location": {"latitude": "52.636133", "street": {"id": 1738084, "name": "On or near Shopping Area"}, "longitude": "-1.137402"}, "context": "", "outcome_status": {"category": "Investigation complete; no suspect identified", "date": "2024-05"}, "persistent_id": "1b61206990ef20c69fd3065152e03694b194f977db1afa577b7aaa0d1e193910", "id": 118851879, "location_subtype": "", "month": "2024-05"}, {"category": "bicycle-theft", "location_type": "Force", "location": {"latitude": "52.631409", "street": {"id": 1738709, "name": "On or near East Street"}, "longitude": "-1.127034"}, "context": "", "outcome_status": {"category": "Investigation complete; no suspect identified", "date": "2024-05"}, "persistent_id": "dabbfe607c0abb779d27aca2c61266fe0e7f23d5c412f35d8177bf2305eb3723", "id": 118857360, "location_subtype": "", "month": "2024-05"}, {"category": "bicycle-theft", "location_type": "Force", "location": {"latitude": "52.626782", "street": {"id": 1738090, "name": "On or near Hospital"}, "longitude": "-1.135961"}, "context": "", "outcome_status": {"category": "Investigation complete; no suspect identified", "date": "2024-06"}, "persistent_id": "492cb7638ea08250248d775f705705034180e316e2102156b67da5ece3050d49", "id": 118859888, "location_subtype": "", "month": "2024-05"}, {"category": "burglary", "location_type": "Force", "location": {"latitude": "52.616227", "street": {"id": 1737842, "name": "On or near Pentland Close"}, "longitude": "-1.139610"}, "context": "", "outcome_status": {"category": "Status update unavailable", "date": "2024-09"}, "persistent_id": "30c5a4315490124a2d555d3f3cf5de5a1e3fcce71c9a19ade3cb8848b0cadb43", "id": 118857236, "location_subtype": "", "month": "2024-05"}, {"category": "burglary", "location_type": "Force", "location": {"latitude": "52.631714", "street": {"id": 1738501, "name": "On or near Albion Street"}, "longitude": "-1.130515"}, "context": "", "outcome_status": {"category": "Investigation complete; no suspect identified", "date": "2024-05"}, "persistent_id": "5948b8b7f99c343fdf5f86d47fd4420370b8e7cbb8cf7b05a0578015b3dd67c6", "id": 118857853, "location_subtype": "", "month": "2024-05"}, {"category": "burglary", "location_type": "Force", "location": {"latitude": "52.632832", "street": {"id": 1737491, "name": "On or near Dane Street"}, "longitude": "-1.148327"}, "context": "", "outcome_status": {"category": "Investigation complete; no suspect identified", "date": "2024-05"}, "persistent_id": "a927f1fa6fb20782ff9532b80c2b7b4b15c5ac385bbd4cb56a7f466d00a3a31f", "id": 118859351, "location_subtype": "", "month": "2024-05"}, {"category": "burglary", "location_type": "Force", "location": {"latitude": "52.632832", "street": {"id": 1737491, "name": "On or near Dane Street"}, "longitude": "-1.148327"}, "context": "", "outcome_status": {"category": "Investigation complete; no suspect identified", "date": "2024-05"}, "persistent_id": "5fe46a4de0c274ac90e97dc3dc91fb274cd7cfbaf7b5e2b440e84f8ce33125a0", "id": 118859354, "location_subtype": "", "month": "2024-05"}, {"category": "burglary", "location_type": "Force", "location": {"latitude": "52.630568", "street": {"id": 1737160, "name": "On or near Cherryleas Drive"}, "longitude": "-1.154872"}, "context": "", "outcome_status": {"category": "Investigation complete; no suspect identified", "date": "2024-05"}, "persistent_id": "764e0e76a91adec5771c8d1fe619a73bf82d63c9ddda9611b506eb045402aa00", "id": 118853412, "location_subtype": "", "month": "2024-05"}, {"category": "burglary", "location_type": "Force", "location": {"latitude": "52.631433", "street": {"id": 1738335, "name": "On or near A594"}, "longitude": "-1.133860"}, "context": "", "outcome_status": {"category": "Investigation complete; no suspect identified", "date": "2024-05"}, "persistent_id": "75bd4496de164c2a3befbf2365378113bcf39cc77a0dfd1a0d0dac312cffda98", "id": 118856001, "location_subtype": "", "month": "2024-05"}, {"category": "burglary", "location_type": "Force", "location": {"latitude": "52.636623", "street": {"id": 1737784, "name": "On or near Ruding Street"}, "longitude": "-1.142978"}, "context": "", "outcome_status": {"category": "Investigation complete; no suspect identified", "date": "2024-06"}, "persistent_id": "f0715784c87c5ad91faf53cc0b103294e9df44710b71826ab15a79bbf6d966ea", "id": 118853407, "location_subtype": "", "month": "2024-05"}, {"category": "burglary", "location_type": "Force", "location": {"latitude": "52.627432", "street": {"id": 1737986, "name": "On or near Jarrom Street"}, "longitude": "-1.138755"}, "context": "", "outcome_status": {"category": "Further action is not in the public interest", "date": "2024-07"}, "persistent_id": "673b9ee9bf5e6044fcf0718e23b7a56b25307d9f072d8e84e487bc475d68b47e", "id": 118855080, "location_subtype": "", "month": "2024-05"}, {"category": "burglary", "location_type": "Force", "location": {"latitude": "52.626202", "street": {"id": 1737411, "name": "On or near Equity Road"}, "longitude": "-1.148988"}, "context": "", "outcome_status": {"category": "Investigation complete; no suspect identified", "date": "2024-06"}, "persistent_id": "5c8c3f4461dd80f33d5d5d810f2bd01113a4b6509ee5a08ce0547b01ac7042f9", "id": 118852095, "location_subtype": "", "month": "2024-05"}, {"category": "burglary", "location_type": "Force", "location": {"latitude": "52.627534", "street": {"id": 1738536, "name": "On or near Newtown Street"}, "longitude": "-1.130553"}, "context": "", "outcome_status": {"category": "Investigation complete; no suspect identified", "date": "2024-05"}, "persistent_id": "0f740232ab6edcfe5ad01f5d433d19ec0ca725118cf14be75f4d8a236a15412a", "id": 118856544, "location_subtype": "", "month": "2024-05"}, {"category": "burglary", "location_type": "Force", "location": {"latitude": "52.632832", "street": {"id": 1737491, "name": "On or near Dane Street"}, "longitude": "-1.148327"}, "context": "", "outcome_status": {"category": "Investigation complete; no suspect identified", "date": "2024-05"}, "persistent_id": "e7971cb96271242f81a44c03622852606da977ff9537091602a62b97f44c6398", "id": 118859348, "location_subtype": "", "month": "2024-05"}, {"category": "burglary", "location_type": "Force", "location": {"latitude": "52.627933", "street": {"id": 1739292, "name": "On or near Further/higher Educational Building"}, "longitude": "-1.114072"}, "context": "", "outcome_status": {"category": "Investigation complete; no suspect identified", "date": "2024-06"}, "persistent_id": "1ed2de19709bf0ee1805f4fdec13a585bc57e155da21589aec1b9d2691c4e302", "id": 118858623, "location_subtype": "", "month": "2024-05"}, {"category": "burglary", "location_type": "Force", "location": {"latitude": "52.625208", "street": {"id": 1737460, "name": "On or near Bruce Street"}, "longitude": "-1.149509"}, "context": "", "outcome_status": {"category": "Investigation complete; no suspect identified", "date": "2024-06"}, "persistent_id": "ee745f0200b9be7aca5d7c6b177a3682d075ecc23c79bb5384222befe1265175", "id": 118854828, "location_subtype": "", "month": "2024-05"}, {"category": "burglary", "location_type": "Force", "location": {"latitude": "52.637257", "street": {"id": 1737923, "name": "On or near Highcross Street"}, "longitude": "-1.139936"}, "context": "", "outcome_status": {"category": "Investigation complete; no suspect identified", "date": "2024-05"}, "persistent_id": "228c7e20ae1619b288531395957a5a588efdee33d08a126b02fc0887e0a2fafd", "id": 118853623, "location_subtype": "", "month": "2024-05"}, {"category": "burglary", "location_type": "Force", "location": {"latitude": "52.636723", "street": {"id": 1738235, "name": "On or near New Bond Street"}, "longitude": "-1.134450"}, "context": "", "outcome_status": {"category": "Court result unavailable", "date": "2024-11"}, "persistent_id": "d1ac137c4131b7bce4ecaeee4b021e91d76bad18688ccb9f5395f19b0584b433", "id": 118858809, "location_subtype": "", "month": "2024-05"}, {"category": "burglary", "location_type": "Force", "location": {"latitude": "52.624407", "street": {"id": 1737648, "name": "On or near Hattersley Way"}, "longitude": "-1.145684"}, "context": "", "outcome_status": {"category": "Investigation complete; no suspect identified", "date": "2024-09"}, "persistent_id": "e1948dfe9fd77331368c7887b770a9d39aafd185c9b8efa35090f13a1e980147", "id": 118857854, "location_subtype": "", "month": "2024-05"}, {"category": "burglary", "location_type": "Force", "location": {"latitude": "52.637257", "street": {"id": 1737923, "name": "On or near Highcross Street"}, "longitude": "-1.139936"}, "context": "", "outcome_status": {"category": "Investigation complete; no suspect identified", "date": "2024-06"}, "persistent_id": "54a239a667c48812b4f24e6fb9fb61acf84a46e3e27e05981ed6a5197ad13da7", "id": 118853965, "location_subtype": "", "month": "2024-05"}, {"category": "burglary", "location_type": "Force", "location": {"latitude": "52.629880", "street": {"id": 1738479, "name": "On or near Princess Road Backways"}, "longitude": "-1.130492"}, "context": "", "outcome_status": {"category": "Investigation complete; no suspect identified", "date": "2024-06"}, "persistent_id": "134d27f64a1a75ff499d7a04aa8f160159d3a7923697e9dd716e1586b51486b5", "id": 118856454, "location_subtype": "", "month": "2024-05"}, {"category": "burglary", "location_type": "Force", "location": {"latitude": "52.624993", "street": {"id": 1738104, "name": "On or near Martindale Close"}, "longitude": "-1.137222"}, "context": "", "outcome_status": {"category": "Investigation complete; no suspect identified", "date": "2024-05"}, "persistent_id": "db23c48e460a0d59e5530c79eecfdaa07ab552d3c15e22ac8bc6299f4884bba6", "id": 118856076, "location_subtype": "", "month": "2024-05"}, {"category": "burglary", "location_type": "Force", "location": {"latitude": "52.637843", "street": {"id": 1738541, "name": "On or near Shopping Area"}, "longitude": "-1.130275"}, "context": "", "outcome_status": {"category": "Awaiting court outcome", "date": "2024-12"}, "persistent_id": "8c9d1a9d65794621cb5c9177a80fc4b5350c6836e3272fc3899d65844039c7d3", "id": 118856801, "location_subtype": "", "month": "2024-05"}, {"category": "burglary", "location_type": "Force", "location": {"latitude": "52.628717", "street": {"id": 1737809, "name": "On or near Mill Lane"}, "longitude": "-1.142394"}, "context": "", "outcome_status": {"category": "Investigation complete; no suspect identified", "date": "2024-05"}, "persistent_id": "18ac70b2b9be40531453cb48c26580e1588a4394365633306d108bbd7a3b3b99", "id": 118851841, "location_subtype": "", "month": "2024-05"}, {"category": "burglary", "location_type": "Force", "location": {"latitude": "52.627137", "street": {"id": 1739115, "name": "On or near St Albans Road"}, "longitude": "-1.117058"}, "context": "", "outcome_status": {"category": "Investigation complete; no suspect identified", "date": "2024-08"}, "persistent_id": "ea3df7dca200085b27ef1865bd5ec7ab161f88b9454d25fc0fa725aa7a58ff1f", "id": 118859386, "location_subtype": "", "month": "2024-05"}, {"category": "burglary", "location_type": "Force", "location": {"latitude": "52.632999", "street": {"id": 1738125, "name": "On or near Friar Lane"}, "longitude": "-1.136548"}, "context": "", "outcome_status": {"category": "Investigation complete; no suspect identified", "date": "2024-06"}, "persistent_id": "ddb6366b17f831f8abf2b180e2f3bce0729db5860d3a75c9baeeec6b279cbbf6", "id": 118853669, "location_subtype": "", "month": "2024-05"}, {"category": "burglary", "location_type": "Force", "location": {"latitude": "52.635797", "street": {"id": 1738449, "name": "On or near Fox Lane"}, "longitude": "-1.131926"}, "context": "", "outcome_status": {"category": "Investigation complete; no suspect identified", "date": "2024-05"}, "persistent_id": "fa50ad4e6f58aae82dcde457bd2b5e15529d4db626086e703d2531d516254eee", "id": 118854152, "location_subtype": "", "month": "2024-05"}, {"category": "burglary", "location_type": "Force", "location": {"latitude": "52.626202", "street": {"id": 1737411, "name": "On or near Equity Road"}, "longitude": "-1.148988"}, "context": "", "outcome_status": {"category": "Investigation complete; no suspect identified", "date": "2024-06"}, "persistent_id": "6e3dd3286bc496a04063e497bbefa6c2177fc5b560ec9f2d5aaa68bfeff5d449", "id": 118854554, "location_subtype": "", "month": "2024-05"}, {"category": "burglary", "location_type": "Force", "location": {"latitude": "52.624788", "street": {"id": 1737410, "name": "On or near Noel Street"}, "longitude": "-1.149857"}, "context": "", "outcome_status": {"category": "Investigation complete; no suspect identified", "date": "2024-06"}, "persistent_id": "bdc32e39308a8d2578f4f479a7ec4c295e5e2f4cc153fd4a9380fb5d2aea4002", "id": 118853634, "location_subtype": "", "month": "2024-05"}, {"category": "burglary", "location_type": "Force", "location": {"latitude": "52.631433", "street": {"id": 1738335, "name": "On or near A594"}, "longitude": "-1.133860"}, "context": "", "outcome_status": {"category": "Investigation complete; no suspect identified", "date": "2024-06"},