[{"category": "anti-social-behaviour", "location_type": "Force", "location": {"latitude": "52.639558", "street": {"id": 1738364, "name": "On or near Nightclub"}, "longitude": "-1.132473"}, "context": "", "outcome_status": null, "persistent_id": "", "id": 125112875, "location_subtype": "", "month": "2024-12"}, {"category": "anti-social-behaviour", "location_type": "Force", "location": {"latitude": "52.635647", "street": {"id": 1738106, "name": "On or near Shires Lane"}, "longitude": "-1.137293"}, "context": "", "outcome_status": null, "persistent_id": "", "id": 125114056, "location_subtype": "", "month": "2024-12"}, {"category": "anti-social-behaviour", "location_type": "Force", "location": {"latitude": "52.627818", "street": {"id": 1738220, "name": "On or near Infirmary Close"}, "longitude": "-1.135039"}, "context": "", "outcome_status": null, "persistent_id": "", "id": 125113569, "location_subtype": "", "month": "2024-12"}, {"category": "anti-social-behaviour", "location_type": "Force", "location": {"latitude": "52.642180", "street": {"id": 1739083, "name": "On or near Kashmir Road"}, "longitude": "-1.119859"}, "context": "", "outcome_status": null, "persistent_id": "", "id": 125114054, "location_subtype": "", "month": "2024-12"}, {"category": "anti-social-behaviour", "location_type": "Force", "location": {"latitude": "52.634237", "street": {"id": 1738695, "name": "On or near Conference/exhibition Centre"}, "longitude": "-1.127731"}, "context": "", "outcome_status": null, "persistent_id": "", "id": 125112675, "location_subtype": "", "month": "2024-12"}, {"category": "anti-social-behaviour", "location_type": "Force", "location": {"latitude": "52.634237", "street": {"id": 1738695, "name": "On or near Conference/exhibition Centre"}, "longitude": "-1.127731"}, "context": "", "outcome_status": null, "persistent_id": "", "id": 125112784, "location_subtype": "", "month": "2024-12"}, {"category": "anti-social-behaviour", "location_type": "Force", "location": {"latitude": "52.631193", "street": {"id": 1738645, "name": "On or near Calais Hill"}, "longitude": "-1.128220"}, "context": "", "outcome_status": null, "persistent_id": "", "id": 125112698, "location_subtype": "", "month": "2024-12"}, {"category": "anti-social-behaviour", "location_type": "Force", "location": {"latitude": "52.634237", "street": {"id": 1738695, "name": "On or near Conference/exhibition Centre"}, "longitude": "-1.127731"}, "context": "", "outcome_status": null, "persistent_id": "", "id": 125113417, "location_subtype": "", "month": "2024-12"}, {"category": "anti-social-behaviour", "location_type": "Force", "location": {"latitude": "52.632052", "street": {"id": 1737636, "name": "On or near Supermarket"}, "longitude": "-1.146096"}, "context": "", "outcome_status": null, "persistent_id": "", "id": 125113433, "location_subtype": "", "month": "2024-12"}, {"category": "anti-social-behaviour", "location_type": "Force", "location": {"latitude": "52.638358", "street": {"id": 1738578, "name": "On or near Parking Area"}, "longitude": "-1.129437"}, "context": "", "outcome_status": null, "persistent_id": "", "id": 125112802, "location_subtype": "", "month": "2024-12"}, {"category": "anti-social-behaviour", "location_type": "Force", "location": {"latitude": "52.636041", "street": {"id": 1738351, "name": "On or near East Gates"}, "longitude": "-1.133444"}, "context": "", "outcome_status": null, "persistent_id": "", "id": 125112805, "location_subtype": "", "month": "2024-12"}, {"category": "anti-social-behaviour", "location_type": "Force", "location": {"latitude": "52.635078", "street": {"id": 1737968, "name": "On or near St Nicholas Place"}, "longitude": "-1.139462"}, "context": "", "outcome_status": null, "persistent_id": "", "id": 125113444, "location_subtype": "", "month": "2024-12"}, {"category": "anti-social-behaviour", "location_type": "Force", "location": {"latitude": "52.625551", "street": {"id": 1737260, "name": "On or near Petrol Station"}, "longitude": "-1.152191"}, "context": "", "outcome_status": null, "persistent_id": "", "id": 125112808, "location_subtype": "", "month": "2024-12"}, {"category": "anti-social-behaviour", "location_type": "Force", "location": {"latitude": "52.631767", "street": {"id": 1738612, "name": "On or near Dover Street"}, "longitude": "-1.129155"}, "context": "", "outcome_status": null, "persistent_id": "", "id": 125112051, "location_subtype": "", "month": "2024-12"}, {"category": "anti-social-behaviour", "location_type": "Force", "location": {"latitude": "52.637843", "street": {"id": 1738541, "name": "On or near Shopping Area"}, "longitude": "-1.130275"}, "context": "", "outcome_status": null, "persistent_id": "", "id": 125112908, "location_subtype": "", "month": "2024-12"}, {"category": "anti-social-behaviour", "location_type": "Force", "location": {"latitude": "52.635012", "street": {"id": 1737337, "name": "On or near Flora Street"}, "longitude": "-1.151417"}, "context": "", "outcome_status": null, "persistent_id": "", "id": 125113558, "location_subtype": "", "month": "2024-12"}, {"category": "anti-social-behaviour", "location_type": "Force", "location": {"latitude": "52.630803", "street": {"id": 1737674, "name": "On or near Bede Street"}, "longitude": "-1.144983"}, "context": "", "outcome_status": null, "persistent_id": "", "id": 125112753, "location_subtype": "", "month": "2024-12"}, {"category": "anti-social-behaviour", "location_type": "Force", "location": {"latitude": "52.636041", "street": {"id": 1738351, "name": "On or near East Gates"}, "longitude": "-1.133444"}, "context": "", "outcome_status": null, "persistent_id": "", "id": 125113737, "location_subtype": "", "month": "2024-12"}, {"category": "anti-social-behaviour", "location_type": "Force", "location": {"latitude": "52.633053", "street": {"id": 1738548, "name": "On or near Granby Street"}, "longitude": "-1.129306"}, "context": "", "outcome_status": null, "persistent_id": "", "id": 125112073, "location_subtype": "", "month": "2024-12"}, {"category": "anti-social-behaviour", "location_type": "Force", "location": {"latitude": "52.634764", "street": {"id": 1738562, "name": "On or near Halford Street"}, "longitude": "-1.129612"}, "context": "", "outcome_status": null, "persistent_id": "", "id": 125112070, "location_subtype": "", "month": "2024-12"}, {"category": "anti-social-behaviour", "location_type": "Force", "location": {"latitude": "52.635797", "street": {"id": 1738449, "name": "On or near Fox Lane"}, "longitude": "-1.131926"}, "context": "", "outcome_status": null, "persistent_id": "", "id": 125112067, "location_subtype": "", "month": "2024-12"}, {"category": "anti-social-behaviour", "location_type": "Force", "location": {"latitude": "52.636041", "street": {"id": 1738351, "name": "On or near East Gates"}, "longitude": "-1.133444"}, "context": "", "outcome_status": null, "persistent_id": "", "id": 125113739, "location_subtype": "", "month": "2024-12"}, {"category": "anti-social-behaviour", "location_type": "Force", "location": {"latitude": "52.625999", "street": {"id": 1739014, "name": "On or near Salisbury Road"}, "longitude": "-1.121173"}, "context": "", "outcome_status": null, "persistent_id": "", "id": 125112065, "location_subtype": "", "month": "2024-12"}, {"category": "anti-social-behaviour", "location_type": "Force", "location": {"latitude": "52.634675", "street": {"id": 1737865, "name": "On or near St Nicholas Circle"}, "longitude": "-1.140859"}, "context": "", "outcome_status": null, "persistent_id": "", "id": 125112198, "location_subtype": "", "month": "2024-12"}, {"category": "anti-social-behaviour", "location_type": "Force", "location": {"latitude": "52.633880", "street": {"id": 1739287, "name": "On or near Mensa Close"}, "longitude": "-1.114617"}, "context": "", "outcome_status": null, "persistent_id": "", "id": 125112756, "location_subtype": "", "month": "2024-12"}, {"category": "anti-social-behaviour", "location_type": "Force", "location": {"latitude": "52.624479", "street": {"id": 1737381, "name": "On or near Stuart Street"}, "longitude": "-1.150676"}, "context": "", "outcome_status": null, "persistent_id": "", "id": 125112948, "location_subtype": "", "month": "2024-12"}, {"category": "anti-social-behaviour", "location_type": "Force", "location": {"latitude": "52.636399", "street": {"id": 1738701, "name": "On or near Nightclub"}, "longitude": "-1.127097"}, "context": "", "outcome_status": null, "persistent_id": "", "id": 125112593, "location_subtype": "", "month": "2024-12"}, {"category": "anti-social-behaviour", "location_type": "Force", "location": {"latitude": "52.639872", "street": {"id": 1739117, "name": "On or near Parking Area"}, "longitude": "-1.118959"}, "context": "", "outcome_status": null, "persistent_id": "", "id": 125112964, "location_subtype": "", "month": "2024-12"}, {"category": "anti-social-behaviour", "location_type": "Force", "location": {"latitude": "52.620491", "street": {"id": 1738051, "name": "On or near Sports/recreation Area"}, "longitude": "-1.138014"}, "context": "", "outcome_status": null, "persistent_id": "", "id": 125112486, "location_subtype": "", "month": "2024-12"}, {"category": "anti-social-behaviour", "location_type": "Force", "location": {"latitude": "52.633135", "street": {"id": 1739184, "name": "On or near Atlas Close"}, "longitude": "-1.117277"}, "context": "", "outcome_status": null, "persistent_id": "", "id": 125112966, "location_subtype": "", "month": "2024-12"}, {"category": "anti-social-behaviour", "location_type": "Force", "location": {"latitude": "52.628812", "street": {"id": 1738879, "name": "On or near De Montfort Place"}, "longitude": "-1.123495"}, "context": "", "outcome_status": null, "persistent_id": "", "id": 125113021, "location_subtype": "", "month": "2024-12"}, {"category": "anti-social-behaviour", "location_type": "Force", "location": {"latitude": "52.635555", "street": {"id": 1738528, "name": "On or near Yeoman Lane"}, "longitude": "-1.129626"}, "context": "", "outcome_status": null, "persistent_id": "", "id": 125112057, "location_subtype": "", "month": "2024-12"}, {"category": "anti-social-behaviour", "location_type": "Force", "location": {"latitude": "52.636041", "street": {"id": 1738351, "name": "On or near East Gates"}, "longitude": "-1.133444"}, "context": "", "outcome_status": null, "persistent_id": "", "id": 125113250, "location_subtype": "", "month": "2024-12"}, {"category": "anti-social-behaviour", "location_type": "Force", "location": {"latitude": "52.620491", "street": {"id": 1738051, "name": "On or near Sports/recreation Area"}, "longitude": "-1.138014"}, "context": "", "outcome_status": null, "persistent_id": "", "id": 125113047, "location_subtype": "", "month": "2024-12"}, {"category": "anti-social-behaviour", "location_type": "Force", "location": {"latitude": "52.631536", "street": {"id": 1739234, "name": "On or near Oxendon Street"}, "longitude": "-1.114960"}, "context": "", "outcome_status": null, "persistent_id": "", "id": 125113055, "location_subtype": "", "month": "2024-12"}, {"category": "anti-social-behaviour", "location_type": "Force", "location": {"latitude": "52.632991", "street": {"id": 1739348, "name": "On or near Darley Street"}, "longitude": "-1.113675"}, "context": "", "outcome_status": null, "persistent_id": "", "id": 125112882, "location_subtype": "", "month": "2024-12"}, {"category": "anti-social-behaviour", "location_type": "Force", "location": {"latitude": "52.627299", "street": {"id": 1737468, "name": "On or near Norman Street"}, "longitude": "-1.148966"}, "context": "", "outcome_status": null, "persistent_id": "", "id": 125113762, "location_subtype": "", "month": "2024-12"}, {"category": "anti-social-behaviour", "location_type": "Force", "location": {"latitude": "52.627895", "street": {"id": 1737587, "name": "On or near Supermarket"}, "longitude": "-1.146886"}, "context": "", "outcome_status": null, "persistent_id": "", "id": 125112333, "location_subtype": "", "month": "2024-12"}, {"category": "anti-social-behaviour", "location_type": "Force", "location": {"latitude": "52.635012", "street": {"id": 1737337, "name": "On or near Flora Street"}, "longitude": "-1.151417"}, "context": "", "outcome_status": null, "persistent_id": "", "id": 125113213, "location_subtype": "", "month": "2024-12"}, {"category": "anti-social-behaviour", "location_type": "Force", "location": {"latitude": "52.626768", "street": {"id": 1738882, "name": "On or near Further/higher Educational Building"}, "longitude": "-1.123078"}, "context": "", "outcome_status": null, "persistent_id": "", "id": 125113058, "location_subtype": "", "month": "2024-12"}, {"category": "anti-social-behaviour", "location_type": "Force", "location": {"latitude": "52.630693", "street": {"id": 1738552, "name": "On or near Wellington Street"}, "longitude": "-1.129885"}, "context": "", "outcome_status": null, "persistent_id": "", "id": 125112060, "location_subtype": "", "month": "2024-12"}, {"category": "anti-social-behaviour", "location_type": "Force", "location": {"latitude": "52.634237", "street": {"id": 1738695, "name": "On or near Conference/exhibition Centre"}, "longitude": "-1.127731"}, "context": "", "outcome_status": null, "persistent_id": "", "id": 125113061, "location_subtype": "", "month": "2024-12"}, {"category": "anti-social-behaviour", "location_type": "Force", "location": {"latitude": "52.622611", "street": {"id": 1738081, "name": "On or near Brazil Street"}, "longitude": "-1.137269"}, "context": "", "outcome_status": null, "persistent_id": "", "id": 125113064, "location_subtype": "", "month": "2024-12"}, {"category": "anti-social-behaviour", "location_type": "Force", "location": {"latitude": "52.630637", "street": {"id": 1739214, "name": "On or near Gopsall Street"}, "longitude": "-1.116204"}, "context": "", "outcome_status": null, "persistent_id": "", "id": 125112448, "location_subtype": "", "month": "2024-12"}, {"category": "anti-social-behaviour", "location_type": "Force", "location": {"latitude": "52.633318", "street": {"id": 1738276, "name": "On or near Nightclub"}, "longitude": "-1.134798"}, "context": "", "outcome_status": null, "persistent_id": "", "id": 125113066, "location_subtype": "", "month": "2024-12"}, {"category": "anti-social-behaviour", "location_type": "Force", "location": {"latitude": "52.632985", "street": {"id": 1737285, "name": "On or near Fosse Road Central"}, "longitude": "-1.152092"}, "context": "", "outcome_status": null, "persistent_id": "", "id": 125112440, "location_subtype": "", "month": "2024-12"}, {"category": "anti-social-behaviour", "location_type": "Force", "location": {"latitude": "52.636041", "street": {"id": 1738351, "name": "On or near East Gates"}, "longitude": "-1.133444"}, "context": "", "outcome_status": null, "persistent_id": "", "id": 125112430, "location_subtype": "", "month": "2024-12"}, {"category": "anti-social-behaviour", "location_type": "Force", "location": {"latitude": "52.635488", "street": {"id": 1738121, "name": "On or near Carts Lane"}, "longitude": "-1.136395"}, "context": "", "outcome_status": null, "persistent_id": "", "id": 125112409, "location_subtype": "", "month": "2024-12"}, {"category": "anti-social-behaviour", "location_type": "Force", "location": {"latitude": "52.630282", "street": {"id": 1738149, "name": "On or near Oxford Street"}, "longitude": "-1.136306"}, "context": "", "outcome_status": null, "persistent_id": "", "id": 125112612, "location_subtype": "", "month": "2024-12"}, {"category": "anti-social-behaviour", "location_type": "Force", "location": {"latitude": "52.635399", "street": {"id": 1738303, "name": "On or near Shopping Area"}, "longitude": "-1.134107"}, "context": "", "outcome_status": null, "persistent_id": "", "id": 125113078, "location_subtype": "", "month": "2024-12"}, {"category": "anti-social-behaviour", "location_type": "Force", "location": {"latitude": "52.627152", "street": {"id": 1737173, "name": "On or near Beaconsfield Road"}, "longitude": "-1.154790"}, "context": "", "outcome_status": null, "persistent_id": "", "id": 125113088, "location_subtype": "", "month": "2024-12"}, {"category": "anti-social-behaviour", "location_type": "Force", "location": {"latitude": "52.626044", "street": {"id": 1739135, "name": "On or near Abingdon Road"}, "longitude": "-1.115086"}, "context": "", "outcome_status": null, "persistent_id": "", "id": 125112738, "location_subtype": "", "month": "2024-12"}, {"category": "anti-social-behaviour", "location_type": "Force", "location": {"latitude": "52.635528", "street": {"id": 1738700, "name": "On or near Theatre/concert Hall"}, "longitude": "-1.127553"}, "context": "", "outcome_status": null, "persistent_id": "", "id": 125113100, "location_subtype": "", "month": "2024-12"}, {"category": "anti-social-behaviour", "location_type": "Force", "location": {"latitude": "52.637031", "street": {"id": 1738550, "name": "On or near Clarence Street"}, "longitude": "-1.129878"}, "context": "", "outcome_status": null, "persistent_id": "", "id": 125112392, "location_subtype": "", "month": "2024-12"}, {"category": "anti-social-behaviour", "location_type": "Force", "location": {"latitude": "52.628586", "street": {"id": 1739123, "name": "On or near Highfield Street"}, "longitude": "-1.118432"}, "context": "", "outcome_status": null, "persistent_id": "", "id": 125112345, "location_subtype": "", "month": "2024-12"}, {"category": "anti-social-behaviour", "location_type": "Force", "location": {"latitude": "52.636723", "street": {"id": 1738235, "name": "On or near New Bond Street"}, "longitude": "-1.134450"}, "context": "", "outcome_status": null, "persistent_id": "", "id": 125112311, "location_subtype": "", "month": "2024-12"}, {"category": "anti-social-behaviour", "location_type": "Force", "location": {"latitude": "52.637627", "street": {"id": 1738668, "name": "On or near Eldon Street"}, "longitude": "-1.127782"}, "context": "", "outcome_status": null, "persistent_id": "", "id": 125112375, "location_subtype": "", "month": "2024-12"}, {"category": "anti-social-behaviour", "location_type": "Force", "location": {"latitude": "52.634996", "street": {"id": 1739182, "name": "On or near Jupiter Close"}, "longitude": "-1.117195"}, "context": "", "outcome_status": null, "persistent_id": "", "id": 125113373, "location_subtype": "", "month": "2024-12"}, {"category": "anti-social-behaviour", "location_type": "Force", "location": {"latitude": "52.631624", "street": {"id": 1738751, "name": "On or near Station Street"}, "longitude": "-1.125641"}, "context": "", "outcome_status": null, "persistent_id": "", "id": 125113152, "location_subtype": "", "month": "2024-12"}, {"category": "anti-social-behaviour", "location_type": "Force", "location": {"latitude": "52.631624", "street": {"id": 1738751, "name": "On or near Station Street"}, "longitude": "-1.125641"}, "context": "", "outcome_status": null, "persistent_id": "", "id": 125113131, "location_subtype": "", "month": "2024-12"}, {"category": "anti-social-behaviour", "location_type": "Force", "location": {"latitude": "52.628812", "street": {"id": 1738879, "name": "On or near De Montfort Place"}, "longitude": "-1.123495"}, "context": "", "outcome_status": null, "persistent_id": "", "id": 125113158, "location_subtype": "", "month": "2024-12"}, {"category": "anti-social-behaviour", "location_type": "Force", "location": {"latitude": "52.634237", "street": {"id": 1738695, "name": "On or near Conference/exhibition Centre"}, "longitude": "-1.127731"}, "context": "", "outcome_status": null, "persistent_id": "", "id": 125113168, "location_subtype": "", "month": "2024-12"}, {"category": "anti-social-behaviour", "location_type": "Force", "location": {"latitude": "52.630731", "street": {"id": 1738643, "name": "On or near Further/higher Educational Building"}, "longitude": "-1.127727"}, "context": "", "outcome_status": null, "persistent_id": "", "id": 125113172, "location_subtype": "", "month": "2024-12"}, {"category": "anti-social-behaviour", "location_type": "Force", "location": {"latitude": "52.626513", "street": {"id": 1738976, "name": "On or near Salisbury Road Backways"}, "longitude": "-1.121414"}, "context": "", "outcome_status": null, "persistent_id": "", "id": 125112309, "location_subtype": "", "month": "2024-12"}, {"category": "anti-social-behaviour", "location_type": "Force", "location": {"latitude": "52.640513", "street": {"id": 1738601, "name": "On or near Gower Street"}, "longitude": "-1.128966"}, "context": "", "outcome_status": null, "persistent_id": "", "id": 125113193, "location_subtype": "", "month": "2024-12"}, {"category": "anti-social-behaviour", "location_type": "Force", "location": {"latitude": "52.621217", "street": {"id": 1737965, "name": "On or near Pavilion Close"}, "longitude": "-1.138404"}, "context": "", "outcome_status": null, "persistent_id": "", "id": 125112300, "location_subtype": "", "month": "2024-12"}, {"category": "anti-social-behaviour", "location_type": "Force", "location": {"latitude": "52.632999", "street": {"id": 1738125, "name": "On or near Friar Lane"}, "longitude": "-1.136548"}, "context": "", "outcome_status": null, "persistent_id": "", "id": 125112290, "location_subtype": "", "month": "2024-12"}, {"category": "anti-social-behaviour", "location_type": "Force", "location": {"latitude": "52.627212", "street": {"id": 1737850, "name": "On or near Rydal Street"}, "longitude": "-1.141877"}, "context": "", "outcome_status": null, "persistent_id": "", "id": 125112641, "location_subtype": "", "month": "2024-12"}, {"category": "anti-social-behaviour", "location_type": "Force", "location": {"latitude": "52.636041", "street": {"id": 1738351, "name": "On or near East Gates"}, "longitude": "-1.133444"}, "context": "", "outcome_status": null, "persistent_id": "", "id": 125113196, "location_subtype": "", "month": "2024-12"}, {"category": "anti-social-behaviour", "location_type": "Force", "location": {"latitude": "52.617753", "street": {"id": 1738259, "name": "On or near Shopping Area"}, "longitude": "-1.134079"}, "context": "", "outcome_status": null, "persistent_id": "", "id": 125113198, "location_subtype": "", "month": "2024-12"}, {"category": "anti-social-behaviour", "location_type": "Force", "location": {"latitude": "52.635401", "street": {"id": 1738659, "name": "On or near Parking Area"}, "longitude": "-1.128314"}, "context": "", "outcome_status": null, "persistent_id": "", "id": 125113223, "location_subtype": "", "month": "2024-12"}, {"category": "anti-social-behaviour", "location_type": "Force", "location": {"latitude": "52.626898", "street": {"id": 1739308, "name": "On or near Onslow Street"}, "longitude": "-1.113960"}, "context": "", "outcome_status": null, "persistent_id": "", "id": 125112097, "location_subtype": "", "month": "2024-12"}, {"category": "anti-social-behaviour", "location_type": "Force", "location": {"latitude": "52.628586", "street": {"id": 1739123, "name": "On or near Highfield Street"}, "longitude": "-1.118432"}, "context": "", "outcome_status": null, "persistent_id": "", "id": 125112287, "location_subtype": "", "month": "2024-12"}, {"category": "anti-social-behaviour", "location_type": "Force", "location": {"latitude": "52.620491", "street": {"id": 1738051, "name": "On or near Sports/recreation Area"}, "longitude": "-1.138014"}, "context": "", "outcome_status": null, "persistent_id": "", "id": 125112280, "location_subtype": "", "month": "2024-12"}, {"category": "anti-social-behaviour", "location_type": "Force", "location": {"latitude": "52.625297", "street": {"id": 1738161, "name": "On or near Hospital"}, "longitude": "-1.135754"}, "context": "", "outcome_status": null, "persistent_id": "", "id": 125112648, "location_subtype": "", "month": "2024-12"}, {"category": "anti-social-behaviour", "location_type": "Force", "location": {"latitude": "52.630803", "street": {"id": 1737674, "name": "On or near Bede Street"}, "longitude": "-1.144983"}, "context": "", "outcome_status": null, "persistent_id": "", "id": 125112274, "location_subtype": "", "month": "2024-12"}, {"category": "anti-social-behaviour", "location_type": "Force", "location": {"latitude": "52.634237", "street": {"id": 1738695, "name": "On or near Conference/exhibition Centre"}, "longitude": "-1.127731"}, "context": "", "outcome_status": null, "persistent_id": "", "id": 125112104, "location_subtype": "", "month": "2024-12"}, {"category": "anti-social-behaviour", "location_type": "Force", "location": {"latitude": "52.625551", "street": {"id": 1737260, "name": "On or near Petrol Station"}, "longitude": "-1.152191"}, "context": "", "outcome_status": null, "persistent_id": "", "id": 125113226, "location_subtype": "", "month": "2024-12"}, {"category": "anti-social-behaviour", "location_type": "Force", "location": {"latitude": "52.633318", "street": {"id": 1738276, "name": "On or near Nightclub"}, "longitude": "-1.134798"}, "context": "", "outcome_status": null, "persistent_id": "", "id": 125112539, "location_subtype": "", "month": "2024-12"}, {"category": "anti-social-behaviour", "location_type": "Force", "location": {"latitude": "52.637791", "street": {"id": 1737446, "name": "On or near Tudor Road"}, "longitude": "-1.147906"}, "context": "", "outcome_status": null, "persistent_id": "", "id": 125112657, "location_subtype": "", "month": "2024-12"}, {"category": "anti-social-behaviour", "location_type": "Force", "location": {"latitude": "52.627782", "street": {"id": 1739094, "name": "On or near Mandora Lane"}, "longitude": "-1.119084"}, "context": "", "outcome_status": null, "persistent_id": "", "id": 125112111, "location_subtype": "", "month": "2024-12"}, {"category": "anti-social-behaviour", "location_type": "Force", "location": {"latitude": "52.637303", "street": {"id": 1738702, "name": "On or near Camden Street"}, "longitude": "-1.127715"}, "context": "", "outcome_status": null, "persistent_id": "", "id": 125113231, "location_subtype": "", "month": "2024-12"}, {"category": "anti-social-behaviour", "location_type": "Force", "location": {"latitude": "52.627963", "street": {"id": 1739154, "name": "On or near Churchill Street"}, "longitude": "-1.116835"}, "context": "", "outcome_status": null, "persistent_id": "", "id": 125113236, "location_subtype": "", "month": "2024-12"}, {"category": "anti-social-behaviour", "location_type": "Force", "location": {"latitude": "52.639465", "street": {"id": 1738865, "name": "On or near Ottawa Road"}, "longitude": "-1.123401"}, "context": "", "outcome_status": null, "persistent_id": "", "id": 125112254, "location_subtype": "", "month": "2024-12"}, {"category": "anti-social-behaviour", "location_type": "Force", "location": {"latitude": "52.635488", "street": {"id": 1738121, "name": "On or near Carts Lane"}, "longitude": "-1.136395"}, "context": "", "outcome_status": null, "persistent_id": "", "id": 125113242, "location_subtype": "", "month": "2024-12"}, {"category": "anti-social-behaviour", "location_type": "Force", "location": {"latitude": "52.636381", "street": {"id": 1739439, "name": "On or near Hartington Road"}, "longitude": "-1.111286"}, "context": "", "outcome_status": null, "persistent_id": "", "id": 125112113, "location_subtype": "", "month": "2024-12"}, {"category": "anti-social-behaviour", "location_type": "Force", "location": {"latitude": "52.636041", "street": {"id": 1738351, "name": "On or near East Gates"}, "longitude": "-1.133444"}, "context": "", "outcome_status": null, "persistent_id": "", "id": 125114058, "location_subtype": "", "month": "2024-12"}, {"category": "anti-social-behaviour", "location_type": "Force", "location": {"latitude": "52.636557", "street": {"id": 1737701, "name": "On or near All Saints Road"}, "longitude": "-1.143748"}, "context": "", "outcome_status": null, "persistent_id": "", "id": 125112253, "location_subtype": "", "month": "2024-12"}, {"category": "anti-social-behaviour", "location_type": "Force", "location": {"latitude": "52.625259", "street": {"id": 1737613, "name": "On or near Supermarket"}, "longitude": "-1.146539"}, "context": "", "outcome_status": null, "persistent_id": "", "id": 125113700, "location_subtype": "", "month": "2024-12"}, {"category": "anti-social-behaviour", "location_type": "Force", "location": {"latitude": "52.630232", "street": {"id": 1739531, "name": "On or near Bonsall Street"}, "longitude": "-1.109002"}, "context": "", "outcome_status": null, "persistent_id": "", "id": 125112726, "location_subtype": "", "month": "2024-12"}, {"category": "anti-social-behaviour", "location_type": "Force", "location": {"latitude": "52.625208", "street": {"id": 1737460, "name": "On or near Bruce Street"}, "longitude": "-1.149509"}, "context": "", "outcome_status": null, "persistent_id": "", "id": 125112241, "location_subtype": "", "month": "2024-12"}, {"category": "anti-social-behaviour", "location_type": "Force", "location": {"latitude": "52.635797", "street": {"id": 1738449, "name": "On or near Fox Lane"}, "longitude": "-1.131926"}, "context": "", "outcome_status": null, "persistent_id": "", "id": 125112238, "location_subtype": "", "month": "2024-12"}, {"category": "anti-social-behaviour", "location_type": "Force", "location": {"latitude": "52.630202", "street": {"id": 1737556, "name": "On or near Ruding Road"}, "longitude": "-1.147639"}, "context": "", "outcome_status": null, "persistent_id": "", "id": 125112121, "location_subtype": "", "month": "2024-12"}, {"category": "anti-social-behaviour", "location_type": "Force", "location": {"latitude": "52.636857", "street": {"id": 1738642, "name": "On or near St James Street"}, "longitude": "-1.128211"}, "context": "", "outcome_status": null, "persistent_id": "", "id": 125112233, "location_subtype": "", "month": "2024-12"}, {"category": "anti-social-behaviour", "location_type": "Force", "location": {"latitude": "52.638358", "street": {"id": 1738578, "name": "On or near Parking Area"}, "longitude": "-1.129437"}, "context": "", "outcome_status": null, "persistent_id": "", "id": 125112222, "location_subtype": "", "month": "2024-12"}, {"category": "anti-social-behaviour", "location_type": "Force", "location": {"latitude": "52.635528", "street": {"id": 1738700, "name": "On or near Theatre/concert Hall"}, "longitude": "-1.127553"}, "context": "", "outcome_status": null, "persistent_id": "", "id": 125112588, "location_subtype": "", "month": "2024-12"}, {"category": "anti-social-behaviour", "location_type": "Force", "location": {"latitude": "52.627433", "street": {"id": 1738022, "name": "On or near Winifred Street"}, "longitude": "-1.137632"}, "context": "", "outcome_status": null, "persistent_id": "", "id": 125112572, "location_subtype": "", "month": "2024-12"}, {"category": "anti-social-behaviour", "location_type": "Force", "location": {"latitude": "52.634136", "street": {"id": 1738239, "name": "On or near Hotel Street"}, "longitude": "-1.134752"}, "context": "", "outcome_status": null, "persistent_id": "", "id": 125113274, "location_subtype": "", "month": "2024-12"}, {"category": "anti-social-behaviour", "location_type": "Force", "location": {"latitude": "52.632931", "street": {"id": 1738486, "name": "On or near Belvoir Street"}, "longitude": "-1.131038"}, "context": "", "outcome_status": null, "persistent_id": "", "id": 125113276, "location_subtype": "", "month": "2024-12"}, {"category": "anti-social-behaviour", "location_type": "Force", "location": {"latitude": "52.635555", "street": {"id": 1738528, "name": "On or near Yeoman Lane"}, "longitude": "-1.129626"}, "context": "", "outcome_status": null, "persistent_id": "", "id": 125113282, "location_subtype": "", "month": "2024-12"}, {"category": "anti-social-behaviour", "location_type": "Force", "location": {"latitude": "52.625259", "street": {"id": 1737613, "name": "On or near Supermarket"}, "longitude": "-1.146539"}, "context": "", "outcome_status": null, "persistent_id": "", "id": 125113305, "location_subtype": "", "month": "2024-12"}, {"category": "anti-social-behaviour", "location_type": "Force", "location": {"latitude": "52.635559", "street": {"id": 1738487, "name": "On or near Shopping Area"}, "longitude": "-1.131414"}, "context": "", "outcome_status": null, "persistent_id": "", "id": 125112561, "location_subtype": "", "month": "2024-12"}, {"category": "anti-social-behaviour", "location_type": "Force", "location": {"latitude": "52.637041", "street": {"id": 1738379, "name": "On or near Parking Area"}, "longitude": "-1.131222"}, "context": "", "outcome_status": null, "persistent_id": "", "id": 125113332, "location_subtype": "", "month": "2024-12"}, {"category": "anti-social-behaviour", "location_type": "Force", "location": {"latitude": "52.637303", "street": {"id": 1738702, "name": "On or near Camden Street"}, "longitude": "-1.127715"}, "context": "", "outcome_status": null, "persistent_id": "", "id": 125112536, "location_subtype": "", "month": "2024-12"}, {"category": "anti-social-behaviour", "location_type": "Force", "location": {"latitude": "52.632387", "street": {"id": 1738274, "name": "On or near Pocklingtons Walk"}, "longitude": "-1.134077"}, "context": "", "outcome_status": null, "persistent_id": "", "id": 125113353, "location_subtype": "", "month": "2024-12"}, {"category": "anti-social-behaviour", "location_type": "Force", "location": {"latitude": "52.631193", "street": {"id": 1738645, "name": "On or near Calais Hill"}, "longitude": "-1.128220"}, "context": "", "outcome_status": null, "persistent_id": "", "id": 125113367, "location_subtype": "", "month": "2024-12"}, {"category": "anti-social-behaviour", "location_type": "Force", "location": {"latitude": "52.635647", "street": {"id": 1738106, "name": "On or near Shires Lane"}, "longitude": "-1.137293"}, "context": "", "outcome_status": null, "persistent_id": "", "id": 125112523, "location_subtype": "", "month": "2024-12"}, {"category": "anti-social-behaviour", "location_type": "Force", "location": {"latitude": "52.627798", "street": {"id": 1737705, "name": "On or near Tarragon Road"}, "longitude": "-1.144613"}, "context": "", "outcome_status": null, "persistent_id": "", "id": 125112123, "location_subtype": "", "month": "2024-12"}, {"category": "anti-social-behaviour", "location_type": "Force", "location": {"latitude": "52.636133", "street": {"id": 1738084, "name": "On or near Shopping Area"}, "longitude": "-1.137402"}, "context": "", "outcome_status": null, "persistent_id": "", "id": 125112518, "location_subtype": "", "month": "2024-12"}, {"category": "anti-social-behaviour", "location_type": "Force", "location": {"latitude": "52.627052", "street": {"id": 1737887, "name": "On or near Ullswater Street"}, "longitude": "-1.140875"}, "context": "", "outcome_status": null, "persistent_id": "", "id": 125113626, "location_subtype": "", "month": "2024-12"}, {"category": "anti-social-behaviour", "location_type": "Force", "location": {"latitude": "52.635401", "street": {"id": 1738659, "name": "On or near Parking Area"}, "longitude": "-1.128314"}, "context": "", "outcome_status": null, "persistent_id": "", "id": 125112544, "location_subtype": "", "month": "2024-12"}, {"category": "anti-social-behaviour", "location_type": "Force", "location": {"latitude": "52.634009", "street": {"id": 1738037, "name": "On or near Peacock Lane"}, "longitude": "-1.138330"}, "context": "", "outcome_status": null, "persistent_id": "", "id": 125112660, "location_subtype": "", "month": "2024-12"}, {"category": "anti-social-behaviour", "location_type": "Force", "location": {"latitude": "52.627818", "street": {"id": 1738220, "name": "On or near Infirmary Close"}, "longitude": "-1.135039"}, "context": "", "outcome_status": null, "persistent_id": "", "id": 125113635, "location_subtype": "", "month": "2024-12"}, {"category": "anti-social-behaviour", "location_type": "Force", "location": {"latitude": "52.640513", "street": {"id": 1738601, "name": "On or near Gower Street"}, "longitude": "-1.128966"}, "context": "", "outcome_status": null, "persistent_id": "", "id": 125113346, "location_subtype": "", "month": "2024-12"}, {"category": "anti-social-behaviour", "location_type": "Force", "location": {"latitude": "52.625551", "street": {"id": 1737260, "name": "On or near Petrol Station"}, "longitude": "-1.152191"}, "context": "", "outcome_status": null, "persistent_id": "", "id": 125112189, "location_subtype": "", "month": "2024-12"}, {"category": "anti-social-behaviour", "location_type": "Force", "location": {"latitude": "52.631302", "street": {"id": 1738955, "name": "On or near Lincoln Street"}, "longitude": "-1.120978"}, "context": "", "outcome_status": null, "persistent_id": "", "id": 125112515, "location_subtype": "", "month": "2024-12"}, {"category": "anti-social-behaviour", "location_type": "Force", "location": {"latitude": "52.634409", "street": {"id": 1738338, "name": "On or near Shopping Area"}, "longitude": "-1.133652"}, "context": "", "outcome_status": null, "persistent_id": "", "id": 125112212, "location_subtype": "", "month": "2024-12"}, {"category": "anti-social-behaviour", "location_type": "Force", "location": {"latitude": "52.625255", "street": {"id": 1739323, "name": "On or near St James Road"}, "longitude": "-1.114156"}, "context": "", "outcome_status": null, "persistent_id": "", "id": 125113615, "location_subtype": "", "month": "2024-12"}, {"category": "anti-social-behaviour", "location_type": "Force", "location": {"latitude": "52.637303", "street": {"id": 1738702, "name": "On or near Camden Street"}, "longitude": "-1.127715"}, "context": "", "outcome_status": null, "persistent_id": "", "id": 125113644, "location_subtype": "", "month": "2024-12"}, {"category": "anti-social-behaviour", "location_type": "Force", "location": {"latitude": "52.630528", "street": {"id": 1738283, "name": "On or near Norton Street"}, "longitude": "-1.134336"}, "context": "", "outcome_status": null, "persistent_id": "", "id": 125112851, "location_subtype": "", "month": "2024-12"}, {"category": "anti-social-behaviour", "location_type": "Force", "location": {"latitude": "52.632052", "street": {"id": 1737636, "name": "On or near Supermarket"}, "longitude": "-1.146096"}, "context": "", "outcome_status": null, "persistent_id": "", "id": 125112510, "location_subtype": "", "month": "2024-12"}, {"category": "anti-social-behaviour", "location_type": "Force", "location": {"latitude": "52.626873", "street": {"id": 1738625, "name": "On or near Lower Hastings Street"}, "longitude": "-1.128779"}, "context": "", "outcome_status": null, "persistent_id": "", "id": 125112862, "location_subtype": "", "month": "2024-12"}, {"category": "anti-social-behaviour", "location_type": "Force", "location": {"latitude": "52.636041", "street": {"id": 1738351, "name": "On or near East Gates"}, "longitude": "-1.133444"}, "context": "", "outcome_status": null, "persistent_id": "", "id": 125114063, "location_subtype": "", "month": "2024-12"}, {"category": "anti-social-behaviour", "location_type": "Force", "location": {"latitude": "52.635012", "street": {"id": 1737337, "name": "On or near Flora Street"}, "longitude": "-1.151417"}, "context": "", "outcome_status": null, "persistent_id": "", "id": 125113657, "location_subtype": "", "month": "2024-12"}, {"category": "anti-social-behaviour", "location_type": "Force", "location": {"latitude": "52.624174", "street": {"id": 1738113, "name": "On or near Filbert Street East"}, "longitude": "-1.137031"}, "context": "", "outcome_status": null, "persistent_id": "", "id": 125113690, "location_subtype": "", "month": "2024-12"}, {"category": "anti-social-behaviour", "location_type": "Force", "location": {"latitude": "52.631193", "street": {"id": 1738645, "name": "On or near Calais Hill"}, "longitude": "-1.128220"}, "context": "", "outcome_status": null, "persistent_id": "", "id": 125113692, "location_subtype": "", "month": "2024-12"}, {"category": "anti-social-behaviour", "location_type": "Force", "location": {"latitude": "52.635486", "street": {"id": 1738632, "name": "On or near Yeoman Street"}, "longitude": "-1.128741"}, "context": "", "outcome_status": null, "persistent_id": "", "id": 125113695, "location_subtype": "", "month": "2024-12"}, {"category": "anti-social-behaviour", "location_type": "Force", "location": {"latitude": "52.636041", "street": {"id": 1738351, "name": "On or near East Gates"}, "longitude": "-1.133444"}, "context": "", "outcome_status": null, "persistent_id": "", "id": 125113534, "location_subtype": "", "month": "2024-12"}, {"category": "anti-social-behaviour", "location_type": "Force", "location": {"latitude": "52.628482", "street": {"id": 1739362, "name": "On or near Sutherland Street"}, "longitude": "-1.112894"}, "context": "", "outcome_status": null, "persistent_id": "", "id": 125113547, "location_subtype": "", "month": "2024-12"}, {"category": "anti-social-behaviour", "location_type": "Force", "location": {"latitude": "52.627903", "street": {"id": 1739501, "name": "On or near Conifer Close"}, "longitude": "-1.110084"}, "context": "", "outcome_status": null, "persistent_id": "", "id": 125113552, "location_subtype": "", "month": "2024-12"}, {"category": "anti-social-behaviour", "location_type": "Force", "location": {"latitude": "52.633053", "street": {"id": 1738548, "name": "On or near Granby Street"}, "longitude": "-1.129306"}, "context": "", "outcome_status": null, "persistent_id": "", "id": 125113705, "location_subtype": "", "month": "2024-12"}, {"category": "anti-social-behaviour", "location_type": "Force", "location": {"latitude": "52.637843", "street": {"id": 1738541, "name": "On or near Shopping Area"}, "longitude": "-1.130275"}, "context": "", "outcome_status": null, "persistent_id": "", "id": 125113708, "location_subtype": "", "month": "2024-12"}, {"category": "anti-social-behaviour", "location_type": "Force", "location": {"latitude": "52.630232", "street": {"id": 1739531, "name": "On or near Bonsall Street"}, "longitude": "-1.109002"}, "context": "", "outcome_status": null, "persistent_id": "", "id": 125113721, "location_subtype": "", "month": "2024-12"}, {"category": "anti-social-behaviour", "location_type": "Force", "location": {"latitude": "52.635078", "street": {"id": 1737968, "name": "On or near St Nicholas Place"}, "longitude": "-1.139462"}, "context": "", "outcome_status": null, "persistent_id": "", "id": 125113772, "location_subtype": "", "month": "2024-12"}, {"category": "anti-social-behaviour", "location_type": "Force", "location": {"latitude": "52.637581", "street": {"id": 1738327, "name": "On or near Parking Area"}, "longitude": "-1.133709"}, "context": "", "outcome_status": null, "persistent_id": "", "id": 125113775, "location_subtype": "", "month": "2024-12"}, {"category": "anti-social-behaviour", "location_type": "Force", "location": {"latitude": "52.628748", "street": {"id": 1737764, "name": "On or near Western Boulevard"}, "longitude": "-1.143043"}, "context": "", "outcome_status": null, "persistent_id": "", "id": 125113779, "location_subtype": "", "month": "2024-12"}, {"category": "anti-social-behaviour", "location_type": "Force", "location": {"latitude": "52.634732", "street": {"id": 1737551, "name": "On or near Tudor Close"}, "longitude": "-1.147448"}, "context": "", "outcome_status": null, "persistent_id": "", "id": 125113782, "location_subtype": "", "month": "2024-12"}, {"category": "anti-social-behaviour", "location_type": "Force", "location": {"latitude": "52.625780", "street": {"id": 1739073, "name": "On or near Parking Area"}, "longitude": "-1.119567"}, "context": "", "outcome_status": null, "persistent_id": "", "id": 125113793, "location_subtype": "", "month": "2024-12"}, {"category": "anti-social-behaviour", "location_type": "Force", "location": {"latitude": "52.636723", "street": {"id": 1738235, "name": "On or near New Bond Street"}, "longitude": "-1.134450"}, "context": "", "outcome_status": null, "persistent_id": "", "id": 125113805, "location_subtype": "", "month": "2024-12"}, {"category": "anti-social-behaviour", "location_type": "Force", "location": {"latitude": "52.634237", "street": {"id": 1738695, "name": "On or near Conference/exhibition Centre"}, "longitude": "-1.127731"}, "context": "", "outcome_status": null, "persistent_id": "", "id": 125112663, "location_subtype": "", "month": "2024-12"}, {"category": "anti-social-behaviour", "location_type": "Force", "location": {"latitude": "52.627798", "street": {"id": 1737705, "name": "On or near Tarragon Road"}, "longitude": "-1.144613"}, "context": "", "outcome_status": null, "persistent_id": "", "id": 125114101, "location_subtype": "", "month": "2024-12"}, {"category": "anti-social-behaviour", "location_type": "Force", "location": {"latitude": "52.627212", "street": {"id": 1737850, "name": "On or near Rydal Street"}, "longitude": "-1.141877"}, "context": "", "outcome_status": null, "persistent_id": "", "id": 125114104, "location_subtype": "", "month": "2024-12"}, {"category": "anti-social-behaviour", "location_type": "Force", "location": {"latitude": "52.627308", "street": {"id": 1737263, "name": "On or near Browning Street"}, "longitude": "-1.152778"}, "context": "", "outcome_status": null, "persistent_id": "", "id": 125113859, "location_subtype": "", "month": "2024-12"}, {"category": "anti-social-behaviour", "location_type": "Force", "location": {"latitude": "52.631814", "street": {"id": 1738711, "name": "On or near Theatre/concert Hall"}, "longitude": "-1.126996"}, "context": "", "outcome_status": null, "persistent_id": "", "id": 125113884, "location_subtype": "", "month": "2024-12"}, {"category": "anti-social-behaviour", "location_type": "Force", "location": {"latitude": "52.641230", "street": {"id": 1738983, "name": "On or near Chester Close"}, "longitude": "-1.121415"}, "context": "", "outcome_status": null, "persistent_id": "", "id": 125113890, "location_subtype": "", "month": "2024-12"}, {"category": "anti-social-behaviour", "location_type": "Force", "location": {"latitude": "52.632052", "street": {"id": 1737636, "name": "On or near Supermarket"}, "longitude": "-1.146096"}, "context": "", "outcome_status": null, "persistent_id": "", "id": 125113926, "location_subtype": "", "month": "2024-12"}, {"category": "anti-social-behaviour", "location_type": "Force", "location": {"latitude": "52.627455", "street": {"id": 1739118, "name": "On or near Mill Hill Lane"}, "longitude": "-1.118736"}, "context": "", "outcome_status": null, "persistent_id": "", "id": 125113932, "location_subtype": "", "month": "2024-12"}, {"category": "anti-social-behaviour", "location_type": "Force", "location": {"latitude": "52.636041", "street": {"id": 1738351, "name": "On or near East Gates"}, "longitude": "-1.133444"}, "context": "", "outcome_status": null, "persistent_id": "", "id": 125113934, "location_subtype": "", "month": "2024-12"}, {"category": "anti-social-behaviour", "location_type": "Force", "location": {"latitude": "52.631591", "street": {"id": 1737544, "name": "On or near West Holme Street"}, "longitude": "-1.148277"}, "context": "", "outcome_status": null, "persistent_id": "", "id": 125113940, "location_subtype": "", "month": "2024-12"}, {"category": "anti-social-behaviour", "location_type": "Force", "location": {"latitude": "52.633983", "street": {"id": 1738850, "name": "On or near St Georges Way"}, "longitude": "-1.123762"}, "context": "", "outcome_status": null, "persistent_id": "", "id": 125113959, "location_subtype": "", "month": "2024-12"}, {"category": "anti-social-behaviour", "location_type": "Force", "location": {"latitude": "52.640579", "street": {"id": 1738507, "name": "On or near Wood Street"}, "longitude": "-1.130635"}, "context": "", "outcome_status": null, "persistent_id": "", "id": 125113975, "location_subtype": "", "month": "2024-12"}, {"category": "anti-social-behaviour", "location_type": "Force", "location": {"latitude": "52.636041", "street": {"id": 1738351, "name": "On or near East Gates"}, "longitude": "-1.133444"}, "context": "", "outcome_status": null, "persistent_id": "", "id": 125112609, "location_subtype": "", "month": "2024-12"}, {"category": "anti-social-behaviour", "location_type": "Force", "location": {"latitude": "52.636041", "street": {"id": 1738351, "name": "On or near East Gates"}, "longitude": "-1.133444"}, "context": "", "outcome_status": null, "persistent_id": "", "id": 125113985, "location_subtype": "", "month": "2024-12"}, {"category": "anti-social-behaviour", "location_type": "Force", "location": {"latitude": "52.636041", "street": {"id": 1738351, "name": "On or near East Gates"}, "longitude": "-1.133444"}, "context": "", "outcome_status": null, "persistent_id": "", "id": 125113994, "location_subtype": "", "month": "2024-12"}, {"category": "anti-social-behaviour", "location_type": "Force", "location": {"latitude": "52.632052", "street": {"id": 1737636, "name": "On or near Supermarket"}, "longitude": "-1.146096"}, "context": "", "outcome_status": null, "persistent_id": "", "id": 125114030, "location_subtype": "", "month": "2024-12"}, {"category": "anti-social-behaviour", "location_type": "Force", "location": {"latitude": "52.642180", "street": {"id": 1739083, "name": "On or near Kashmir Road"}, "longitude": "-1.119859"}, "context": "", "outcome_status": null, "persistent_id": "", "id": 125114037, "location_subtype": "", "month": "2024-12"}, {"category": "anti-social-behaviour", "location_type": "Force", "location": {"latitude": "52.632778", "street": {"id": 1737719, "name": "On or near Westbridge Close"}, "longitude": "-1.143349"}, "context": "", "outcome_status": null, "persistent_id": "", "id": 125113754, "location_subtype": "", "month": "2024-12"}, {"category": "anti-social-behaviour", "location_type": "Force", "location": {"latitude": "52.621609", "street": {"id": 1739370, "name": "On or near Cedars Court"}, "longitude": "-1.113476"}, "context": "", "outcome_status": null, "persistent_id": "", "id": 125114040, "location_subtype": "", "month": "2024-12"}, {"category": "anti-social-behaviour", "location_type": "Force", "location": {"latitude": "52.636723", "street": {"id": 1737812, "name": "On or near Friars Causeway"}, "longitude": "-1.140686"}, "context": "", "outcome_status": null, "persistent_id": "", "id": 125113004, "location_subtype": "", "month": "2024-12"}, {"category": "anti-social-behaviour", "location_type": "Force", "location": {"latitude": "52.634237", "street": {"id": 1738695, "name": "On or near Conference/exhibition Centre"}, "longitude": "-1.127731"}, "context": "", "outcome_status": null, "persistent_id": "", "id": 125112670, "location_subtype": "", "month": "2024-12"}, {"category": "anti-social-behaviour", "location_type": "Force", "location": {"latitude": "52.635401", "street": {"id": 1738659, "name": "On or near Parking Area"}, "longitude": "-1.128314"}, "context": "", "outcome_status": null, "persistent_id": "", "id": 125113007, "location_subtype": "", "month": "2024-12"}, {"category": "anti-social-behaviour", "location_type": "Force", "location": {"latitude": "52.636041", "street": {"id": 1738351, "name": "On or near East Gates"}, "longitude": "-1.133444"}, "context": "", "outcome_status": null, "persistent_id": "", "id": 125113826, "location_subtype": "", "month": "2024-12"}, {"category": "anti-social-behaviour", "location_type": "Force", "location": {"latitude": "52.634991", "street": {"id": 1738162, "name": "On or near Loseby Lane"}, "longitude": "-1.136050"}, "context": "", "outcome_status": null, "persistent_id": "", "id": 125113505, "location_subtype": "", "month": "2024-12"}, {"category": "anti-social-behaviour", "location_type": "Force", "location": {"latitude": "52.633898", "street": {"id": 1738191, "name": "On or near Grey Friars"}, "longitude": "-1.135392"}, "context": "", "outcome_status": null, "persistent_id": "", "id": 125113503, "location_subtype": "", "month": "2024-12"}, {"category": "anti-social-behaviour", "location_type": "Force", "location": {"latitude": "52.631814", "street": {"id": 1738711, "name": "On or near Theatre/concert Hall"}, "longitude": "-1.126996"}, "context": "", "outcome_status": null, "persistent_id": "", "id": 125113495, "location_subtype": "", "month": "2024-12"}, {"category": "anti-social-behaviour", "location_type": "Force", "location": {"latitude": "52.639558", "street": {"id": 1738364, "name": "On or near Nightclub"}, "longitude": "-1.132473"}, "context": "", "outcome_status": null, "persistent_id": "", "id": 125113479, "location_subtype": "", "month": "2024-12"}, {"category": "anti-social-behaviour", "location_type": "Force", "location": {"latitude": "52.634252", "street": {"id": 1738481, "name": "On or near Granby Place"}, "longitude": "-1.130997"}, "context": "", "outcome_status": null, "persistent_id": "", "id": 125113428, "location_subtype": "", "month": "2024-12"}, {"category": "bicycle-theft", "location_type": "Force", "location": {"latitude": "52.625208", "street": {"id": 1737460, "name": "On or near Bruce Street"}, "longitude": "-1.149509"}, "context": "", "outcome_status": {"category": "Investigation complete; no suspect identified", "date": "2024-12"}, "persistent_id": "d48343912217161f9293b307fa1ab6385fe766bd8035b8b352b5553d156b4584", "id": 125107102, "location_subtype": "", "month": "2024-12"}, {"category": "bicycle-theft", "location_type": "Force", "location": {"latitude": "52.633053", "street": {"id": 1738548, "name": "On or near Granby Street"}, "longitude": "-1.129306"}, "context": "", "outcome_status": {"category": "Unable to prosecute suspect", "date": "2025-01"}, "persistent_id": "09870eb522cd1f9242781efba8e7eb53e99a1a8b625acd37b2481921605ee16b", "id": 125106194, "location_subtype": "", "month": "2024-12"}, {"category": "bicycle-theft", "location_type": "Force", "location": {"latitude": "52.624479", "street": {"id": 1737381, "name": "On or near Stuart Street"}, "longitude": "-1.150676"}, "context": "", "outcome_status": {"category": "Investigation complete; no suspect identified", "date": "2024-12"}, "persistent_id": "ec3dfc2d97b1156eea8a61ddb80eb94a937422a022620258990bc945355128d5", "id": 125103317, "location_subtype": "", "month": "2024-12"}, {"category": "bicycle-theft", "location_type": "Force", "location": {"latitude": "52.632746", "street": {"id": 1738674, "name": "On or near Northampton Street"}, "longitude": "-1.127791"}, "context": "", "outcome_status": {"category": "Investigation complete; no suspect identified", "date": "2024-12"}, "persistent_id": "de426d834672345ba6d0d4b1694abffdb37c5080a99fa3b171a68ac57c6f2f01", "id": 125104748, "location_subtype": "", "month": "2024-12"}, {"category": "bicycle-theft", "location_type": "Force", "location": {"latitude": "52.627308", "street": {"id": 1737263, "name": "On or near Browning Street"}, "longitude": "-1.152778"}, "context": "", "outcome_status": {"category": "Investigation complete; no suspect identified", "date": "2024-12"}, "persistent_id": "b0fb99238bcfd34f0e3947ede8fbea3dddf2d30ed46271f698577aba61cdd979", "id": 125103806, "location_subtype": "", "month": "2024-12"}, {"category": "bicycle-theft", "location_type": "Force", "location": {"latitude": "52.634849", "street": {"id": 1738676, "name": "On or near Rutland Street"}, "longitude": "-1.127749"}, "context": "", "outcome_status": {"category": "Investigation complete; no suspect identified", "date": "2024-12"}, "persistent_id": "f1758b01c6e90efec29fcdca1ba5ba18e42407443f797abe339025f9c08840af", "id": 125105326, "location_subtype": "", "month": "2024-12"}, {"category": "bicycle-theft", "location_type": "Force", "location": {"latitude": "52.632534", "street": {"id": 1738358, "name": "On or near Market Street"}, "longitude": "-1.133232"}, "context": "", "outcome_status": {"category": "Unable to prosecute suspect", "date": "2025-01"}, "persistent_id": "6a58a7d813b173ba047f5c9a9fff8b6d875037d5f9d5982b7a891f0395f4c3c7", "id": 125106150, "location_subtype": "", "month": "2024-12"}, {"category": "bicycle-theft", "location_type": "Force", "location": {"latitude": "52.636060", "street": {"id": 1738987, "name": "On or near Supermarket"}, "longitude": "-1.120153"}, "context": "", "outcome_status": {"category": "Investigation complete; no suspect identified", "date": "2024-12"}, "persistent_id": "2d59855064982a7c1b539be0ab185dda454c1aae9cfaf8a7b155f20bc21b8470", "id": 125109870, "location_subtype": "", "month": "2024-12"}, {"category": "bicycle-theft", "location_type": "Force", "location": {"latitude": "52.628024", "street": {"id": 1739020, "name": "On or near Victoria Avenue"}, "longitude": "-1.120202"}, "context": "", "outcome_status": {"category": "Investigation complete; no suspect identified", "date": "2024-12"}, "persistent_id": "b65f27280ebe7493a11d39f3e0822323c0a4a241f6b206662fc35459ee100cb3", "id": 125103372, "location_subtype": "", "month": "2024-12"}, {"category": "bicycle-theft", "location_type": "Force", "location": {"latitude": "52.634252", "street": {"id": 1738481, "name": "On or near Granby Place"}, "longitude": "-1.130997"}, "context": "", "outcome_status": {"category": "Investigation complete; no suspect identified", "date": "2025-01"}, "persistent_id": "05045fa33cb2f13a46723dc4c16e2772d0db6ed184340c47aabcd217d1c06b08", "id": 125102284, "location_subtype": "", "month": "2024-12"}, {"category": "burglary", "location_type": "Force", "location": {"latitude": "52.625820", "street": {"id": 1737867, "name": "On or near Windermere Street"}, "longitude": "-1.140899"}, "context": "", "outcome_status": {"category": "Investigation complete; no suspect identified", "date": "2025-01"}, "persistent_id": "b745c6789a2cf611f1c2a8f00c881f27a346674a361120922695a8095bbe649d", "id": 125110245, "location_subtype": "", "month": "2024-12"}, {"category": "burglary", "location_type": "Force", "location": {"latitude": "52.632581", "street": {"id": 1739174, "name": "On or near Apollo Close"}, "longitude": "-1.117761"}, "context": "", "outcome_status": {"category": "Unable to prosecute suspect", "date": "2024-12"}, "persistent_id": "cd4a9b1191cdbf0217666e93def4d03216470549ecbd6f33de5e45d806b844eb", "id": 125104115, "location_subtype": "", "month": "2024-12"}, {"category": "burglary", "location_type": "Force", "location": {"latitude": "52.634477", "street": {"id": 1738414, "name": "On or near Market Place Approach"}, "longitude": "-1.132159"}, "context": "", "outcome_status": {"category": "Investigation complete; no suspect identified", "date": "2024-12"}, "persistent_id": "a3235ded4ba2e8201f85b0715382b59c9203f2a5da7fec14912e8182dc0e7c2c", "id": 125112004, "location_subtype": "", "month": "2024-12"}, {"category": "burglary", "location_type": "Force", "location": {"latitude": "52.633880", "street": {"id": 1739287, "name": "On or near Mensa Close"}, "longitude": "-1.114617"}, "context": "", "outcome_status": {"category": "Investigation complete; no suspect identified", "date": "2024-12"}, "persistent_id": "3030c8dab3d9395a33a5562d24ed54410f6db120fcd50232fe63f3fa9d627846", "id": 125104006, "location_subtype": "", "month": "2024-12"}, {"category": "burglary", "location_type": "Force", "location": {"latitude": "52.627152", "street": {"id": 1737173, "name": "On or near Beaconsfield Road"}, "longitude": "-1.154790"}, "context": "", "outcome_status": {"category": "Investigation complete; no suspect identified", "date": "2024-12"}, "persistent_id": "88dab70d8e226e4ef1b6c808e75000243670bffb015e6f8d86fea9455d43173b", "id": 125103779, "location_subtype": "", "month": "2024-12"}, {"category": "burglary", "location_type": "Force", "location": {"latitude": "52.626936", "street": {"id": 1737916, "name": "On or near Grasmere Street"}, "longitude": "-1.139814"}, "context": "", "outcome_status": {"category": "Investigation complete; no suspect identified", "date": "2024-12"}, "persistent_id": "43463a88da094901e4d1cef24c42aa5b814e90cb09fee1732f11a1c9943dae46", "id": 125104361, "location_subtype": "", "month": "2024-12"}, {"category": "burglary", "location_type": "Force", "location": {"latitude": "52.627455", "street": {"id": 1739118, "name": "On or near Mill Hill Lane"}, "longitude": "-1.118736"}, "context": "", "outcome_status": {"category": "Investigation complete; no suspect identified", "date": "2024-12"}, "persistent_id": "5e3780363a9b7c171bfbb659584ae908a504fc55ff895501071d512f0f46f265", "id": 125104049, "location_subtype": "", "month": "2024-12"}, {"category": "burglary", "location_type": "Force", "location": {"latitude": "52.626768", "street": {"id": 1738882, "name": "On or near Further/higher Educational Building"}, "longitude": "-1.123078"}, "context": "", "outcome_status": {"category": "Under investigation", "date": "2024-12"}, "persistent_id": "a1831c38fe198192a18a258607806f36c349e8b6ef6db825482efe2e389ebf73", "id": 125106741, "location_subtype": "", "month": "2024-12"}, {"category": "burglary", "location_type": "Force", "location": {"latitude": "52.640498", "street": {"id": 1737983, "name": "On or near St Margaret's Street"}, "longitude": "-1.136799"}, "context": "", "outcome_status": {"category": "Investigation complete; no suspect identified", "date": "2024-12"}, "persistent_id": "64e0c877e0b22ccbb00d01216be680437cf4383b799b4fe97ea73d7dd79d72b4", "id": 125104871, "location_subtype": "", "month": "2024-12"}, {"category": "burglary", "location_type": "Force", "location": {"latitude": "52.628111", "street": {"id": 1737188, "name": "On or near Barclay Street"}, "longitude": "-1.154417"}, "context": "", "outcome_status": {"category": "Under investigation", "date": "2024-12"}, "persistent_id": "4dfd61d536e6e3bcae99c9162e24cdf709af5e58586f3b7108f7b54a3f26c52f", "id": 125104994, "location_subtype": "", "month": "2024-12"}, {"category": "burglary", "location_type": "Force", "location": {"latitude": "52.626202", "street": {"id": 1737411, "name": "On or near Equity Road"}, "longitude": "-1.148988"}, "context": "", "outcome_status": {"category": "Investigation complete; no suspect identified", "date": "2025-01"}, "persistent_id": "d2d1c3b03779b357ea5325e03f9eba98c39b5dd60affc637f3227accf0c508d4", "id": 125111893, "location_subtype": "", "month": "2024-12"}, {"category": "burglary", "location_type": "Force", "location": {"latitude": "52.622852", "street": {"id": 1737331, "name": "On or near Bisley Street"}, "longitude": "-1.150707"}, "context": "", "outcome_status": {"category": "Investigation complete; no suspect identified", "date": "2025-01"}, "persistent_id": "9dd37e5c00918a71968957b36a839406a7bd502294b5ff086aec454322df2151", "id": 125110820, "location_subtype": "", "month": "2024-12"}, {"category": "burglary", "location_type": "Force", "location": {"latitude": "52.634237", "street": {"id": 1738695, "name": "On or near Conference/exhibition Centre"}, "longitude": "-1.127731"}, "context": "", "outcome_status": {"category": "Investigation complete; no suspect identified", "date": "2024-12"}, "persistent_id": "8f2662cb0b362d5ae36ab0323424964975634c46317b6fbb9b790eced97c973b", "id": 125101755, "location_subtype": "", "month": "2024-12"}, {"category": "burglary", "location_type": "Force", "location": {"latitude": "52.627052", "street": {"id": 1737887, "name": "On or near Ullswater Street"}, "longitude": "-1.140875"}, "context": "", "outcome_status": {"category": "Unable to prosecute suspect", "date": "2025-01"}, "persistent_id": "f9084fbc5b670b72388b50bff10873001d0af351b3b9bbc3b46928aee1dff6d1", "id": 125106655, "location_subtype": "", "month": "2024-12"}, {"category": "burglary", "location_type": "Force", "location": {"latitude": "52.631419", "street": {"id": 1737670, "name": "On or near Foxon Street"}, "longitude": "-1.145562"}, "context": "", "outcome_status": {"category": "Investigation complete; no suspect identified", "date": "2024-12"}, "persistent_id": "a4e2dd7100caf8224b822af0d443eabac209dd2956180e1c0a1103c120fc3387", "id": 125101468, "location_subtype": "", "month": "2024-12"}, {"category": "burglary", "location_type": "Force", "location": {"latitude": "52.626936", "street": {"id": 1737916, "name": "On or near Grasmere Street"}, "longitude": "-1.139814"}, "context": "", "outcome_status": {"category": "Investigation complete; no suspect identified", "date": "2024-12"}, "persistent_id": "525369de6c01e0085a8ef92bc9b15ad8f7b99525e497c6a30f8376555e23c61f", "id": 125106538, "location_subtype": "", "month": "2024-12"}, {"category": "burglary", "location_type": "Force", "location": {"latitude": "52.627308", "street": {"id": 1737263, "name": "On or near Browning Street"}, "longitude": "-1.152778"}, "context": "", "outcome_status": {"category": "Investigation complete; no suspect identified", "date": "2024-12"}, "persistent_id": "356141c33a69b10ada8e7e7f8cad672a5881474d7980e45b0bc5c0c7a5e4b6ec", "id": 125101532, "location_subtype": "", "month": "2024-12"}, {"category": "burglary", "location_type": "Force", "location": {"latitude": "52.625559", "street": {"id": 1737478, "name": "On or near Sheffield Street"}, "longitude": "-1.148380"}, "context": "", "outcome_status": {"category": "Investigation complete; no suspect identified", "date": "2025-01"}, "persistent_id": "4ca28835cf820da7fc323c31639a5b600ecaf520e86035c3accc05c36b6fb915", "id": 125101603, "location_subtype": "", "month": "2024-12"}, {"category": "burglary", "location_type": "Force", "location": {"latitude": "52.627308", "street": {"id": 1737263, "name": "On or near Browning Street"}, "longitude": "-1.152778"}, "context": "", "outcome_status": {"category": "Investigation complete; no suspect identified", "date": "2024-12"}, "persistent_id": "f0d7ca15bde0853d83fdf91563f7b6181b7fb3808b0e1f38d3ae847b2e6756e6", "id": 125101814, "location_subtype": "", "month": "2024-12"}, {"category": "burglary", "location_type": "Force", "location": {"latitude": "52.637257", "street": {"id": 1737923, "name": "On or near Highcross Street"}, "longitude": "-1.139936"}, "context": "", "outcome_status": {"category": "Investigation complete; no suspect identified", "date": "2025-01"}, "persistent_id": "18cc532775faf72463976dce07e5e74d72457fa88b72d96902299118d3b679a3", "id": 125105328, "location_subtype": "", "month": "2024-12"}, {"category": "burglary", "location_type": "Force", "location": {"latitude": "52.628024", "street": {"id": 1739020, "name": "On or near Victoria Avenue"}, "longitude": "-1.120202"}, "context": "", "outcome_status": {"category": "Under investigation", "date": "2024-12"}, "persistent_id": "615bd784275d92c9b061615b495e44dc13a8bf1a5eedb7acd16e6669dbabd714", "id": 125101937, "location_subtype": "", "month": "2024-12"}, {"category": "burglary", "location_type": "Force", "location": {"latitude": "52.625820", "street": {"id": 1737867, "name": "On or near Windermere Street"}, "longitude": "-1.140899"}, "context": "", "outcome_status": {"category": "Investigation complete; no suspect identified", "date": "2025-01"}, "persistent_id": "f03cacb12252d2fdc5d30a0cc195997fbb0da31bd0f1b4f7f17b78a39609f929", "id": 125104586, "location_subtype": "", "month": "2024-12"}, {"category": "burglary", "location_type": "Force", "location": {"latitude": "52.628920", "street": {"id": 1739204, "name": "On or near Welland Street"}, "longitude": "-1.116165"}, "context": "", "outcome_status": {"category": "Unable to prosecute suspect", "date": "2025-01"}, "persistent_id": "64eb25587c05e6eec4bd7fc5ef653f88e650b2cc61270d8c6393132b6bfc0045", "id": 125106269, "location_subtype": "", "month": "2024-12"}, {"category": "burglary", "location_type": "Force", "location": {"latitude": "52.626486", "street": {"id": 1738010, "name": "On or near Clarendon Street"}, "longitude": "-1.138478"}, "context": "", "outcome_status": {"category": "Investigation complete; no suspect identified", "date": "2025-01"}, "persistent_id": "46e880fd741edd71e0d417876ab3f07ba36334d2acf818c9195ade620c1f9d66", "id": 125109416, "location_subtype": "", "month": "2024-12"}, {"category": "burglary", "location_type": "Force", "location": {"latitude": "52.626486", "street": {"id": 1738010, "name": "On or near Clarendon Street"}, "longitude": "-1.138478"}, "context": "", "outcome_status": {"category": "Under investigation", "date": "2024-12"}, "persistent_id": "4343b468cfa4dbfc927e4171bcf082bcc1124bba3c809e291783c66816bce7da", "id": 125105802, "location_subtype": "", "month": "2024-12"}, {"category": "burglary", "location_type": "Force", "location": {"latitude": "52.627052", "street": {"id": 1737887, "name": "On or near Ullswater Street"}, "longitude": "-1.140875"}, "context": "", "outcome_status": {"category": "Investigation complete; no suspect identified", "date": "2024-12"}, "persistent_id": "b5a8ce9eee923e4e06d968ea53845d15af81390c899213e1c8ab914addf8c2f3", "id": 125109348, "location_subtype": "", "month": "2024-12"}, {"category": "burglary", "location_type": "Force", "location": {"latitude": "52.629217", "street": {"id": 1737192, "name": "On or near Westcotes Drive"}, "longitude": "-1.154484"}, "context": "", "outcome_status": {"category": "Investigation complete; no suspect identified", "date": "2024-12"}, "persistent_id": "cff63fb24c54c3be89ea1f3c1b7a58fd73ab43e79fdb104f427cad6165fa6bb0", "id": 125105723, "location_subtype": "", "month": "2024-12"}, {"category": "burglary", "location_type": "Force", "location": {"latitude": "52.625469", "street": {"id": 1739341, "name": "On or near Chaucer Street"}, "longitude": "-1.112807"}, "context": "", "outcome_status": {"category": "Investigation complete; no suspect identified", "date": "2024-12"}, "persistent_id": "4a959cfefdfa76e62073056b7fa2e4de584f14fd4613e95e4c827b95cddad503", "id": 125106015, "location_subtype": "", "month": "2024-12"}, {"category": "burglary", "location_type": "Force", "location": {"latitude": "52.631777", "street": {"id": 1737346, "name": "On or near Catesby Street"}, "longitude": "-1.150416"}, "context": "", "outcome_status": {"category": "Investigation complete; no suspect identified", "date": "2025-01"}, "persistent_id": "c9c1360807fb03bf55a6a8a4287da82454f2f0d63098da6fc304479964811b4a", "id": 125105024, "location_subtype": "", "month": "2024-12"}, {"category": "burglary", "location_type": "Force", "location": {"latitude": "52.642180", "street": {"id": 1739083, "name": "On or near Kashmir Road"}, "longitude": "-1.119859"}, "context": "", "outcome_status": {"category": "Unable to prosecute suspect", "date": "2025-01"}, "persistent_id": "3a1ff971e26da65574c0bd155e4bdf12470a1d59a7971df8a6494b8f2aeabbd8", "id": 125105593, "location_subtype": "", "month": "2024-12"}, {"category": "burglary", "location_type": "Force", "location": {"latitude": "52.639629", "street": {"id": 1738544, "name": "On or near Jubilee Road"}, "longitude": "-1.129856"}, "context": "", "outcome_status": {"category": "Investigation complete; no suspect identified", "date": "2025-01"}, "persistent_id": "7da0b17a88a1fa6a0f0e8888dcdafc8ea86d2b3c6bef72251eeb03347d78f57a", "id": 125106103, "location_subtype": "", "month": "2024-12"}, {"category": "burglary", "location_type": "Force", "location": {"latitude": "52.628024", "street": {"id": 1739020, "name": "On or near Victoria Avenue"}, "longitude": "-1.120202"}, "context": "", "outcome_status": {"category": "Under investigation", "date": "2024-12"}, "persistent_id": "8f910d1f31a2bb542ad2f9627c7a20c822ae74c41c66082d079b35c3e8f2e0ea", "id": 125108438, "location_subtype": "", "month": "2024-12"}, {"category": "burglary", "location_type": "Force", "location": {"latitude": "52.632987", "street": {"id": 1738694, "name": "On or near Northampton Square"}, "longitude": "-1.127549"}, "context": "", "outcome_status": {"category": "Investigation complete; no suspect identified", "date": "2025-01"}, "persistent_id": "6502bf36d10510eacd28eec730a732e2a8a8875dd836c57e7c2c603ca282fba1", "id": 125105019, "location_subtype": "", "month": "2024-12"}, {"category": "burglary", "location_type": "Force", "location": {"latitude": "52.639558", "street": {"id": 1738364, "name": "On or near Nightclub"}, "longitude": "-1.132473"}, "context": "", "outcome_status": {"category": "Unable to prosecute suspect", "date": "2025-01"}, "persistent_id": "8aac741113da3db3794b11735686aa363dfd8cafd95451df88d67e632a315aba", "id": 125105245, "location_subtype": "", "month": "2024-12"}, {"category": "burglary", "location_type": "Force", "location": {"latitude": "52.632746", "street": {"id": 1738674, "name": "On or near Northampton Street"}, "longitude": "-1.127791"}, "context": "", "outcome_status": {"category": "Investigation complete; no suspect identified", "date": "2024-12"}, "persistent_id": "bfcdc61888cfa4512fa5322098180b031f367b460ce2782f4f3c2850ccdae343", "id": 125108231, "location_subtype": "", "month": "2024-12"}, {"category": "burglary", "location_type": "Force", "location": {"latitude": "52.627137", "street": {"id": 1739115, "name": "On or near St Albans Road"}, "longitude": "-1.117058"}, "context": "", "outcome_status": {"category": "Investigation complete; no suspect identified", "date": "2025-01"}, "persistent_id": "6c919b54443f87e0b5777158360d004a6f59c803167d45591cd4edb3c77a48f4", "id": 125106111, "location_subtype": "", "month": "2024-12"}, {"category": "burglary", "location_type": "Force", "location": {"latitude": "52.639155", "street": {"id": 1738074, "name": "On or near Junior Street"}, "longitude": "-1.137609"}, "context": "", "outcome_status": {"category": "Investigation complete; no suspect identified", "date": "2025-01"}, "persistent_id": "01048b1456bc16f3a121e2531c35a5a30483fbcc0dfcc3d202c161283b679de6", "id": 125109484, "location_subtype": "", "month": "2024-12"}, {"category": "burglary", "location_type": "Force", "location": {"latitude": "52.628024", "street": {"id": 1739020, "name": "On or near Victoria Avenue"}, "longitude": "-1.120202"}, "context": "", "outcome_status": {"category": "Investigation complete; no suspect identified", "date": "2024-12"}, "persistent_id": "4b3a2cd351e6a726bf08b4ae3347be406d71038bfa43b32eb4907c0b27cfed31", "id": 125102701, "location_subtype": "", "month": "2024-12"}, {"category": "burglary", "location_type": "Force", "location": {"latitude": "52.625820", "street": {"id": 1737867, "name": "On or near Windermere Street"}, "longitude": "-1.140899"}, "context": "", "outcome_status": {"category": "Investigation complete; no suspect identified", "date": "2024-12"}, "persistent_id": "c2320cb01e3115ca659d31f933e481a0e12f8f4cd74915043ef59e0d804da9c0", "id": 125103653, "location_subtype": "", "month": "2024-12"}, {"category": "burglary", "location_type": "Force", "location": {"latitude": "52.623456", "street": {"id": 1737332, "name": "On or near Eastleigh Road"}, "longitude": "-1.150932"}, "context": "", "outcome_status": {"category": "Investigation complete; no suspect identified", "date": "2025-01"}, "persistent_id": "0c8618b1274d19d2a476b42acef4476031e28a886d7bcf4bac994a36abb72493", "id": 125110983, "location_subtype": "", "month": "2024-12"}, {"category": "burglary", "location_type": "Force", "location": {"latitude": "52.629982", "street": {"id": 1738203, "name": "On or near Lower Brown Street"}, "longitude": "-1.134642"}, "context": "", "outcome_status": {"category": "Unable to prosecute suspect", "date": "2025-01"}, "persistent_id": "929280279b8287ec6305274fdbdf8e27819d27b392855313678cf3ee31a7d61a", "id": 125103885, "location_subtype": "", "month": "2024-12"}, {"category": "burglary", "location_type": "Force", "location": {"latitude": "52.632581", "street": {"id": 1739174, "name": "On or near Apollo Close"}, "longitude": "-1.117761"}, "context": "", "outcome_status": {"category": "Formal action is not in the public interest", "date": "2024-12"}, "persistent_id": "f7ebeddddadbcc7a3c8fac39e123dcc6b9ca1e5f873d11f4d4e8cff136958d03", "id": 125105899, "location_subtype": "", "month": "2024-12"}, {"category": "burglary", "location_type": "Force", "location": {"latitude": "52.640579", "street": {"id": 1738507, "name": "On or near Wood Street"}, "longitude": "-1.130635"}, "context": "", "outcome_status": {"category": "Investigation complete; no suspect identified", "date": "2025-01"}, "persistent_id": "ec61d5deb160ff859e7ccc698f7551c8b7b2b3860c27af834b21545f72a11678", "id": 125107297, "location_subtype": "", "month": "2024-12"}, {"category": "burglary", "location_type": "Force", "location": {"latitude": "52.639558", "street": {"id": 1738364, "name": "On or near Nightclub"}, "longitude": "-1.132473"}, "context": "", "outcome_status": {"category": "Under investigation", "date": "2024-12"}, "persistent_id": "0d7b18efbbe818ed03ab3ea9f7c36375617313b75c25f851b0f17982189d83ce", "id": 125102741, "location_subtype": "", "month": "2024-12"}, {"category": "burglary", "location_type": "Force", "location": {"latitude": "52.622945", "street": {"id": 1737514, "name": "On or near Helmdon Road"}, "longitude": "-1.147396"}, "context": "", "outcome_status": {"category": "Investigation complete; no suspect identified", "date": "2024-12"}, "persistent_id": "d04b6843f54d092a45e74879ce4bf46e92109518624bf0bb26f9b17c9b8bf831", "id": 125104561, "location_subtype": "", "month": "2024-12"}, {"category": "burglary", "location_type": "Force", "location": {"latitude": "52.622852", "street": {"id": 1737331, "name": "On or near Bisley Street"}, "longitude": "-1.150707"}, "context": "", "outcome_status": {"category": "Under investigation", "date": "2024-12"}, "persistent_id": "f05a0720b1644f84f16abf88873504b8a32ef499bc9cd2f1f8257d930fc67558", "id": 125108732, "location_subtype": "", "month": "2024-12"}, {"category": "burglary", "location_type": "Force", "location": {"latitude": "52.627137", "street": {"id": 1739115, "name": "On or near St Albans Road"}, "longitude": "-1.117058"}, "context": "", "outcome_status": {"category": "Unable to prosecute suspect", "date": "2025-02"}, "persistent_id": "5dbea918bdcb24d635177375453e4239dd67942448207e4ee37f9b6935728065", "id": 125108508, "location_subtype": "", "month": "2024-12"}, {"category": "criminal-damage-arson", "location_type": "Force", "location": {"latitude": "52.635401", "street": {"id": 1738659, "name": "On or near Parking Area"}, "longitude": "-1.128314"}, "context": "", "outcome_status": {"category": "Investigation complete; no suspect identified", "date": "2024-12"}, "persistent_id": "31ded61ebbec3fa835a018c3a12603af1ec3c99a3886c8620ee2b5a4568fae77", "id": 125103061, "location_subtype": "", "month": "2024-12"}, {"category": "criminal-damage-arson", "location_type": "Force", "location": {"latitude": "52.618429", "street": {"id": 1739131, "name": "On or near Edward Road"}, "longitude": "-1.118666"}, "context": "", "outcome_status": {"category": "Investigation complete; no suspect identified", "date": "2024-12"}, "persistent_id": "0148386e9c13d43135d03c22918ce6c21d32d2ac8b9fba7c35e9394e70a3690d", "id": 125105544, "location_subtype": "", "month": "2024-12"}, {"category": "criminal-damage-arson", "location_type": "Force", "location": {"latitude": "52.635528", "street": {"id": 1738700, "name": "On or near Theatre/concert Hall"}, "longitude": "-1.127553"}, "context": "", "outcome_status": {"category": "Unable to prosecute suspect", "date": "2025-01"}, "persistent_id": "e5ccae0b8f2523fa10e38c6d759ca0977d2ea5f259ff0e01d3e5529442fe97cd", "id": 125103209, "location_subtype": "", "month": "2024-12"}, {"category": "criminal-damage-arson", "location_type": "Force", "location": {"latitude": "52.623681", "street": {"id": 1737804, "name": "On or near Lineker Road"}, "longitude": "-1.140941"}, "context": "", "outcome_status": {"category": "Awaiting court outcome", "date": "2024-12"}, "persistent_id": "55169222d5c2d21bcdae1adf9999e148f22bf7702d5e098af3e404847a66ff0a", "id": 125110771, "location_subtype": "", "month": "2024-12"}, {"category": "criminal-damage-arson", "location_type": "Force", "location": {"latitude": "52.630034", "street": {"id": 1738837, "name": "On or near Nelson Street"}, "longitude": "-1.124594"}, "context": "", "outcome_status": {"category": "Investigation complete; no suspect identified", "date": "2024-12"}, "persistent_id": "d49364c40de46bfcc8b6dd50e1acb818052ea3347356f1cdd0c9fd17ce3a2288", "id": 125107104, "location_subtype": "", "month": "2024-12"}, {"category": "criminal-damage-arson", "location_type": "Force", "location": {"latitude": "52.636857", "street": {"id": 1738642, "name": "On or near St James Street"}, "longitude": "-1.128211"}, "context": "", "outcome_status": {"category": "Further investigation is not in the public interest", "date": "2024-12"}, "persistent_id": "88cd60797d4aee3dbe7bb13021a0cec4631484e6d1c80b134ed73def28811edf", "id": 125102645, "location_subtype": "", "month": "2024-12"}, {"category": "criminal-damage-arson", "location_type": "Force", "location": {"latitude": "52.632052", "street": {"id": 1737636, "name": "On or near Supermarket"}, "longitude": "-1.146096"}, "context": "", "outcome_status": {"category": "Investigation complete; no suspect identified", "date": "2024-12"}, "persistent_id": "72059ecc92a528fe0cad127b7906aeb2f8241b726da655099bad8def7b372f84", "id": 125104890, "location_subtype": "", "month": "2024-12"}, {"category": "criminal-damage-arson", "location_type": "Force", "location": {"latitude": "52.631536", "street": {"id": 1739234, "name": "On or near Oxendon Street"}, "longitude": "-1.114960"}, "context": "", "outcome_status": {"category": "Awaiting court outcome", "date": "2024-12"}, "persistent_id": "1a1c953e030a6dd8aebc3f5b798a601d7a3004d1c97bd178ab74237b8a1ed30c", "id": 125103232, "location_subtype": "", "month": "2024-12"}, {"category": "criminal-damage-arson", "location_type": "Force", "location": {"latitude": "52.634503", "street": {"id": 1737385, "name": "On or near Kate Street"}, "longitude": "-1.149403"}, "context": "", "outcome_status": {"category": "Unable to prosecute suspect", "date": "2025-01"}, "persistent_id": "0c6b5549a1c5ff2f0d163a354184544d44f05d42c032c161bb0b3801278c1c41", "id": 125103413, "location_subtype": "", "month": "2024-12"}, {"category": "criminal-damage-arson", "location_type": "Force", "location": {"latitude": "52.641230", "street": {"id": 1738983, "name": "On or near Chester Close"}, "longitude": "-1.121415"}, "context": "", "outcome_status": {"category": "Investigation complete; no suspect identified", "date": "2025-01"}, "persistent_id": "e6301788623d30ad08202428d7b4b86e7d31d04e8a07696c26368eadbebecb96", "id": 125107961, "location_subtype": "", "month": "2024-12"}, {"category": "criminal-damage-arson", "location_type": "Force", "location": {"latitude": "52.627299", "street": {"id": 1737468, "name": "On or near Norman Street"}, "longitude": "-1.148966"}, "context": "", "outcome_status": {"category": "Investigation complete; no suspect identified", "date": "2025-01"}, "persistent_id": "8d087c1bbadda00897de721b20e13e985e2323bf62c73053bb74826aaf632ceb", "id": 125109019, "location_subtype": "", "month": "2024-12"}, {"category": "criminal-damage-arson", "location_type": "Force", "location": {"latitude": "52.616105", "street": {"id": 1738350, "name": "On or near Euston Street"}, "longitude": "-1.132611"}, "context": "", "outcome_status": {"category": "Local resolution", "date": "2024-12"}, "persistent_id": "a0c325b489804a973e7d8e38b6bf392bc7fc5cbc7938797b0ac2f3da1dde05b8", "id": 125108297, "location_subtype": "", "month": "2024-12"}, {"category": "criminal-damage-arson", "location_type": "Force", "location": {"latitude": "52.634833", "street": {"id": 1739349, "name": "On or near Duffield Street"}, "longitude": "-1.113475"}, "context": "", "outcome_status": {"category": "Awaiting court outcome", "date": "2025-01"}, "persistent_id": "cb616fb49edfcdad51cc89040a4d10d1f791b0c3ac3697e8f37377bd55907e67", "id": 125103943, "location_subtype": "", "month": "2024-12"}, {"category": "criminal-damage-arson", "location_type": "Force", "location": {"latitude": "52.632534", "street": {"id": 1738358, "name": "On or near Market Street"}, "longitude": "-1.133232"}, "context": "", "outcome_status": {"category": "Unable to prosecute suspect", "date": "2024-12"}, "persistent_id": "6209cf8530fa0e3e24eab6c773b6bb72d04d7bc123270fc58166454cc3375e30", "id": 125103505, "location_subtype": "", "month": "2024-12"}, {"category": "criminal-damage-arson", "location_type": "Force", "location": {"latitude": "52.634833", "street": {"id": 1739349, "name": "On or near Duffield Street"}, "longitude": "-1.113475"}, "context": "", "outcome_status": {"category": "Investigation complete; no suspect identified", "date": "2024-12"}, "persistent_id": "65815adc10029f39c26c60c8ed6c05ef6890571adaa38da1ffcb90db48cf4cd5", "id": 125103517, "location_subtype": "", "month": "2024-12"}, {"category": "criminal-damage-arson", "location_type": "Force", "location": {"latitude": "52.631131", "street": {"id": 1737644, "name": "On or near Earl Howe Terrace"}, "longitude": "-1.145568"}, "context": "", "outcome_status": {"category": "Investigation complete; no suspect identified", "date": "2024-12"}, "persistent_id": "288b2b90c3c442654daf5d0ebacb6660bbd0a2e337d40cfbc94dba3e7db49861", "id": 125103901, "location_subtype": "", "month": "2024-12"}, {"category": "criminal-damage-arson", "location_type": "Force", "location": {"latitude": "52.627137", "street": {"id": 1739115, "name": "On or near St Albans Road"}, "longitude": "-1.117058"}, "context": "", "outcome_status": {"category": "Unable to prosecute suspect", "date": "2024-12"}, "persistent_id": "7bc86f88b3600b1bbbe144b37fa5670cc11665d924580d8fb7b4a6c7af6dd9a8", "id": 125108193, "location_subtype": "", "month": "2024-12"}, {"category": "criminal-damage-arson", "location_type": "Force", "location": {"latitude": "52.637041", "street": {"id": 1738379, "name": "On or near Parking Area"}, "longitude": "-1.131222"}, "context": "", "outcome_status": {"category": "Investigation complete; no suspect identified", "date": "2024-12"}, "persistent_id": "3b4dc63c798ab924be97e49d78feed1f50c71f64f920419a87f7c262081ba671", "id": 125102751, "location_subtype": "", "month": "2024-12"}, {"category": "criminal-damage-arson", "location_type": "Force", "location": {"latitude": "52.632541", "street": {"id": 1739325, "name": "On or near Derwent Street"}, "longitude": "-1.113595"}, "context": "", "outcome_status": {"category": "Awaiting court outcome", "date": "2024-12"}, "persistent_id": "346a68b961516b5471398c389052b8cc1e270cc56f0b9cb185ee51de7e354058", "id": 125104256, "location_subtype": "", "month": "2024-12"}, {"category": "criminal-damage-arson", "location_type": "Force", "location": {"latitude": "52.639558", "street": {"id": 1738364, "name": "On or near Nightclub"}, "longitude": "-1.132473"}, "context": "", "outcome_status": {"category": "Investigation complete; no suspect identified", "date": "2024-12"}, "persistent_id": "e4a65bb8917cca001278faa40344313e4c2d3e24e3a740d452f01376c226e012", "id": 125103755, "location_subtype": "", "month": "2024-12"}, {"category": "criminal-damage-arson", "location_type": "Force", "location": {"latitude": "52.626044", "street": {"id": 1739135, "name": "On or near Abingdon Road"}, "longitude": "-1.115086"}, "context": "", "outcome_status": {"category": "Unable to prosecute suspect", "date": "2024-12"}, "persistent_id": "141ad38b7346f6146f5119eee1210e535aedb2ccb9f752e39f2f029346ab37b6", "id": 125103402, "location_subtype": "", "month": "2024-12"}, {"category": "criminal-damage-arson", "location_type": "Force", "location": {"latitude": "52.629446", "street": {"id": 1739406, "name": "On or near St Peters Road"}, "longitude": "-1.111988"}, "context": "", "outcome_status": {"category": "Investigation complete; no suspect identified", "date": "2024-12"}, "persistent_id": "6a5804b00f0ad0dabf4b01c75eb00642ae2c1439aaa428156a76a79d8b46d18f", "id": 125105448, "location_subtype": "", "month": "2024-12"}, {"category": "criminal-damage-arson", "location_type": "Force", "location": {"latitude": "52.634169", "street": {"id": 1738654, "name": "On or near Colton Street"}, "longitude": "-1.128191"}, "context": "", "outcome_status": {"category": "Awaiting court outcome", "date": "2024-12"}, "persistent_id": "0faa6815f28f0d5c0c5e7f585ee444456a6e07760aa4347ee9ff5b7fae2a151d", "id": 125104511, "location_subtype": "", "month": "2024-12"}, {"category": "criminal-damage-arson", "location_type": "Force", "location": {"latitude": "52.638366", "street": {"id": 1738144, "name": "On or near Short Street"}, "longitude": "-1.134122"}, "context": "", "outcome_status": {"category": "Investigation complete; no suspect identified", "date": "2024-12"}, "persistent_id": "6e413d36e77159841a49542a1cd4342ba1dbcb38fc40571e3795763a0f05a5b1", "id": 125103887, "location_subtype": "", "month": "2024-12"}, {"category": "criminal-damage-arson", "location_type": "Force", "location": {"latitude": "52.635488", "street": {"id": 1738121, "name": "On or near Carts Lane"}, "longitude": "-1.136395"}, "context": "", "outcome_status": {"category": "Under investigation", "date": "2024-12"}, "persistent_id": "c59a050e7ae9445fe0a2934387c62a905412b076ac2d04d61f98581ea6b6ac00", "id": 125107729, "location_subtype": "", "month": "2024-12"}, {"category": "criminal-damage-arson", "location_type": "Force", "location": {"latitude": "52.629217", "street": {"id": 1737192, "name": "On or near Westcotes Drive"}, "longitude": "-1.154484"}, "context": "", "outcome_status": {"category": "Investigation complete; no suspect identified", "date": "2024-12"}, "persistent_id": "1a2116cbb828a8680436529141012bbb634aee6eb58c21fe25f445e2660d8b03", "id": 125102342, "location_subtype": "", "month": "2024-12"}, {"category": "criminal-damage-arson", "location_type": "Force", "location": {"latitude": "52.636859", "street": {"id": 1739258, "name": "On or near Cecil Road"}, "longitude": "-1.115163"}, "context": "", "outcome_status": {"category": "Investigation complete; no suspect identified", "date": "2024-12"}, "persistent_id": "493eac03f4891e1ffa6b0fbf02d5d71e55692414592b0a8ade16aefe237efbd5", "id": 125103057, "location_subtype": "", "month": "2024-12"}, {"category": "criminal-damage-arson", "location_type": "Force", "location": {"latitude": "52.642028", "street": {"id": 1738525, "name": "On or near Archdeacon Lane"}, "longitude": "-1.129631"}, "context": "", "outcome_status": {"category": "Investigation complete; no suspect identified", "date": "2024-12"}, "persistent_id": "207c49b7cff64b1d6b757f19c988a09afc4d227cf178d97fcdd9b8aa9c24c623", "id": 125104821, "location_subtype": "", "month": "2024-12"}, {"category": "criminal-damage-arson", "location_type": "Force", "location": {"latitude": "52.636723", "street": {"id": 1737812, "name": "On or near Friars Causeway"}, "longitude": "-1.140686"}, "context": "", "outcome_status": {"category": "Awaiting court outcome", "date": "2025-01"}, "persistent_id": "629c6c703fed9da1838ca9bca811894bfc05a411e4fa9f7ac6748f4b6e88eab6", "id": 125103635, "location_subtype": "", "month": "2024-12"}, {"category": "criminal-damage-arson", "location_type": "Force", "location": {"latitude": "52.632746", "street": {"id": 1738674, "name": "On or near Northampton Street"}, "longitude": "-1.127791"}, "context": "", "outcome_status": {"category": "Investigation complete; no suspect identified", "date": "2024-12"}, "persistent_id": "31566c05c37909184f4f6509dc79d9dd5029cea472984391ac8edb1bcd99a895", "id": 125101527, "location_subtype": "", "month": "2024-12"}, {"category": "criminal-damage-arson", "location_type": "Force", "location": {"latitude": "52.628536", "street": {"id": 1739547, "name": "On or near Biddulph Avenue"}, "longitude": "-1.109318"}, "context": "", "outcome_status": {"category": "Investigation complete; no suspect identified", "date": "2024-12"}, "persistent_id": "7fd0788f0cf8d431f4e5f1ac0bc51ea45cd9608d157cecba10dc3a89faefe5ec", "id": 125106745, "location_subtype": "", "month": "2024-12"}, {"category": "criminal-damage-arson", "location_type": "Force", "location": {"latitude": "52.626898", "street": {"id": 1739308, "name": "On or near Onslow Street"}, "longitude": "-1.113960"}, "context": "", "outcome_status": {"category": "Unable to prosecute suspect", "date": "2024-12"}, "persistent_id": "2741c256f69e33def28951b8b779bcd3119bd6d5843257fc63e66dc95f6572e9", "id": 125103397, "location_subtype": "", "month": "2024-12"}, {"category": "criminal-damage-arson", "location_type": "Force", "location": {"latitude": "52.616105", "street": {"id": 1738350, "name": "On or near Euston Street"}, "longitude": "-1.132611"}, "context": "", "outcome_status": {"category": "Awaiting court outcome", "date": "2024-12"}, "persistent_id": "3befbde2e71bec8998c55689af05bca199c5d33525755a389ffeea09f5bf0c6c", "id": 125104134, "location_subtype": "", "month": "2024-12"}, {"category": "criminal-damage-arson", "location_type": "Force", "location": {"latitude": "52.631190", "street": {"id": 1738923, "name": "On or near Andover Street"}, "longitude": "-1.122887"}, "context": "", "outcome_status": {"category": "Awaiting court outcome", "date": "2025-02"}, "persistent_id": "27dd8380f6c2aaa16ac6063d3def1d69cf5f6b9ae49fded246a919bcfe6b8c46", "id": 125111634, "location_subtype": "", "month": "2024-12"}, {"category": "criminal-damage-arson", "location_type": "Force", "location": {"latitude": "52.637041", "street": {"id": 1738379, "name": "On or near Parking Area"}, "longitude": "-1.131222"}, "context": "", "outcome_status": {"category": "Unable to prosecute suspect", "date": "2024-12"}, "persistent_id": "32c231adaf98f4b10457f54eaab34277a018561b22b8ca2e80b15044c1ad22fb", "id": 125101903, "location_subtype": "", "month": "2024-12"}, {"category": "criminal-damage-arson", "location_type": "Force", "location": {"latitude": "52.635797", "street": {"id": 1738449, "name": "On or near Fox Lane"}, "longitude": "-1.131926"}, "context": "", "outcome_status": {"category": "Investigation complete; no suspect identified", "date": "2024-12"}, "persistent_id": "bdfc598dd7b3df01607a13521dfff7b569d6dd07060391a9c3dd3b1828e29d05", "id": 125101988, "location_subtype": "", "month": "2024-12"}, {"category": "criminal-damage-arson", "location_type": "Force", "location": {"latitude": "52.627299", "street": {"id": 1737468, "name": "On or near Norman Street"}, "longitude": "-1.148966"}, "context": "", "outcome_status": {"category": "Investigation complete; no suspect identified", "date": "2024-12"}, "persistent_id": "d7a694311ce0a6fd413903d8fd22201d4587e035bcc7610d76abb4ebcd9fa6ef", "id": 125109014, "location_subtype": "", "month": "2024-12"}, {"category": "criminal-damage-arson", "location_type": "Force", "location": {"latitude": "52.635488", "street": {"id": 1738121, "name": "On or near Carts Lane"}, "longitude": "-1.136395"}, "context": "", "outcome_status": {"category": "Unable to prosecute suspect", "date": "2024-12"}, "persistent_id": "1ae734e9249988faede8c1bf5639a2223e6cc956fd344057519808d5075dc487", "id": 125106784, "location_subtype": "", "month": "2024-12"}, {"category": "criminal-damage-arson", "location_type": "Force", "location": {"latitude": "52.627299", "street": {"id": 1737468, "name": "On or near Norman Street"}, "longitude": "-1.148966"}, "context": "", "outcome_status": {"category": "Investigation complete; no suspect identified", "date": "2025-01"}, "persistent_id": "7262775a8c036b6f28749acd8a730bc2a10f367cb50c4ad707d7fa805926fd4d", "id": 125108982, "location_subtype": "", "month": "2024-12"}, {"category": "criminal-damage-arson", "location_type": "Force", "location": {"latitude": "52.628343", "street": {"id": 1739500, "name": "On or near Laurel Road"}, "longitude": "-1.110045"}, "context": "", "outcome_status": {"category": "Investigation complete; no suspect identified", "date": "2024-12"}, "persistent_id": "548f2f2543c2b6909af92bfc9038dec069e2a0a499c09c8d392b8a73798804af", "id": 125105492, "location_subtype": "", "month": "2024-12"}, {"category": "criminal-damage-arson", "location_type": "Force", "location": {"latitude": "52.623221", "street": {"id": 1737287, "name": "On or near Ivy Road"}, "longitude": "-1.152030"}, "context": "", "outcome_status": {"category": "Unable to prosecute suspect", "date": "2024-12"}, "persistent_id": "a780fec411378a384228fdd888550974d666b05a698f186684135c3de11b0dce", "id": 125102663, "location_subtype": "", "month": "2024-12"}, {"category": "criminal-damage-arson", "location_type": "Force", "location": {"latitude": "52.636211", "street": {"id": 1738740, "name": "On or near Wimbledon Street"}, "longitude": "-1.125919"}, "context": "", "outcome_status": {"category": "Investigation complete; no suspect identified", "date": "2024-12"}, "persistent_id": "3e00c1fb9f5d29ce44fc70195b759cd2cd5ac91a5108eca88e5e9f3ebfa3c16e", "id": 125110610, "location_subtype": "", "month": "2024-12"}, {"category": "criminal-damage-arson", "location_type": "Force", "location": {"latitude": "52.635182", "street": {"id": 1737576, "name": "On or near Rivers Street"}, "longitude": "-1.147646"}, "context": "", "outcome_status": {"category": "Unable to prosecute suspect", "date": "2024-12"}, "persistent_id": "9a095f29cb9dc7341fde4b0749051725ac1af871ac047e199449acf5edcba2fd", "id": 125106335, "location_subtype": "", "month": "2024-12"}, {"category": "criminal-damage-arson", "location_type": "Force", "location": {"latitude": "52.623681", "street": {"id": 1737804, "name": "On or near Lineker Road"}, "longitude": "-1.140941"}, "context": "", "outcome_status": {"category": "Awaiting court outcome", "date": "2024-12"}, "persistent_id": "c185770d8f588f46880de3240ec957da3fd77c217c69103ebb18a272de888321", "id": 125110795, "location_subtype": "", "month": "2024-12"}, {"category": "criminal-damage-arson", "location_type": "Force", "location": {"latitude": "52.616105", "street": {"id": 1738350, "name": "On or near Euston Street"}, "longitude": "-1.132611"}, "context": "", "outcome_status": {"category": "Awaiting court outcome", "date": "2024-12"}, "persistent_id": "f3be860d9f4a1613c92959350a247e447fddf620491b4a5ab9729386598dc208", "id": 125106264, "location_subtype": "", "month": "2024-12"}, {"category": "criminal-damage-arson", "location_type": "Force", "location": {"latitude": "52.631013", "street": {"id": 1738526, "name": "On or near Park Street"}, "longitude": "-1.130544"}, "context": "", "outcome_status": {"category": "Investigation complete; no suspect identified", "date": "2024-12"}, "persistent_id": "2ab06d1b33a8743d23b0fe3bd9d5833254b51bb9144a27688a025a9baa4c6951", "id": 125110279, "location_subtype": "", "month": "2024-12"}, {"category": "criminal-damage-arson", "location_type": "Force", "location": {"latitude": "52.634392", "street": {"id": 1737937, "name": "On or near Parking Area"}, "longitude": "-1.140229"}, "context": "", "outcome_status": {"category": "Investigation complete; no suspect identified", "date": "2024-12"}, "persistent_id": "39c91e62e0c16dc862c7556b2194ba080bed2286433818a675b331968fff498b", "id": 125109119, "location_subtype": "", "month": "2024-12"}, {"category": "criminal-damage-arson", "location_type": "Force", "location": {"latitude": "52.633317", "street": {"id": 1738721, "name": "On or near Church Street"}, "longitude": "-1.127203"}, "context": "", "outcome_status": {"category": "Investigation complete; no suspect identified", "date": "2025-01"}, "persistent_id": "1640d3475dcfd34f8ab3a0fc2579c78c27c9f86a3cf64a41e890f4363195982d", "id": 125107558, "location_subtype": "", "month": "2024-12"}, {"category": "criminal-damage-arson", "location_type": "Force", "location": {"latitude": "52.633604", "street": {"id": 1739426, "name": "On or near Mere Road"}, "longitude": "-1.110264"}, "context": "", "outcome_status": {"category": "Investigation complete; no suspect identified", "date": "2024-12"}, "persistent_id": "2162b1ffbba8223739d841c7c6fa5d8651bb341a1a3ec47e627b3b0286265339", "id": 125106641, "location_subtype": "", "month": "2024-12"}, {"category": "criminal-damage-arson", "location_type": "Force", "location": {"latitude": "52.634706", "street": {"id": 1737807, "name": "On or near Bath Lane"}, "longitude": "-1.142691"}, "context": "", "outcome_status": {"category": "Investigation complete; no suspect identified", "date": "2024-12"}, "persistent_id": "90c5644784283b19de75defdbb6757ee58962228b9931122f1ab04a6a1ec9e8b", "id": 125107061, "location_subtype": "", "month": "2024-12"}, {"category": "criminal-damage-arson", "location_type": "Force", "location": {"latitude": "52.632870", "street": {"id": 1737604, "name": "On or near Little Holme Street"},